{
  "LastUpdateDate": {
    "year": 2020,
    "month": 7,
    "day": 19
  },
  "county_rates": [
    {
      "County": "Adams",
      "confirmed_cases": 252,
      "confirmed_rate_per_10k": 38.811,
      "confirmed_rate_per_100k": 388.11,
      "deaths": 1,
      "deaths_rate_per_10k": 0.154012,
      "deaths_rate_per_100k": 1.54012,
      "total_tested": 13084,
      "test_rate_per_10k": 2015.09,
      "test_rate_per_100k": 20150.9,
      "total_population": 64930,
      "latitude": 40.057800,
      "longitude": -91.135300
    },
    {
      "County": "Alexander",
      "confirmed_cases": 32,
      "confirmed_rate_per_10k": 55.6715,
      "confirmed_rate_per_100k": 556.715,
      "deaths": 0,
      "deaths_rate_per_10k": 0,
      "deaths_rate_per_100k": 0,
      "total_tested": 837,
      "test_rate_per_10k": 1456.16,
      "test_rate_per_100k": 14561.6,
      "total_population": 5748,
      "latitude": 37.167000,
      "longitude": -89.360600
    },
    {
      "County": "Bond",
      "confirmed_cases": 26,
      "confirmed_rate_per_10k": 14.4798,
      "confirmed_rate_per_100k": 144.798,
      "deaths": 2,
      "deaths_rate_per_10k": 1.11383,
      "deaths_rate_per_100k": 11.1383,
      "total_tested": 1678,
      "test_rate_per_10k": 934.507,
      "test_rate_per_100k": 9345.07,
      "total_population": 17956,
      "latitude": 38.903000,
      "longitude": -89.474200
    },
    {
      "County": "Boone",
      "confirmed_cases": 649,
      "confirmed_rate_per_10k": 126.506,
      "confirmed_rate_per_100k": 1265.06,
      "deaths": 21,
      "deaths_rate_per_10k": 4.09341,
      "deaths_rate_per_100k": 40.9341,
      "total_tested": 7118,
      "test_rate_per_10k": 1387.47,
      "test_rate_per_100k": 13874.7,
      "total_population": 51302,
      "latitude": 42.348500,
      "longitude": -88.826300
    },
    {
      "County": "Brown",
      "confirmed_cases": 11,
      "confirmed_rate_per_10k": 17.2171,
      "confirmed_rate_per_100k": 172.171,
      "deaths": 0,
      "deaths_rate_per_10k": 0,
      "deaths_rate_per_100k": 0,
      "total_tested": 602,
      "test_rate_per_10k": 942.244,
      "test_rate_per_100k": 9422.44,
      "total_population": 6389,
      "latitude": 39.938000,
      "longitude": -90.715300
    },
    {
      "County": "Bureau",
      "confirmed_cases": 53,
      "confirmed_rate_per_10k": 16.4138,
      "confirmed_rate_per_100k": 164.138,
      "deaths": 2,
      "deaths_rate_per_10k": 0.619387,
      "deaths_rate_per_100k": 6.19387,
      "total_tested": 3172,
      "test_rate_per_10k": 982.347,
      "test_rate_per_100k": 9823.47,
      "total_population": 32290,
      "latitude": 41.359900,
      "longitude": -89.474200
    },
    {
      "County": "Calhoun",
      "confirmed_cases": 2,
      "confirmed_rate_per_10k": 4.43262,
      "confirmed_rate_per_100k": 44.3262,
      "deaths": 0,
      "deaths_rate_per_10k": 0,
      "deaths_rate_per_100k": 0,
      "total_tested": 360,
      "test_rate_per_10k": 797.872,
      "test_rate_per_100k": 7978.72,
      "total_population": 4512,
      "latitude": 39.173300,
      "longitude": -90.658300
    },
    {
      "County": "Carroll",
      "confirmed_cases": 23,
      "confirmed_rate_per_10k": 15.801,
      "confirmed_rate_per_100k": 158.01,
      "deaths": 2,
      "deaths_rate_per_10k": 1.374,
      "deaths_rate_per_100k": 13.74,
      "total_tested": 1132,
      "test_rate_per_10k": 777.686,
      "test_rate_per_100k": 7776.86,
      "total_population": 14556,
      "latitude": 42.038600,
      "longitude": -89.962700
    },
    {
      "County": "Cass",
      "confirmed_cases": 152,
      "confirmed_rate_per_10k": 121.058,
      "confirmed_rate_per_100k": 1210.58,
      "deaths": 10,
      "deaths_rate_per_10k": 7.96432,
      "deaths_rate_per_100k": 79.6432,
      "total_tested": 2316,
      "test_rate_per_10k": 1844.54,
      "test_rate_per_100k": 18445.4,
      "total_population": 12556,
      "latitude": 39.939900,
      "longitude": -90.262000
    },
    {
      "County": "Champaign",
      "confirmed_cases": 1209,
      "confirmed_rate_per_10k": 57.3363,
      "confirmed_rate_per_100k": 573.363,
      "deaths": 17,
      "deaths_rate_per_10k": 0.806218,
      "deaths_rate_per_100k": 8.06218,
      "total_tested": 50853,
      "test_rate_per_10k": 2411.68,
      "test_rate_per_100k": 24116.8,
      "total_population": 210861,
      "latitude": 40.213900,
      "longitude": -88.246100
    },
    {
      "County": "Chicago",
      "confirmed_cases": 56963,
      "confirmed_rate_per_10k": 210.507,
      "confirmed_rate_per_100k": 2105.07,
      "deaths": 2728,
      "deaths_rate_per_10k": 10.0813,
      "deaths_rate_per_100k": 100.813,
      "total_tested": 557268,
      "test_rate_per_10k": 2059.38,
      "test_rate_per_100k": 20593.8,
      "total_population": 2.70599e+006,
      "latitude": 41.789896,
      "longitude": -87.627734
    },
    {
      "County": "Christian",
      "confirmed_cases": 55,
      "confirmed_rate_per_10k": 17.4875,
      "confirmed_rate_per_100k": 174.875,
      "deaths": 4,
      "deaths_rate_per_10k": 1.27182,
      "deaths_rate_per_100k": 12.7182,
      "total_tested": 3583,
      "test_rate_per_10k": 1139.23,
      "test_rate_per_100k": 11392.3,
      "total_population": 31451,
      "latitude": 39.567200,
      "longitude": -89.322700
    },
    {
      "County": "Clark",
      "confirmed_cases": 49,
      "confirmed_rate_per_10k": 30.467,
      "confirmed_rate_per_100k": 304.67,
      "deaths": 0,
      "deaths_rate_per_10k": 0,
      "deaths_rate_per_100k": 0,
      "total_tested": 1481,
      "test_rate_per_10k": 920.848,
      "test_rate_per_100k": 9208.48,
      "total_population": 16083,
      "latitude": 39.382400,
      "longitude": -87.776300
    },
    {
      "County": "Clay",
      "confirmed_cases": 8,
      "confirmed_rate_per_10k": 6.30666,
      "confirmed_rate_per_100k": 63.0666,
      "deaths": 0,
      "deaths_rate_per_10k": 0,
      "deaths_rate_per_100k": 0,
      "total_tested": 1430,
      "test_rate_per_10k": 1127.32,
      "test_rate_per_100k": 11273.2,
      "total_population": 12685,
      "latitude": 38.727900,
      "longitude": -88.556500
    },
    {
      "County": "Clinton",
      "confirmed_cases": 268,
      "confirmed_rate_per_10k": 84.5719,
      "confirmed_rate_per_100k": 845.719,
      "deaths": 16,
      "deaths_rate_per_10k": 5.04907,
      "deaths_rate_per_100k": 50.4907,
      "total_tested": 5065,
      "test_rate_per_10k": 1598.35,
      "test_rate_per_100k": 15983.5,
      "total_population": 31689,
      "latitude": 38.568400,
      "longitude": -89.625200
    },
    {
      "County": "Coles",
      "confirmed_cases": 235,
      "confirmed_rate_per_10k": 47.1376,
      "confirmed_rate_per_100k": 471.376,
      "deaths": 17,
      "deaths_rate_per_10k": 3.40996,
      "deaths_rate_per_100k": 34.0996,
      "total_tested": 8338,
      "test_rate_per_10k": 1672.48,
      "test_rate_per_100k": 16724.8,
      "total_population": 49854,
      "latitude": 39.556000,
      "longitude": -88.246100
    },
    {
      "County": "Cook",
      "confirmed_cases": 41707,
      "confirmed_rate_per_10k": 170.924,
      "confirmed_rate_per_100k": 1709.24,
      "deaths": 2048,
      "deaths_rate_per_10k": 8.39315,
      "deaths_rate_per_100k": 83.9315,
      "total_tested": 461082,
      "test_rate_per_10k": 1889.62,
      "test_rate_per_100k": 18896.2,
      "total_population": 2.44008e+006,
      "latitude": 42.050784,
      "longitude": -87.963759
    },
    {
      "County": "Crawford",
      "confirmed_cases": 24,
      "confirmed_rate_per_10k": 12.3501,
      "confirmed_rate_per_100k": 123.501,
      "deaths": 0,
      "deaths_rate_per_10k": 0,
      "deaths_rate_per_100k": 0,
      "total_tested": 1252,
      "test_rate_per_10k": 644.265,
      "test_rate_per_100k": 6442.65,
      "total_population": 19433,
      "latitude": 41.833000,
      "longitude": -88.710900
    },
    {
      "County": "Cumberland",
      "confirmed_cases": 36,
      "confirmed_rate_per_10k": 32.5939,
      "confirmed_rate_per_100k": 325.939,
      "deaths": 1,
      "deaths_rate_per_10k": 0.905387,
      "deaths_rate_per_100k": 9.05387,
      "total_tested": 1429,
      "test_rate_per_10k": 1293.8,
      "test_rate_per_100k": 12938,
      "total_population": 11045,
      "latitude": 39.265400,
      "longitude": -88.207200
    },
    {
      "County": "De Witt",
      "confirmed_cases": 20,
      "confirmed_rate_per_10k": 12.998,
      "confirmed_rate_per_100k": 129.98,
      "deaths": 0,
      "deaths_rate_per_10k": 0,
      "deaths_rate_per_100k": 0,
      "total_tested": 1400,
      "test_rate_per_10k": 909.859,
      "test_rate_per_100k": 9098.59,
      "total_population": 15387,
      "latitude": 40.181000,
      "longitude": -88.903100
    },
    {
      "County": "DeKalb",
      "confirmed_cases": 699,
      "confirmed_rate_per_10k": 66.5816,
      "confirmed_rate_per_100k": 665.816,
      "deaths": 23,
      "deaths_rate_per_10k": 2.19081,
      "deaths_rate_per_100k": 21.9081,
      "total_tested": 12607,
      "test_rate_per_10k": 1200.85,
      "test_rate_per_100k": 12008.5,
      "total_population": 104984,
      "latitude": 41.833000,
      "longitude": -88.710900
    },
    {
      "County": "Douglas",
      "confirmed_cases": 76,
      "confirmed_rate_per_10k": 34.5517,
      "confirmed_rate_per_100k": 345.517,
      "deaths": 0,
      "deaths_rate_per_10k": 0,
      "deaths_rate_per_100k": 0,
      "total_tested": 2509,
      "test_rate_per_10k": 1140.66,
      "test_rate_per_100k": 11406.6,
      "total_population": 21996,
      "latitude": 39.761800,
      "longitude": -88.207200
    },
    {
      "County": "DuPage",
      "confirmed_cases": 10196,
      "confirmed_rate_per_10k": 106.121,
      "confirmed_rate_per_100k": 1061.21,
      "deaths": 497,
      "deaths_rate_per_10k": 5.17281,
      "deaths_rate_per_100k": 51.7281,
      "total_tested": 141793,
      "test_rate_per_10k": 1475.79,
      "test_rate_per_100k": 14757.9,
      "total_population": 960793,
      "latitude": 41.824400,
      "longitude": -88.090100
    },
    {
      "County": "Edgar",
      "confirmed_cases": 21,
      "confirmed_rate_per_10k": 12.4563,
      "confirmed_rate_per_100k": 124.563,
      "deaths": 0,
      "deaths_rate_per_10k": 0,
      "deaths_rate_per_100k": 0,
      "total_tested": 1540,
      "test_rate_per_10k": 913.459,
      "test_rate_per_100k": 9134.59,
      "total_population": 16859,
      "latitude": 39.713100,
      "longitude": -87.776300
    },
    {
      "County": "Edwards",
      "confirmed_cases": 5,
      "confirmed_rate_per_10k": 8.67754,
      "confirmed_rate_per_100k": 86.7754,
      "deaths": 0,
      "deaths_rate_per_10k": 0,
      "deaths_rate_per_100k": 0,
      "total_tested": 336,
      "test_rate_per_10k": 583.131,
      "test_rate_per_100k": 5831.31,
      "total_population": 5762,
      "latitude": 38.426800,
      "longitude": -88.051000
    },
    {
      "County": "Effingham",
      "confirmed_cases": 42,
      "confirmed_rate_per_10k": 12.3711,
      "confirmed_rate_per_100k": 123.711,
      "deaths": 1,
      "deaths_rate_per_10k": 0.294551,
      "deaths_rate_per_100k": 2.94551,
      "total_tested": 3707,
      "test_rate_per_10k": 1091.9,
      "test_rate_per_100k": 10919,
      "total_population": 33950,
      "latitude": 39.062200,
      "longitude": -88.556500
    },
    {
      "County": "Fayette",
      "confirmed_cases": 35,
      "confirmed_rate_per_10k": 16.1977,
      "confirmed_rate_per_100k": 161.977,
      "deaths": 3,
      "deaths_rate_per_10k": 1.38837,
      "deaths_rate_per_100k": 13.8837,
      "total_tested": 2082,
      "test_rate_per_10k": 963.532,
      "test_rate_per_100k": 9635.32,
      "total_population": 21608,
      "latitude": 39.067000,
      "longitude": -89.017900
    },
    {
      "County": "Ford",
      "confirmed_cases": 32,
      "confirmed_rate_per_10k": 24.4536,
      "confirmed_rate_per_100k": 244.536,
      "deaths": 1,
      "deaths_rate_per_10k": 0.764175,
      "deaths_rate_per_100k": 7.64175,
      "total_tested": 1934,
      "test_rate_per_10k": 1477.92,
      "test_rate_per_100k": 14779.2,
      "total_population": 13086,
      "latitude": 40.498900,
      "longitude": -88.207200
    },
    {
      "County": "Franklin",
      "confirmed_cases": 71,
      "confirmed_rate_per_10k": 18.0157,
      "confirmed_rate_per_100k": 180.157,
      "deaths": 0,
      "deaths_rate_per_10k": 0,
      "deaths_rate_per_100k": 0,
      "total_tested": 4060,
      "test_rate_per_10k": 1030.2,
      "test_rate_per_100k": 10302,
      "total_population": 39410,
      "latitude": 38.015700,
      "longitude": -88.903100
    },
    {
      "County": "Fulton",
      "confirmed_cases": 18,
      "confirmed_rate_per_10k": 5.13303,
      "confirmed_rate_per_100k": 51.3303,
      "deaths": 0,
      "deaths_rate_per_10k": 0,
      "deaths_rate_per_100k": 0,
      "total_tested": 3577,
      "test_rate_per_10k": 1020.05,
      "test_rate_per_100k": 10200.5,
      "total_population": 35067,
      "latitude": 40.553200,
      "longitude": -90.224500
    },
    {
      "County": "Gallatin",
      "confirmed_cases": 15,
      "confirmed_rate_per_10k": 29.7678,
      "confirmed_rate_per_100k": 297.678,
      "deaths": 0,
      "deaths_rate_per_10k": 0,
      "deaths_rate_per_100k": 0,
      "total_tested": 276,
      "test_rate_per_10k": 547.728,
      "test_rate_per_100k": 5477.28,
      "total_population": 5039,
      "latitude": 37.710800,
      "longitude": -88.246100
    },
    {
      "County": "Greene",
      "confirmed_cases": 13,
      "confirmed_rate_per_10k": 9.81354,
      "confirmed_rate_per_100k": 98.1354,
      "deaths": 0,
      "deaths_rate_per_10k": 0,
      "deaths_rate_per_100k": 0,
      "total_tested": 1208,
      "test_rate_per_10k": 911.905,
      "test_rate_per_100k": 9119.05,
      "total_population": 13247,
      "latitude": 39.403000,
      "longitude": -90.374800
    },
    {
      "County": "Grundy",
      "confirmed_cases": 214,
      "confirmed_rate_per_10k": 40.9162,
      "confirmed_rate_per_100k": 409.162,
      "deaths": 5,
      "deaths_rate_per_10k": 0.955986,
      "deaths_rate_per_100k": 9.55986,
      "total_tested": 4950,
      "test_rate_per_10k": 946.427,
      "test_rate_per_100k": 9464.27,
      "total_population": 52302,
      "latitude": 41.350100,
      "longitude": -88.401600
    },
    {
      "County": "Hamilton",
      "confirmed_cases": 9,
      "confirmed_rate_per_10k": 10.6787,
      "confirmed_rate_per_100k": 106.787,
      "deaths": 0,
      "deaths_rate_per_10k": 0,
      "deaths_rate_per_100k": 0,
      "total_tested": 551,
      "test_rate_per_10k": 653.773,
      "test_rate_per_100k": 6537.73,
      "total_population": 8428,
      "latitude": 38.054300,
      "longitude": -88.556500
    },
    {
      "County": "Hancock",
      "confirmed_cases": 22,
      "confirmed_rate_per_10k": 11.9513,
      "confirmed_rate_per_100k": 119.513,
      "deaths": 1,
      "deaths_rate_per_10k": 0.543242,
      "deaths_rate_per_100k": 5.43242,
      "total_tested": 2583,
      "test_rate_per_10k": 1403.19,
      "test_rate_per_100k": 14031.9,
      "total_population": 18408,
      "latitude": 40.384900,
      "longitude": -91.135300
    },
    {
      "County": "Hardin",
      "confirmed_cases": 5,
      "confirmed_rate_per_10k": 12.13,
      "confirmed_rate_per_100k": 121.3,
      "deaths": 0,
      "deaths_rate_per_10k": 0,
      "deaths_rate_per_100k": 0,
      "total_tested": 307,
      "test_rate_per_10k": 744.784,
      "test_rate_per_100k": 7447.84,
      "total_population": 4122,
      "latitude": 37.499500,
      "longitude": -88.362800
    },
    {
      "County": "Henderson",
      "confirmed_cases": 8,
      "confirmed_rate_per_10k": 13.1622,
      "confirmed_rate_per_100k": 131.622,
      "deaths": 0,
      "deaths_rate_per_10k": 0,
      "deaths_rate_per_100k": 0,
      "total_tested": 483,
      "test_rate_per_10k": 794.669,
      "test_rate_per_100k": 7946.69,
      "total_population": 6078,
      "latitude": 40.833600,
      "longitude": -90.943800
    },
    {
      "County": "Henry",
      "confirmed_cases": 143,
      "confirmed_rate_per_10k": 30.0559,
      "confirmed_rate_per_100k": 300.559,
      "deaths": 1,
      "deaths_rate_per_10k": 0.210181,
      "deaths_rate_per_100k": 2.10181,
      "total_tested": 6257,
      "test_rate_per_10k": 1315.1,
      "test_rate_per_100k": 13151,
      "total_population": 47578,
      "latitude": 41.361100,
      "longitude": -90.074700
    },
    {
      "County": "Iroquois",
      "confirmed_cases": 181,
      "confirmed_rate_per_10k": 69.8356,
      "confirmed_rate_per_100k": 698.356,
      "deaths": 5,
      "deaths_rate_per_10k": 1.92916,
      "deaths_rate_per_100k": 19.2916,
      "total_tested": 4669,
      "test_rate_per_10k": 1801.45,
      "test_rate_per_100k": 18014.5,
      "total_population": 25918,
      "latitude": 40.774000,
      "longitude": -87.697600
    },
    {
      "County": "Jackson",
      "confirmed_cases": 400,
      "confirmed_rate_per_10k": 66.65,
      "confirmed_rate_per_100k": 666.5,
      "deaths": 19,
      "deaths_rate_per_10k": 3.16588,
      "deaths_rate_per_100k": 31.6588,
      "total_tested": 7373,
      "test_rate_per_10k": 1228.53,
      "test_rate_per_100k": 12285.3,
      "total_population": 60015,
      "latitude": 37.721800,
      "longitude": -89.322700
    },
    {
      "County": "Jasper",
      "confirmed_cases": 49,
      "confirmed_rate_per_10k": 54.3659,
      "confirmed_rate_per_100k": 543.659,
      "deaths": 7,
      "deaths_rate_per_10k": 7.76656,
      "deaths_rate_per_100k": 77.6656,
      "total_tested": 1155,
      "test_rate_per_10k": 1281.48,
      "test_rate_per_100k": 12814.8,
      "total_population": 9013,
      "latitude": 39.055500,
      "longitude": -88.090100
    },
    {
      "County": "Jefferson",
      "confirmed_cases": 130,
      "confirmed_rate_per_10k": 35.1913,
      "confirmed_rate_per_100k": 351.913,
      "deaths": 17,
      "deaths_rate_per_10k": 4.60193,
      "deaths_rate_per_100k": 46.0193,
      "total_tested": 3774,
      "test_rate_per_10k": 1021.63,
      "test_rate_per_100k": 10216.3,
      "total_population": 36941,
      "latitude": 38.226700,
      "longitude": -88.864700
    },
    {
      "County": "Jersey",
      "confirmed_cases": 52,
      "confirmed_rate_per_10k": 29.9281,
      "confirmed_rate_per_100k": 299.281,
      "deaths": 1,
      "deaths_rate_per_10k": 0.57554,
      "deaths_rate_per_100k": 5.7554,
      "total_tested": 1722,
      "test_rate_per_10k": 991.079,
      "test_rate_per_100k": 9910.79,
      "total_population": 17375,
      "latitude": 39.070500,
      "longitude": -90.374800
    },
    {
      "County": "Jo Daviess",
      "confirmed_cases": 64,
      "confirmed_rate_per_10k": 30.79,
      "confirmed_rate_per_100k": 307.9,
      "deaths": 1,
      "deaths_rate_per_10k": 0.481093,
      "deaths_rate_per_100k": 4.81093,
      "total_tested": 2252,
      "test_rate_per_10k": 1083.42,
      "test_rate_per_100k": 10834.2,
      "total_population": 20786,
      "latitude": 42.314900,
      "longitude": -90.224500
    },
    {
      "County": "Johnson",
      "confirmed_cases": 38,
      "confirmed_rate_per_10k": 28.4602,
      "confirmed_rate_per_100k": 284.602,
      "deaths": 0,
      "deaths_rate_per_10k": 0,
      "deaths_rate_per_100k": 0,
      "total_tested": 1018,
      "test_rate_per_10k": 762.433,
      "test_rate_per_100k": 7624.33,
      "total_population": 13352,
      "latitude": 37.420400,
      "longitude": -88.903100
    },
    {
      "County": "Kane",
      "confirmed_cases": 8361,
      "confirmed_rate_per_10k": 176.452,
      "confirmed_rate_per_100k": 1764.52,
      "deaths": 289,
      "deaths_rate_per_10k": 6.09909,
      "deaths_rate_per_100k": 60.9909,
      "total_tested": 78716,
      "test_rate_per_10k": 1661.23,
      "test_rate_per_100k": 16612.3,
      "total_population": 473841,
      "latitude": 41.987900,
      "longitude": -88.401600
    },
    {
      "County": "Kankakee",
      "confirmed_cases": 1504,
      "confirmed_rate_per_10k": 136.399,
      "confirmed_rate_per_100k": 1363.99,
      "deaths": 66,
      "deaths_rate_per_10k": 5.98558,
      "deaths_rate_per_100k": 59.8558,
      "total_tested": 23270,
      "test_rate_per_10k": 2110.37,
      "test_rate_per_100k": 21103.7,
      "total_population": 110265,
      "latitude": 41.179100,
      "longitude": -87.776300
    },
    {
      "County": "Kendall",
      "confirmed_cases": 1125,
      "confirmed_rate_per_10k": 98.0743,
      "confirmed_rate_per_100k": 980.743,
      "deaths": 21,
      "deaths_rate_per_10k": 1.83072,
      "deaths_rate_per_100k": 18.3072,
      "total_tested": 15250,
      "test_rate_per_10k": 1329.45,
      "test_rate_per_100k": 13294.5,
      "total_population": 114709,
      "latitude": 41.550700,
      "longitude": -88.440400
    },
    {
      "County": "Knox",
      "confirmed_cases": 190,
      "confirmed_rate_per_10k": 38.3761,
      "confirmed_rate_per_100k": 383.761,
      "deaths": 0,
      "deaths_rate_per_10k": 0,
      "deaths_rate_per_100k": 0,
      "total_tested": 5117,
      "test_rate_per_10k": 1033.53,
      "test_rate_per_100k": 10335.3,
      "total_population": 49510,
      "latitude": 40.877600,
      "longitude": -90.224500
    },
    {
      "County": "Lake",
      "confirmed_cases": 10818,
      "confirmed_rate_per_10k": 149.501,
      "confirmed_rate_per_100k": 1495.01,
      "deaths": 433,
      "deaths_rate_per_10k": 5.98392,
      "deaths_rate_per_100k": 59.8392,
      "total_tested": 116325,
      "test_rate_per_10k": 1607.57,
      "test_rate_per_100k": 16075.7,
      "total_population": 723606,
      "latitude": 42.368900,
      "longitude": -87.827200
    },
    {
      "County": "LaSalle",
      "confirmed_cases": 328,
      "confirmed_rate_per_10k": 30.0188,
      "confirmed_rate_per_100k": 300.188,
      "deaths": 18,
      "deaths_rate_per_10k": 1.64737,
      "deaths_rate_per_100k": 16.4737,
      "total_tested": 11641,
      "test_rate_per_10k": 1065.39,
      "test_rate_per_100k": 10653.9,
      "total_population": 109265,
      "latitude": 41.436400,
      "longitude": -88.941400
    },
    {
      "County": "Lawrence",
      "confirmed_cases": 23,
      "confirmed_rate_per_10k": 15.2946,
      "confirmed_rate_per_100k": 152.946,
      "deaths": 0,
      "deaths_rate_per_10k": 0,
      "deaths_rate_per_100k": 0,
      "total_tested": 1520,
      "test_rate_per_10k": 1010.77,
      "test_rate_per_100k": 10107.7,
      "total_population": 15038,
      "latitude": 38.715800,
      "longitude": -87.776300
    },
    {
      "County": "Lee",
      "confirmed_cases": 117,
      "confirmed_rate_per_10k": 33.8248,
      "confirmed_rate_per_100k": 338.248,
      "deaths": 2,
      "deaths_rate_per_10k": 0.578202,
      "deaths_rate_per_100k": 5.78202,
      "total_tested": 3096,
      "test_rate_per_10k": 895.056,
      "test_rate_per_100k": 8950.56,
      "total_population": 34590,
      "latitude": 41.679000,
      "longitude": -89.322700
    },
    {
      "County": "Livingston",
      "confirmed_cases": 60,
      "confirmed_rate_per_10k": 18.3447,
      "confirmed_rate_per_100k": 183.447,
      "deaths": 2,
      "deaths_rate_per_10k": 0.61149,
      "deaths_rate_per_100k": 6.1149,
      "total_tested": 3719,
      "test_rate_per_10k": 1137.07,
      "test_rate_per_100k": 11370.7,
      "total_population": 32707,
      "latitude": 40.868900,
      "longitude": -88.556500
    },
    {
      "County": "Logan",
      "confirmed_cases": 43,
      "confirmed_rate_per_10k": 15.1398,
      "confirmed_rate_per_100k": 151.398,
      "deaths": 0,
      "deaths_rate_per_10k": 0,
      "deaths_rate_per_100k": 0,
      "total_tested": 5350,
      "test_rate_per_10k": 1883.67,
      "test_rate_per_100k": 18836.7,
      "total_population": 28402,
      "latitude": 40.061300,
      "longitude": -89.322700
    },
    {
      "County": "Macon",
      "confirmed_cases": 275,
      "confirmed_rate_per_10k": 26.7094,
      "confirmed_rate_per_100k": 267.094,
      "deaths": 22,
      "deaths_rate_per_10k": 2.13675,
      "deaths_rate_per_100k": 21.3675,
      "total_tested": 12040,
      "test_rate_per_10k": 1169.39,
      "test_rate_per_100k": 11693.9,
      "total_population": 102960,
      "latitude": 39.894900,
      "longitude": -89.017900
    },
    {
      "County": "Macoupin",
      "confirmed_cases": 86,
      "confirmed_rate_per_10k": 17.7137,
      "confirmed_rate_per_100k": 177.137,
      "deaths": 3,
      "deaths_rate_per_10k": 0.61792,
      "deaths_rate_per_100k": 6.1792,
      "total_tested": 7349,
      "test_rate_per_10k": 1513.7,
      "test_rate_per_100k": 15137,
      "total_population": 48550,
      "latitude": 39.237500,
      "longitude": -89.925300
    },
    {
      "County": "Madison",
      "confirmed_cases": 1478,
      "confirmed_rate_per_10k": 55.2941,
      "confirmed_rate_per_100k": 552.941,
      "deaths": 71,
      "deaths_rate_per_10k": 2.65621,
      "deaths_rate_per_100k": 26.5621,
      "total_tested": 28123,
      "test_rate_per_10k": 1052.12,
      "test_rate_per_100k": 10521.2,
      "total_population": 267298,
      "latitude": 38.904100,
      "longitude": -89.925300
    },
    {
      "County": "Marion",
      "confirmed_cases": 89,
      "confirmed_rate_per_10k": 19.8661,
      "confirmed_rate_per_100k": 198.661,
      "deaths": 0,
      "deaths_rate_per_10k": 0,
      "deaths_rate_per_100k": 0,
      "total_tested": 4164,
      "test_rate_per_10k": 929.464,
      "test_rate_per_100k": 9294.64,
      "total_population": 44800,
      "latitude": 38.731300,
      "longitude": -88.864700
    },
    {
      "County": "Marshall",
      "confirmed_cases": 15,
      "confirmed_rate_per_10k": 14.0739,
      "confirmed_rate_per_100k": 140.739,
      "deaths": 0,
      "deaths_rate_per_10k": 0,
      "deaths_rate_per_100k": 0,
      "total_tested": 1253,
      "test_rate_per_10k": 1175.64,
      "test_rate_per_100k": 11756.4,
      "total_population": 10658,
      "latitude": 40.997300,
      "longitude": -89.360600
    },
    {
      "County": "Mason",
      "confirmed_cases": 36,
      "confirmed_rate_per_10k": 23.4131,
      "confirmed_rate_per_100k": 234.131,
      "deaths": 0,
      "deaths_rate_per_10k": 0,
      "deaths_rate_per_100k": 0,
      "total_tested": 1877,
      "test_rate_per_10k": 1220.73,
      "test_rate_per_100k": 12207.3,
      "total_population": 15376,
      "latitude": 40.227100,
      "longitude": -89.925300
    },
    {
      "County": "Massac",
      "confirmed_cases": 19,
      "confirmed_rate_per_10k": 14.665,
      "confirmed_rate_per_100k": 146.65,
      "deaths": 0,
      "deaths_rate_per_10k": 0,
      "deaths_rate_per_100k": 0,
      "total_tested": 1296,
      "test_rate_per_10k": 1000.31,
      "test_rate_per_100k": 10003.1,
      "total_population": 12956,
      "latitude": 37.247800,
      "longitude": -88.749400
    },
    {
      "County": "McDonough",
      "confirmed_cases": 115,
      "confirmed_rate_per_10k": 39.7814,
      "confirmed_rate_per_100k": 397.814,
      "deaths": 15,
      "deaths_rate_per_10k": 5.18888,
      "deaths_rate_per_100k": 51.8888,
      "total_tested": 3139,
      "test_rate_per_10k": 1085.86,
      "test_rate_per_100k": 10858.6,
      "total_population": 28908,
      "latitude": 40.388500,
      "longitude": -90.677300
    },
    {
      "County": "McHenry",
      "confirmed_cases": 2463,
      "confirmed_rate_per_10k": 73.4748,
      "confirmed_rate_per_100k": 734.748,
      "deaths": 107,
      "deaths_rate_per_10k": 3.19196,
      "deaths_rate_per_100k": 31.9196,
      "total_tested": 32825,
      "test_rate_per_10k": 979.216,
      "test_rate_per_100k": 9792.16,
      "total_population": 335217,
      "latitude": 42.304000,
      "longitude": -88.401600
    },
    {
      "County": "McLean",
      "confirmed_cases": 386,
      "confirmed_rate_per_10k": 22.1691,
      "confirmed_rate_per_100k": 221.691,
      "deaths": 15,
      "deaths_rate_per_10k": 0.861495,
      "deaths_rate_per_100k": 8.61495,
      "total_tested": 19097,
      "test_rate_per_10k": 1096.8,
      "test_rate_per_100k": 10968,
      "total_population": 174116,
      "latitude": 40.547800,
      "longitude": -88.864700
    },
    {
      "County": "Menard",
      "confirmed_cases": 34,
      "confirmed_rate_per_10k": 27.8392,
      "confirmed_rate_per_100k": 278.392,
      "deaths": 0,
      "deaths_rate_per_10k": 0,
      "deaths_rate_per_100k": 0,
      "total_tested": 1943,
      "test_rate_per_10k": 1590.93,
      "test_rate_per_100k": 15909.3,
      "total_population": 12213,
      "latitude": 40.022100,
      "longitude": -89.813000
    },
    {
      "County": "Mercer",
      "confirmed_cases": 34,
      "confirmed_rate_per_10k": 22.9513,
      "confirmed_rate_per_100k": 229.513,
      "deaths": 0,
      "deaths_rate_per_10k": 0,
      "deaths_rate_per_100k": 0,
      "total_tested": 1712,
      "test_rate_per_10k": 1155.66,
      "test_rate_per_100k": 11556.6,
      "total_population": 14814,
      "latitude": 41.198500,
      "longitude": -90.677300
    },
    {
      "County": "Monroe",
      "confirmed_cases": 192,
      "confirmed_rate_per_10k": 56.1683,
      "confirmed_rate_per_100k": 561.683,
      "deaths": 13,
      "deaths_rate_per_10k": 3.80306,
      "deaths_rate_per_100k": 38.0306,
      "total_tested": 2850,
      "test_rate_per_10k": 833.748,
      "test_rate_per_100k": 8337.48,
      "total_population": 34183,
      "latitude": 38.274300,
      "longitude": -90.187000
    },
    {
      "County": "Montgomery",
      "confirmed_cases": 106,
      "confirmed_rate_per_10k": 36.7558,
      "confirmed_rate_per_100k": 367.558,
      "deaths": 2,
      "deaths_rate_per_10k": 0.693505,
      "deaths_rate_per_100k": 6.93505,
      "total_tested": 4824,
      "test_rate_per_10k": 1672.73,
      "test_rate_per_100k": 16727.3,
      "total_population": 28839,
      "latitude": 39.236400,
      "longitude": -89.474200
    },
    {
      "County": "Morgan",
      "confirmed_cases": 145,
      "confirmed_rate_per_10k": 43.1843,
      "confirmed_rate_per_100k": 431.843,
      "deaths": 5,
      "deaths_rate_per_10k": 1.48911,
      "deaths_rate_per_100k": 14.8911,
      "total_tested": 5723,
      "test_rate_per_10k": 1704.44,
      "test_rate_per_100k": 17044.4,
      "total_population": 33577,
      "latitude": 39.734100,
      "longitude": -90.224500
    },
    {
      "County": "Moultrie",
      "confirmed_cases": 29,
      "confirmed_rate_per_10k": 21.3094,
      "confirmed_rate_per_100k": 213.094,
      "deaths": 0,
      "deaths_rate_per_10k": 0,
      "deaths_rate_per_100k": 0,
      "total_tested": 1489,
      "test_rate_per_10k": 1094.13,
      "test_rate_per_100k": 10941.3,
      "total_population": 13609,
      "latitude": 39.602100,
      "longitude": -88.595200
    },
    {
      "County": "Ogle",
      "confirmed_cases": 338,
      "confirmed_rate_per_10k": 69.2481,
      "confirmed_rate_per_100k": 692.481,
      "deaths": 5,
      "deaths_rate_per_10k": 1.02438,
      "deaths_rate_per_100k": 10.2438,
      "total_tested": 6258,
      "test_rate_per_10k": 1282.11,
      "test_rate_per_100k": 12821.1,
      "total_population": 48810,
      "latitude": 41.997000,
      "longitude": -89.322700
    },
    {
      "County": "Peoria",
      "confirmed_cases": 824,
      "confirmed_rate_per_10k": 46.1418,
      "confirmed_rate_per_100k": 461.418,
      "deaths": 31,
      "deaths_rate_per_10k": 1.73592,
      "deaths_rate_per_100k": 17.3592,
      "total_tested": 30682,
      "test_rate_per_10k": 1718.11,
      "test_rate_per_100k": 17181.1,
      "total_population": 178580,
      "latitude": 40.715600,
      "longitude": -89.775500
    },
    {
      "County": "Perry",
      "confirmed_cases": 67,
      "confirmed_rate_per_10k": 34.4119,
      "confirmed_rate_per_100k": 344.119,
      "deaths": 1,
      "deaths_rate_per_10k": 0.513611,
      "deaths_rate_per_100k": 5.13611,
      "total_tested": 2465,
      "test_rate_per_10k": 1266.05,
      "test_rate_per_100k": 12660.5,
      "total_population": 19470,
      "latitude": 38.061200,
      "longitude": -89.322700
    },
    {
      "County": "Piatt",
      "confirmed_cases": 26,
      "confirmed_rate_per_10k": 16.4692,
      "confirmed_rate_per_100k": 164.692,
      "deaths": 0,
      "deaths_rate_per_10k": 0,
      "deaths_rate_per_100k": 0,
      "total_tested": 2642,
      "test_rate_per_10k": 1673.53,
      "test_rate_per_100k": 16735.3,
      "total_population": 15787,
      "latitude": 40.054400,
      "longitude": -88.855650
    },
    {
      "County": "Pike",
      "confirmed_cases": 9,
      "confirmed_rate_per_10k": 5.61097,
      "confirmed_rate_per_100k": 56.1097,
      "deaths": 0,
      "deaths_rate_per_10k": 0,
      "deaths_rate_per_100k": 0,
      "total_tested": 1151,
      "test_rate_per_10k": 717.581,
      "test_rate_per_100k": 7175.81,
      "total_population": 16040,
      "latitude": 39.566200,
      "longitude": -90.829400
    },
    {
      "County": "Pope",
      "confirmed_cases": 2,
      "confirmed_rate_per_10k": 6.20732,
      "confirmed_rate_per_100k": 62.0732,
      "deaths": 0,
      "deaths_rate_per_10k": 0,
      "deaths_rate_per_100k": 0,
      "total_tested": 208,
      "test_rate_per_10k": 645.562,
      "test_rate_per_100k": 6455.62,
      "total_population": 3222,
      "latitude": 37.417100,
      "longitude": -88.595200
    },
    {
      "County": "Pulaski",
      "confirmed_cases": 87,
      "confirmed_rate_per_10k": 154.667,
      "confirmed_rate_per_100k": 1546.67,
      "deaths": 0,
      "deaths_rate_per_10k": 0,
      "deaths_rate_per_100k": 0,
      "total_tested": 674,
      "test_rate_per_10k": 1198.22,
      "test_rate_per_100k": 11982.2,
      "total_population": 5625,
      "latitude": 37.251200,
      "longitude": -89.132500
    },
    {
      "County": "Putnam",
      "confirmed_cases": 2,
      "confirmed_rate_per_10k": 3.38581,
      "confirmed_rate_per_100k": 33.8581,
      "deaths": 0,
      "deaths_rate_per_10k": 0,
      "deaths_rate_per_100k": 0,
      "total_tested": 353,
      "test_rate_per_10k": 597.596,
      "test_rate_per_100k": 5975.96,
      "total_population": 5907,
      "latitude": 41.238500,
      "longitude": -89.284700
    },
    {
      "County": "Randolph",
      "confirmed_cases": 363,
      "confirmed_rate_per_10k": 102.795,
      "confirmed_rate_per_100k": 1027.95,
      "deaths": 7,
      "deaths_rate_per_10k": 1.98227,
      "deaths_rate_per_100k": 19.8227,
      "total_tested": 4594,
      "test_rate_per_10k": 1300.94,
      "test_rate_per_100k": 13009.4,
      "total_population": 35313,
      "latitude": 38.062900,
      "longitude": -89.775500
    },
    {
      "County": "Richland",
      "confirmed_cases": 10,
      "confirmed_rate_per_10k": 6.34437,
      "confirmed_rate_per_100k": 63.4437,
      "deaths": 0,
      "deaths_rate_per_10k": 0,
      "deaths_rate_per_100k": 0,
      "total_tested": 2040,
      "test_rate_per_10k": 1294.25,
      "test_rate_per_100k": 12942.5,
      "total_population": 15762,
      "latitude": 38.721300,
      "longitude": -88.090100
    },
    {
      "County": "Rock Island",
      "confirmed_cases": 1344,
      "confirmed_rate_per_10k": 93.6461,
      "confirmed_rate_per_100k": 936.461,
      "deaths": 30,
      "deaths_rate_per_10k": 2.09032,
      "deaths_rate_per_100k": 20.9032,
      "total_tested": 27554,
      "test_rate_per_10k": 1919.89,
      "test_rate_per_100k": 19198.9,
      "total_population": 143519,
      "latitude": 41.509500,
      "longitude": -90.578700
    },
    {
      "County": "Saline",
      "confirmed_cases": 45,
      "confirmed_rate_per_10k": 18.5208,
      "confirmed_rate_per_100k": 185.208,
      "deaths": 0,
      "deaths_rate_per_10k": 0,
      "deaths_rate_per_100k": 0,
      "total_tested": 2268,
      "test_rate_per_10k": 933.449,
      "test_rate_per_100k": 9334.49,
      "total_population": 24297,
      "latitude": 37.715000,
      "longitude": -88.556500
    },
    {
      "County": "Sangamon",
      "confirmed_cases": 656,
      "confirmed_rate_per_10k": 33.7233,
      "confirmed_rate_per_100k": 337.233,
      "deaths": 33,
      "deaths_rate_per_10k": 1.69645,
      "deaths_rate_per_100k": 16.9645,
      "total_tested": 42653,
      "test_rate_per_10k": 2192.69,
      "test_rate_per_100k": 21926.9,
      "total_population": 194524,
      "latitude": 39.733700,
      "longitude": -89.625200
    },
    {
      "County": "Schuyler",
      "confirmed_cases": 14,
      "confirmed_rate_per_10k": 21.6551,
      "confirmed_rate_per_100k": 216.551,
      "deaths": 0,
      "deaths_rate_per_10k": 0,
      "deaths_rate_per_100k": 0,
      "total_tested": 742,
      "test_rate_per_10k": 1147.72,
      "test_rate_per_100k": 11477.2,
      "total_population": 6465,
      "latitude": 40.184500,
      "longitude": -90.639400
    },
    {
      "County": "Scott",
      "confirmed_cases": 1,
      "confirmed_rate_per_10k": 2.28258,
      "confirmed_rate_per_100k": 22.8258,
      "deaths": 0,
      "deaths_rate_per_10k": 0,
      "deaths_rate_per_100k": 0,
      "total_tested": 637,
      "test_rate_per_10k": 1454.01,
      "test_rate_per_100k": 14540.1,
      "total_population": 4381,
      "latitude": 39.609500,
      "longitude": -90.488000
    },
    {
      "County": "Shelby",
      "confirmed_cases": 29,
      "confirmed_rate_per_10k": 13.7643,
      "confirmed_rate_per_100k": 137.643,
      "deaths": 1,
      "deaths_rate_per_10k": 0.474631,
      "deaths_rate_per_100k": 4.74631,
      "total_tested": 2377,
      "test_rate_per_10k": 1128.2,
      "test_rate_per_100k": 11282,
      "total_population": 21069,
      "latitude": 39.398100,
      "longitude": -88.864700
    },
    {
      "County": "St. Clair",
      "confirmed_cases": 2722,
      "confirmed_rate_per_10k": 107.375,
      "confirmed_rate_per_100k": 1073.75,
      "deaths": 150,
      "deaths_rate_per_10k": 5.91709,
      "deaths_rate_per_100k": 59.1709,
      "total_tested": 31444,
      "test_rate_per_10k": 1240.38,
      "test_rate_per_100k": 12403.8,
      "total_population": 253503,
      "latitude": 38.400800,
      "longitude": -89.925300
    },
    {
      "County": "Stark",
      "confirmed_cases": 7,
      "confirmed_rate_per_10k": 12.2485,
      "confirmed_rate_per_100k": 122.485,
      "deaths": 0,
      "deaths_rate_per_10k": 0,
      "deaths_rate_per_100k": 0,
      "total_tested": 736,
      "test_rate_per_10k": 1287.84,
      "test_rate_per_100k": 12878.4,
      "total_population": 5715,
      "latitude": 41.079600,
      "longitude": -89.813000
    },
    {
      "County": "Stephenson",
      "confirmed_cases": 289,
      "confirmed_rate_per_10k": 63.7561,
      "confirmed_rate_per_100k": 637.561,
      "deaths": 6,
      "deaths_rate_per_10k": 1.32366,
      "deaths_rate_per_100k": 13.2366,
      "total_tested": 6104,
      "test_rate_per_10k": 1346.6,
      "test_rate_per_100k": 13466,
      "total_population": 45329,
      "latitude": 42.314500,
      "longitude": -89.625200
    },
    {
      "County": "Tazewell",
      "confirmed_cases": 221,
      "confirmed_rate_per_10k": 16.5998,
      "confirmed_rate_per_100k": 165.998,
      "deaths": 8,
      "deaths_rate_per_10k": 0.600898,
      "deaths_rate_per_100k": 6.00898,
      "total_tested": 19254,
      "test_rate_per_10k": 1446.21,
      "test_rate_per_100k": 14462.1,
      "total_population": 133134,
      "latitude": 40.552200,
      "longitude": -89.474200
    },
    {
      "County": "Union",
      "confirmed_cases": 231,
      "confirmed_rate_per_10k": 142.99,
      "confirmed_rate_per_100k": 1429.9,
      "deaths": 21,
      "deaths_rate_per_10k": 12.9991,
      "deaths_rate_per_100k": 129.991,
      "total_tested": 2824,
      "test_rate_per_10k": 1748.07,
      "test_rate_per_100k": 17480.7,
      "total_population": 16155,
      "latitude": 37.508700,
      "longitude": -89.284700
    },
    {
      "County": "Vermilion",
      "confirmed_cases": 121,
      "confirmed_rate_per_10k": 15.9311,
      "confirmed_rate_per_100k": 159.311,
      "deaths": 2,
      "deaths_rate_per_10k": 0.263324,
      "deaths_rate_per_100k": 2.63324,
      "total_tested": 8661,
      "test_rate_per_10k": 1140.33,
      "test_rate_per_100k": 11403.3,
      "total_population": 75952,
      "latitude": 40.122500,
      "longitude": -87.697600
    },
    {
      "County": "Wabash",
      "confirmed_cases": 23,
      "confirmed_rate_per_10k": 20.626,
      "confirmed_rate_per_100k": 206.26,
      "deaths": 0,
      "deaths_rate_per_10k": 0,
      "deaths_rate_per_100k": 0,
      "total_tested": 922,
      "test_rate_per_10k": 826.832,
      "test_rate_per_100k": 8268.32,
      "total_population": 11151,
      "latitude": 38.422600,
      "longitude": -87.815700
    },
    {
      "County": "Warren",
      "confirmed_cases": 152,
      "confirmed_rate_per_10k": 92.5982,
      "confirmed_rate_per_100k": 925.982,
      "deaths": 0,
      "deaths_rate_per_10k": 0,
      "deaths_rate_per_100k": 0,
      "total_tested": 1437,
      "test_rate_per_10k": 875.419,
      "test_rate_per_100k": 8754.19,
      "total_population": 16415,
      "latitude": 40.875900,
      "longitude": -90.677300
    },
    {
      "County": "Washington",
      "confirmed_cases": 31,
      "confirmed_rate_per_10k": 23.9198,
      "confirmed_rate_per_100k": 239.198,
      "deaths": 0,
      "deaths_rate_per_10k": 0,
      "deaths_rate_per_100k": 0,
      "total_tested": 1123,
      "test_rate_per_10k": 866.512,
      "test_rate_per_100k": 8665.12,
      "total_population": 12960,
      "latitude": 38.398900,
      "longitude": -89.322700
    },
    {
      "County": "Wayne",
      "confirmed_cases": 25,
      "confirmed_rate_per_10k": 16.0328,
      "confirmed_rate_per_100k": 160.328,
      "deaths": 1,
      "deaths_rate_per_10k": 0.641313,
      "deaths_rate_per_100k": 6.41313,
      "total_tested": 1443,
      "test_rate_per_10k": 925.415,
      "test_rate_per_100k": 9254.15,
      "total_population": 15593,
      "latitude": 38.390000,
      "longitude": -88.401600
    },
    {
      "County": "White",
      "confirmed_cases": 28,
      "confirmed_rate_per_10k": 19.6298,
      "confirmed_rate_per_100k": 196.298,
      "deaths": 0,
      "deaths_rate_per_10k": 0,
      "deaths_rate_per_100k": 0,
      "total_tested": 1146,
      "test_rate_per_10k": 803.421,
      "test_rate_per_100k": 8034.21,
      "total_population": 14264,
      "latitude": 38.050100,
      "longitude": -88.246100
    },
    {
      "County": "Whiteside",
      "confirmed_cases": 233,
      "confirmed_rate_per_10k": 41.406,
      "confirmed_rate_per_100k": 414.06,
      "deaths": 16,
      "deaths_rate_per_10k": 2.84333,
      "deaths_rate_per_100k": 28.4333,
      "total_tested": 5979,
      "test_rate_per_10k": 1062.52,
      "test_rate_per_100k": 10625.2,
      "total_population": 56272,
      "latitude": 41.760600,
      "longitude": -89.850500
    },
    {
      "County": "Will",
      "confirmed_cases": 7652,
      "confirmed_rate_per_10k": 109.421,
      "confirmed_rate_per_100k": 1094.21,
      "deaths": 333,
      "deaths_rate_per_10k": 4.76177,
      "deaths_rate_per_100k": 47.6177,
      "total_tested": 98566,
      "test_rate_per_10k": 1409.45,
      "test_rate_per_100k": 14094.5,
      "total_population": 699320,
      "latitude": 41.505500,
      "longitude": -88.090100
    },
    {
      "County": "Williamson",
      "confirmed_cases": 201,
      "confirmed_rate_per_10k": 32.3818,
      "confirmed_rate_per_100k": 323.818,
      "deaths": 4,
      "deaths_rate_per_10k": 0.644413,
      "deaths_rate_per_100k": 6.44413,
      "total_tested": 8819,
      "test_rate_per_10k": 1420.77,
      "test_rate_per_100k": 14207.7,
      "total_population": 62072,
      "latitude": 37.718300,
      "longitude": -88.864700
    },
    {
      "County": "Winnebago",
      "confirmed_cases": 3342,
      "confirmed_rate_per_10k": 117.996,
      "confirmed_rate_per_100k": 1179.96,
      "deaths": 108,
      "deaths_rate_per_10k": 3.81314,
      "deaths_rate_per_100k": 38.1314,
      "total_tested": 43163,
      "test_rate_per_10k": 1523.95,
      "test_rate_per_100k": 15239.5,
      "total_population": 283231,
      "latitude": 42.312100,
      "longitude": -89.170600
    },
    {
      "County": "Woodford",
      "confirmed_cases": 64,
      "confirmed_rate_per_10k": 18.7255,
      "confirmed_rate_per_100k": 187.255,
      "deaths": 3,
      "deaths_rate_per_10k": 0.877758,
      "deaths_rate_per_100k": 8.77758,
      "total_tested": 3855,
      "test_rate_per_10k": 1127.92,
      "test_rate_per_100k": 11279.2,
      "total_population": 34178,
      "latitude": 40.712900,
      "longitude": -89.170600
    }
  ]
}
