{
  "LastUpdateDate": {
    "year": 2020,
    "month": 7,
    "day": 4
  },
  "county_rates": [
    {
      "County": "Adams",
      "confirmed_cases": 113,
      "confirmed_rate_per_10k": 17.4034,
      "confirmed_rate_per_100k": 174.034,
      "deaths": 1,
      "deaths_rate_per_10k": 0.154012,
      "deaths_rate_per_100k": 1.54012,
      "total_tested": 8733,
      "test_rate_per_10k": 1344.99,
      "test_rate_per_100k": 13449.9,
      "total_population": 64930,
      "latitude": 40.057800,
      "longitude": -91.135300
    },
    {
      "County": "Alexander",
      "confirmed_cases": 22,
      "confirmed_rate_per_10k": 38.2742,
      "confirmed_rate_per_100k": 382.742,
      "deaths": 0,
      "deaths_rate_per_10k": 0,
      "deaths_rate_per_100k": 0,
      "total_tested": 528,
      "test_rate_per_10k": 918.58,
      "test_rate_per_100k": 9185.8,
      "total_population": 5748,
      "latitude": 37.167000,
      "longitude": -89.360600
    },
    {
      "County": "Bond",
      "confirmed_cases": 16,
      "confirmed_rate_per_10k": 8.91067,
      "confirmed_rate_per_100k": 89.1067,
      "deaths": 1,
      "deaths_rate_per_10k": 0.556917,
      "deaths_rate_per_100k": 5.56917,
      "total_tested": 1019,
      "test_rate_per_10k": 567.498,
      "test_rate_per_100k": 5674.98,
      "total_population": 17956,
      "latitude": 38.903000,
      "longitude": -89.474200
    },
    {
      "County": "Boone",
      "confirmed_cases": 608,
      "confirmed_rate_per_10k": 118.514,
      "confirmed_rate_per_100k": 1185.14,
      "deaths": 21,
      "deaths_rate_per_10k": 4.09341,
      "deaths_rate_per_100k": 40.9341,
      "total_tested": 5547,
      "test_rate_per_10k": 1081.24,
      "test_rate_per_100k": 10812.4,
      "total_population": 51302,
      "latitude": 42.348500,
      "longitude": -88.826300
    },
    {
      "County": "Brown",
      "confirmed_cases": 10,
      "confirmed_rate_per_10k": 15.6519,
      "confirmed_rate_per_100k": 156.519,
      "deaths": 0,
      "deaths_rate_per_10k": 0,
      "deaths_rate_per_100k": 0,
      "total_tested": 528,
      "test_rate_per_10k": 826.42,
      "test_rate_per_100k": 8264.2,
      "total_population": 6389,
      "latitude": 39.938000,
      "longitude": -90.715300
    },
    {
      "County": "Bureau",
      "confirmed_cases": 30,
      "confirmed_rate_per_10k": 9.2908,
      "confirmed_rate_per_100k": 92.908,
      "deaths": 2,
      "deaths_rate_per_10k": 0.619387,
      "deaths_rate_per_100k": 6.19387,
      "total_tested": 2569,
      "test_rate_per_10k": 795.602,
      "test_rate_per_100k": 7956.02,
      "total_population": 32290,
      "latitude": 41.359900,
      "longitude": -89.474200
    },
    {
      "County": "Calhoun",
      "confirmed_cases": 1,
      "confirmed_rate_per_10k": 2.21631,
      "confirmed_rate_per_100k": 22.1631,
      "deaths": 0,
      "deaths_rate_per_10k": 0,
      "deaths_rate_per_100k": 0,
      "total_tested": 302,
      "test_rate_per_10k": 669.326,
      "test_rate_per_100k": 6693.26,
      "total_population": 4512,
      "latitude": 39.173300,
      "longitude": -90.658300
    },
    {
      "County": "Carroll",
      "confirmed_cases": 22,
      "confirmed_rate_per_10k": 15.114,
      "confirmed_rate_per_100k": 151.14,
      "deaths": 2,
      "deaths_rate_per_10k": 1.374,
      "deaths_rate_per_100k": 13.74,
      "total_tested": 801,
      "test_rate_per_10k": 550.289,
      "test_rate_per_100k": 5502.89,
      "total_population": 14556,
      "latitude": 42.038600,
      "longitude": -89.962700
    },
    {
      "County": "Cass",
      "confirmed_cases": 136,
      "confirmed_rate_per_10k": 108.315,
      "confirmed_rate_per_100k": 1083.15,
      "deaths": 7,
      "deaths_rate_per_10k": 5.57502,
      "deaths_rate_per_100k": 55.7502,
      "total_tested": 1980,
      "test_rate_per_10k": 1576.94,
      "test_rate_per_100k": 15769.4,
      "total_population": 12556,
      "latitude": 39.939900,
      "longitude": -90.262000
    },
    {
      "County": "Champaign",
      "confirmed_cases": 939,
      "confirmed_rate_per_10k": 44.5317,
      "confirmed_rate_per_100k": 445.317,
      "deaths": 12,
      "deaths_rate_per_10k": 0.569095,
      "deaths_rate_per_100k": 5.69095,
      "total_tested": 33250,
      "test_rate_per_10k": 1576.87,
      "test_rate_per_100k": 15768.7,
      "total_population": 210861,
      "latitude": 40.213900,
      "longitude": -88.246100
    },
    {
      "County": "Chicago",
      "confirmed_cases": 53375,
      "confirmed_rate_per_10k": 197.247,
      "confirmed_rate_per_100k": 1972.47,
      "deaths": 2631,
      "deaths_rate_per_10k": 9.72286,
      "deaths_rate_per_100k": 97.2286,
      "total_tested": 441042,
      "test_rate_per_10k": 1629.87,
      "test_rate_per_100k": 16298.7,
      "total_population": 2.70599e+006,
      "latitude": 41.789896,
      "longitude": -87.627734
    },
    {
      "County": "Christian",
      "confirmed_cases": 45,
      "confirmed_rate_per_10k": 14.308,
      "confirmed_rate_per_100k": 143.08,
      "deaths": 4,
      "deaths_rate_per_10k": 1.27182,
      "deaths_rate_per_100k": 12.7182,
      "total_tested": 2652,
      "test_rate_per_10k": 843.216,
      "test_rate_per_100k": 8432.16,
      "total_population": 31451,
      "latitude": 39.567200,
      "longitude": -89.322700
    },
    {
      "County": "Clark",
      "confirmed_cases": 15,
      "confirmed_rate_per_10k": 9.32662,
      "confirmed_rate_per_100k": 93.2662,
      "deaths": 0,
      "deaths_rate_per_10k": 0,
      "deaths_rate_per_100k": 0,
      "total_tested": 940,
      "test_rate_per_10k": 584.468,
      "test_rate_per_100k": 5844.68,
      "total_population": 16083,
      "latitude": 39.382400,
      "longitude": -87.776300
    },
    {
      "County": "Clay",
      "confirmed_cases": 2,
      "confirmed_rate_per_10k": 1.57667,
      "confirmed_rate_per_100k": 15.7667,
      "deaths": 0,
      "deaths_rate_per_10k": 0,
      "deaths_rate_per_100k": 0,
      "total_tested": 1217,
      "test_rate_per_10k": 959.401,
      "test_rate_per_100k": 9594.01,
      "total_population": 12685,
      "latitude": 38.727900,
      "longitude": -88.556500
    },
    {
      "County": "Clinton",
      "confirmed_cases": 241,
      "confirmed_rate_per_10k": 76.0516,
      "confirmed_rate_per_100k": 760.516,
      "deaths": 17,
      "deaths_rate_per_10k": 5.36464,
      "deaths_rate_per_100k": 53.6464,
      "total_tested": 4168,
      "test_rate_per_10k": 1315.28,
      "test_rate_per_100k": 13152.8,
      "total_population": 31689,
      "latitude": 38.568400,
      "longitude": -89.625200
    },
    {
      "County": "Coles",
      "confirmed_cases": 172,
      "confirmed_rate_per_10k": 34.5007,
      "confirmed_rate_per_100k": 345.007,
      "deaths": 17,
      "deaths_rate_per_10k": 3.40996,
      "deaths_rate_per_100k": 34.0996,
      "total_tested": 6311,
      "test_rate_per_10k": 1265.9,
      "test_rate_per_100k": 12659,
      "total_population": 49854,
      "latitude": 39.556000,
      "longitude": -88.246100
    },
    {
      "County": "Cook",
      "confirmed_cases": 38865,
      "confirmed_rate_per_10k": 159.277,
      "confirmed_rate_per_100k": 1592.77,
      "deaths": 1991,
      "deaths_rate_per_10k": 8.15956,
      "deaths_rate_per_100k": 81.5956,
      "total_tested": 366662,
      "test_rate_per_10k": 1502.66,
      "test_rate_per_100k": 15026.6,
      "total_population": 2.44008e+006,
      "latitude": 42.050784,
      "longitude": -87.963759
    },
    {
      "County": "Crawford",
      "confirmed_cases": 18,
      "confirmed_rate_per_10k": 9.26259,
      "confirmed_rate_per_100k": 92.6259,
      "deaths": 0,
      "deaths_rate_per_10k": 0,
      "deaths_rate_per_100k": 0,
      "total_tested": 998,
      "test_rate_per_10k": 513.559,
      "test_rate_per_100k": 5135.59,
      "total_population": 19433,
      "latitude": 41.833000,
      "longitude": -88.710900
    },
    {
      "County": "Cumberland",
      "confirmed_cases": 16,
      "confirmed_rate_per_10k": 14.4862,
      "confirmed_rate_per_100k": 144.862,
      "deaths": 0,
      "deaths_rate_per_10k": 0,
      "deaths_rate_per_100k": 0,
      "total_tested": 956,
      "test_rate_per_10k": 865.55,
      "test_rate_per_100k": 8655.5,
      "total_population": 11045,
      "latitude": 39.265400,
      "longitude": -88.207200
    },
    {
      "County": "De Witt",
      "confirmed_cases": 11,
      "confirmed_rate_per_10k": 7.14889,
      "confirmed_rate_per_100k": 71.4889,
      "deaths": 0,
      "deaths_rate_per_10k": 0,
      "deaths_rate_per_100k": 0,
      "total_tested": 1052,
      "test_rate_per_10k": 683.694,
      "test_rate_per_100k": 6836.94,
      "total_population": 15387,
      "latitude": 40.181000,
      "longitude": -88.903100
    },
    {
      "County": "DeKalb",
      "confirmed_cases": 572,
      "confirmed_rate_per_10k": 54.4845,
      "confirmed_rate_per_100k": 544.845,
      "deaths": 19,
      "deaths_rate_per_10k": 1.8098,
      "deaths_rate_per_100k": 18.098,
      "total_tested": 10361,
      "test_rate_per_10k": 986.912,
      "test_rate_per_100k": 9869.12,
      "total_population": 104984,
      "latitude": 41.833000,
      "longitude": -88.710900
    },
    {
      "County": "Douglas",
      "confirmed_cases": 54,
      "confirmed_rate_per_10k": 24.5499,
      "confirmed_rate_per_100k": 245.499,
      "deaths": 0,
      "deaths_rate_per_10k": 0,
      "deaths_rate_per_100k": 0,
      "total_tested": 1836,
      "test_rate_per_10k": 834.697,
      "test_rate_per_100k": 8346.97,
      "total_population": 21996,
      "latitude": 39.761800,
      "longitude": -88.207200
    },
    {
      "County": "DuPage",
      "confirmed_cases": 9267,
      "confirmed_rate_per_10k": 96.4516,
      "confirmed_rate_per_100k": 964.516,
      "deaths": 475,
      "deaths_rate_per_10k": 4.94383,
      "deaths_rate_per_100k": 49.4383,
      "total_tested": 110318,
      "test_rate_per_10k": 1148.2,
      "test_rate_per_100k": 11482,
      "total_population": 960793,
      "latitude": 41.824400,
      "longitude": -88.090100
    },
    {
      "County": "Edgar",
      "confirmed_cases": 10,
      "confirmed_rate_per_10k": 5.93155,
      "confirmed_rate_per_100k": 59.3155,
      "deaths": 0,
      "deaths_rate_per_10k": 0,
      "deaths_rate_per_100k": 0,
      "total_tested": 1194,
      "test_rate_per_10k": 708.227,
      "test_rate_per_100k": 7082.27,
      "total_population": 16859,
      "latitude": 39.713100,
      "longitude": -87.776300
    },
    {
      "County": "Edwards",
      "confirmed_cases": 2,
      "confirmed_rate_per_10k": 3.47102,
      "confirmed_rate_per_100k": 34.7102,
      "deaths": 0,
      "deaths_rate_per_10k": 0,
      "deaths_rate_per_100k": 0,
      "total_tested": 256,
      "test_rate_per_10k": 444.29,
      "test_rate_per_100k": 4442.9,
      "total_population": 5762,
      "latitude": 38.426800,
      "longitude": -88.051000
    },
    {
      "County": "Effingham",
      "confirmed_cases": 17,
      "confirmed_rate_per_10k": 5.00736,
      "confirmed_rate_per_100k": 50.0736,
      "deaths": 1,
      "deaths_rate_per_10k": 0.294551,
      "deaths_rate_per_100k": 2.94551,
      "total_tested": 2693,
      "test_rate_per_10k": 793.225,
      "test_rate_per_100k": 7932.25,
      "total_population": 33950,
      "latitude": 39.062200,
      "longitude": -88.556500
    },
    {
      "County": "Fayette",
      "confirmed_cases": 23,
      "confirmed_rate_per_10k": 10.6442,
      "confirmed_rate_per_100k": 106.442,
      "deaths": 3,
      "deaths_rate_per_10k": 1.38837,
      "deaths_rate_per_100k": 13.8837,
      "total_tested": 1682,
      "test_rate_per_10k": 778.415,
      "test_rate_per_100k": 7784.15,
      "total_population": 21608,
      "latitude": 39.067000,
      "longitude": -89.017900
    },
    {
      "County": "Ford",
      "confirmed_cases": 37,
      "confirmed_rate_per_10k": 28.2745,
      "confirmed_rate_per_100k": 282.745,
      "deaths": 1,
      "deaths_rate_per_10k": 0.764175,
      "deaths_rate_per_100k": 7.64175,
      "total_tested": 1385,
      "test_rate_per_10k": 1058.38,
      "test_rate_per_100k": 10583.8,
      "total_population": 13086,
      "latitude": 40.498900,
      "longitude": -88.207200
    },
    {
      "County": "Franklin",
      "confirmed_cases": 28,
      "confirmed_rate_per_10k": 7.1048,
      "confirmed_rate_per_100k": 71.048,
      "deaths": 0,
      "deaths_rate_per_10k": 0,
      "deaths_rate_per_100k": 0,
      "total_tested": 3014,
      "test_rate_per_10k": 764.781,
      "test_rate_per_100k": 7647.81,
      "total_population": 39410,
      "latitude": 38.015700,
      "longitude": -88.903100
    },
    {
      "County": "Fulton",
      "confirmed_cases": 15,
      "confirmed_rate_per_10k": 4.27753,
      "confirmed_rate_per_100k": 42.7753,
      "deaths": 0,
      "deaths_rate_per_10k": 0,
      "deaths_rate_per_100k": 0,
      "total_tested": 2484,
      "test_rate_per_10k": 708.358,
      "test_rate_per_100k": 7083.58,
      "total_population": 35067,
      "latitude": 40.553200,
      "longitude": -90.224500
    },
    {
      "County": "Gallatin",
      "confirmed_cases": 2,
      "confirmed_rate_per_10k": 3.96904,
      "confirmed_rate_per_100k": 39.6904,
      "deaths": 0,
      "deaths_rate_per_10k": 0,
      "deaths_rate_per_100k": 0,
      "total_tested": 183,
      "test_rate_per_10k": 363.167,
      "test_rate_per_100k": 3631.67,
      "total_population": 5039,
      "latitude": 37.710800,
      "longitude": -88.246100
    },
    {
      "County": "Greene",
      "confirmed_cases": 9,
      "confirmed_rate_per_10k": 6.79399,
      "confirmed_rate_per_100k": 67.9399,
      "deaths": 0,
      "deaths_rate_per_10k": 0,
      "deaths_rate_per_100k": 0,
      "total_tested": 977,
      "test_rate_per_10k": 737.525,
      "test_rate_per_100k": 7375.25,
      "total_population": 13247,
      "latitude": 39.403000,
      "longitude": -90.374800
    },
    {
      "County": "Grundy",
      "confirmed_cases": 171,
      "confirmed_rate_per_10k": 32.6947,
      "confirmed_rate_per_100k": 326.947,
      "deaths": 5,
      "deaths_rate_per_10k": 0.955986,
      "deaths_rate_per_100k": 9.55986,
      "total_tested": 3706,
      "test_rate_per_10k": 708.577,
      "test_rate_per_100k": 7085.77,
      "total_population": 52302,
      "latitude": 41.350100,
      "longitude": -88.401600
    },
    {
      "County": "Hamilton",
      "confirmed_cases": 5,
      "confirmed_rate_per_10k": 5.93261,
      "confirmed_rate_per_100k": 59.3261,
      "deaths": 0,
      "deaths_rate_per_10k": 0,
      "deaths_rate_per_100k": 0,
      "total_tested": 406,
      "test_rate_per_10k": 481.728,
      "test_rate_per_100k": 4817.28,
      "total_population": 8428,
      "latitude": 38.054300,
      "longitude": -88.556500
    },
    {
      "County": "Hancock",
      "confirmed_cases": 19,
      "confirmed_rate_per_10k": 10.3216,
      "confirmed_rate_per_100k": 103.216,
      "deaths": 1,
      "deaths_rate_per_10k": 0.543242,
      "deaths_rate_per_100k": 5.43242,
      "total_tested": 1174,
      "test_rate_per_10k": 637.766,
      "test_rate_per_100k": 6377.66,
      "total_population": 18408,
      "latitude": 40.384900,
      "longitude": -91.135300
    },
    {
      "County": "Hardin",
      "confirmed_cases": 1,
      "confirmed_rate_per_10k": 2.42601,
      "confirmed_rate_per_100k": 24.2601,
      "deaths": 0,
      "deaths_rate_per_10k": 0,
      "deaths_rate_per_100k": 0,
      "total_tested": 181,
      "test_rate_per_10k": 439.107,
      "test_rate_per_100k": 4391.07,
      "total_population": 4122,
      "latitude": 37.499500,
      "longitude": -88.362800
    },
    {
      "County": "Henderson",
      "confirmed_cases": 8,
      "confirmed_rate_per_10k": 13.1622,
      "confirmed_rate_per_100k": 131.622,
      "deaths": 0,
      "deaths_rate_per_10k": 0,
      "deaths_rate_per_100k": 0,
      "total_tested": 376,
      "test_rate_per_10k": 618.625,
      "test_rate_per_100k": 6186.25,
      "total_population": 6078,
      "latitude": 40.833600,
      "longitude": -90.943800
    },
    {
      "County": "Henry",
      "confirmed_cases": 95,
      "confirmed_rate_per_10k": 19.9672,
      "confirmed_rate_per_100k": 199.672,
      "deaths": 1,
      "deaths_rate_per_10k": 0.210181,
      "deaths_rate_per_100k": 2.10181,
      "total_tested": 3495,
      "test_rate_per_10k": 734.583,
      "test_rate_per_100k": 7345.83,
      "total_population": 47578,
      "latitude": 41.361100,
      "longitude": -90.074700
    },
    {
      "County": "Iroquois",
      "confirmed_cases": 161,
      "confirmed_rate_per_10k": 62.119,
      "confirmed_rate_per_100k": 621.19,
      "deaths": 5,
      "deaths_rate_per_10k": 1.92916,
      "deaths_rate_per_100k": 19.2916,
      "total_tested": 3193,
      "test_rate_per_10k": 1231.96,
      "test_rate_per_100k": 12319.6,
      "total_population": 25918,
      "latitude": 40.774000,
      "longitude": -87.697600
    },
    {
      "County": "Jackson",
      "confirmed_cases": 336,
      "confirmed_rate_per_10k": 55.986,
      "confirmed_rate_per_100k": 559.86,
      "deaths": 19,
      "deaths_rate_per_10k": 3.16588,
      "deaths_rate_per_100k": 31.6588,
      "total_tested": 5696,
      "test_rate_per_10k": 949.096,
      "test_rate_per_100k": 9490.96,
      "total_population": 60015,
      "latitude": 37.721800,
      "longitude": -89.322700
    },
    {
      "County": "Jasper",
      "confirmed_cases": 47,
      "confirmed_rate_per_10k": 52.1469,
      "confirmed_rate_per_100k": 521.469,
      "deaths": 7,
      "deaths_rate_per_10k": 7.76656,
      "deaths_rate_per_100k": 77.6656,
      "total_tested": 933,
      "test_rate_per_10k": 1035.17,
      "test_rate_per_100k": 10351.7,
      "total_population": 9013,
      "latitude": 39.055500,
      "longitude": -88.090100
    },
    {
      "County": "Jefferson",
      "confirmed_cases": 106,
      "confirmed_rate_per_10k": 28.6944,
      "confirmed_rate_per_100k": 286.944,
      "deaths": 17,
      "deaths_rate_per_10k": 4.60193,
      "deaths_rate_per_100k": 46.0193,
      "total_tested": 2828,
      "test_rate_per_10k": 765.545,
      "test_rate_per_100k": 7655.45,
      "total_population": 36941,
      "latitude": 38.226700,
      "longitude": -88.864700
    },
    {
      "County": "Jersey",
      "confirmed_cases": 35,
      "confirmed_rate_per_10k": 20.1439,
      "confirmed_rate_per_100k": 201.439,
      "deaths": 1,
      "deaths_rate_per_10k": 0.57554,
      "deaths_rate_per_100k": 5.7554,
      "total_tested": 1350,
      "test_rate_per_10k": 776.978,
      "test_rate_per_100k": 7769.78,
      "total_population": 17375,
      "latitude": 39.070500,
      "longitude": -90.374800
    },
    {
      "County": "Jo Daviess",
      "confirmed_cases": 45,
      "confirmed_rate_per_10k": 21.6492,
      "confirmed_rate_per_100k": 216.492,
      "deaths": 1,
      "deaths_rate_per_10k": 0.481093,
      "deaths_rate_per_100k": 4.81093,
      "total_tested": 1688,
      "test_rate_per_10k": 812.085,
      "test_rate_per_100k": 8120.85,
      "total_population": 20786,
      "latitude": 42.314900,
      "longitude": -90.224500
    },
    {
      "County": "Johnson",
      "confirmed_cases": 20,
      "confirmed_rate_per_10k": 14.979,
      "confirmed_rate_per_100k": 149.79,
      "deaths": 0,
      "deaths_rate_per_10k": 0,
      "deaths_rate_per_100k": 0,
      "total_tested": 720,
      "test_rate_per_10k": 539.245,
      "test_rate_per_100k": 5392.45,
      "total_population": 13352,
      "latitude": 37.420400,
      "longitude": -88.903100
    },
    {
      "County": "Kane",
      "confirmed_cases": 7819,
      "confirmed_rate_per_10k": 165.013,
      "confirmed_rate_per_100k": 1650.13,
      "deaths": 275,
      "deaths_rate_per_10k": 5.80363,
      "deaths_rate_per_100k": 58.0363,
      "total_tested": 63798,
      "test_rate_per_10k": 1346.4,
      "test_rate_per_100k": 13464,
      "total_population": 473841,
      "latitude": 41.987900,
      "longitude": -88.401600
    },
    {
      "County": "Kankakee",
      "confirmed_cases": 1304,
      "confirmed_rate_per_10k": 118.261,
      "confirmed_rate_per_100k": 1182.61,
      "deaths": 65,
      "deaths_rate_per_10k": 5.89489,
      "deaths_rate_per_100k": 58.9489,
      "total_tested": 17134,
      "test_rate_per_10k": 1553.89,
      "test_rate_per_100k": 15538.9,
      "total_population": 110265,
      "latitude": 41.179100,
      "longitude": -87.776300
    },
    {
      "County": "Kendall",
      "confirmed_cases": 989,
      "confirmed_rate_per_10k": 86.2182,
      "confirmed_rate_per_100k": 862.182,
      "deaths": 21,
      "deaths_rate_per_10k": 1.83072,
      "deaths_rate_per_100k": 18.3072,
      "total_tested": 11964,
      "test_rate_per_10k": 1042.99,
      "test_rate_per_100k": 10429.9,
      "total_population": 114709,
      "latitude": 41.550700,
      "longitude": -88.440400
    },
    {
      "County": "Knox",
      "confirmed_cases": 137,
      "confirmed_rate_per_10k": 27.6712,
      "confirmed_rate_per_100k": 276.712,
      "deaths": 0,
      "deaths_rate_per_10k": 0,
      "deaths_rate_per_100k": 0,
      "total_tested": 3494,
      "test_rate_per_10k": 705.716,
      "test_rate_per_100k": 7057.16,
      "total_population": 49510,
      "latitude": 40.877600,
      "longitude": -90.224500
    },
    {
      "County": "Lake",
      "confirmed_cases": 9919,
      "confirmed_rate_per_10k": 137.077,
      "confirmed_rate_per_100k": 1370.77,
      "deaths": 423,
      "deaths_rate_per_10k": 5.84572,
      "deaths_rate_per_100k": 58.4572,
      "total_tested": 89547,
      "test_rate_per_10k": 1237.51,
      "test_rate_per_100k": 12375.1,
      "total_population": 723606,
      "latitude": 42.368900,
      "longitude": -87.827200
    },
    {
      "County": "LaSalle",
      "confirmed_cases": 225,
      "confirmed_rate_per_10k": 20.5921,
      "confirmed_rate_per_100k": 205.921,
      "deaths": 17,
      "deaths_rate_per_10k": 1.55585,
      "deaths_rate_per_100k": 15.5585,
      "total_tested": 8795,
      "test_rate_per_10k": 804.924,
      "test_rate_per_100k": 8049.24,
      "total_population": 109265,
      "latitude": 41.436400,
      "longitude": -88.941400
    },
    {
      "County": "Lawrence",
      "confirmed_cases": 7,
      "confirmed_rate_per_10k": 4.65487,
      "confirmed_rate_per_100k": 46.5487,
      "deaths": 0,
      "deaths_rate_per_10k": 0,
      "deaths_rate_per_100k": 0,
      "total_tested": 1110,
      "test_rate_per_10k": 738.13,
      "test_rate_per_100k": 7381.3,
      "total_population": 15038,
      "latitude": 38.715800,
      "longitude": -87.776300
    },
    {
      "County": "Lee",
      "confirmed_cases": 101,
      "confirmed_rate_per_10k": 29.1992,
      "confirmed_rate_per_100k": 291.992,
      "deaths": 2,
      "deaths_rate_per_10k": 0.578202,
      "deaths_rate_per_100k": 5.78202,
      "total_tested": 2495,
      "test_rate_per_10k": 721.307,
      "test_rate_per_100k": 7213.07,
      "total_population": 34590,
      "latitude": 41.679000,
      "longitude": -89.322700
    },
    {
      "County": "Livingston",
      "confirmed_cases": 52,
      "confirmed_rate_per_10k": 15.8987,
      "confirmed_rate_per_100k": 158.987,
      "deaths": 2,
      "deaths_rate_per_10k": 0.61149,
      "deaths_rate_per_100k": 6.1149,
      "total_tested": 2734,
      "test_rate_per_10k": 835.907,
      "test_rate_per_100k": 8359.07,
      "total_population": 32707,
      "latitude": 40.868900,
      "longitude": -88.556500
    },
    {
      "County": "Logan",
      "confirmed_cases": 17,
      "confirmed_rate_per_10k": 5.98549,
      "confirmed_rate_per_100k": 59.8549,
      "deaths": 0,
      "deaths_rate_per_10k": 0,
      "deaths_rate_per_100k": 0,
      "total_tested": 3621,
      "test_rate_per_10k": 1274.91,
      "test_rate_per_100k": 12749.1,
      "total_population": 28402,
      "latitude": 40.061300,
      "longitude": -89.322700
    },
    {
      "County": "Macon",
      "confirmed_cases": 234,
      "confirmed_rate_per_10k": 22.7273,
      "confirmed_rate_per_100k": 227.273,
      "deaths": 22,
      "deaths_rate_per_10k": 2.13675,
      "deaths_rate_per_100k": 21.3675,
      "total_tested": 8633,
      "test_rate_per_10k": 838.481,
      "test_rate_per_100k": 8384.81,
      "total_population": 102960,
      "latitude": 39.894900,
      "longitude": -89.017900
    },
    {
      "County": "Macoupin",
      "confirmed_cases": 55,
      "confirmed_rate_per_10k": 11.3285,
      "confirmed_rate_per_100k": 113.285,
      "deaths": 3,
      "deaths_rate_per_10k": 0.61792,
      "deaths_rate_per_100k": 6.1792,
      "total_tested": 4765,
      "test_rate_per_10k": 981.462,
      "test_rate_per_100k": 9814.62,
      "total_population": 48550,
      "latitude": 39.237500,
      "longitude": -89.925300
    },
    {
      "County": "Madison",
      "confirmed_cases": 1007,
      "confirmed_rate_per_10k": 37.6733,
      "confirmed_rate_per_100k": 376.733,
      "deaths": 69,
      "deaths_rate_per_10k": 2.58139,
      "deaths_rate_per_100k": 25.8139,
      "total_tested": 19433,
      "test_rate_per_10k": 727.016,
      "test_rate_per_100k": 7270.16,
      "total_population": 267298,
      "latitude": 38.904100,
      "longitude": -89.925300
    },
    {
      "County": "Marion",
      "confirmed_cases": 69,
      "confirmed_rate_per_10k": 15.4018,
      "confirmed_rate_per_100k": 154.018,
      "deaths": 0,
      "deaths_rate_per_10k": 0,
      "deaths_rate_per_100k": 0,
      "total_tested": 3178,
      "test_rate_per_10k": 709.375,
      "test_rate_per_100k": 7093.75,
      "total_population": 44800,
      "latitude": 38.731300,
      "longitude": -88.864700
    },
    {
      "County": "Marshall",
      "confirmed_cases": 10,
      "confirmed_rate_per_10k": 9.38262,
      "confirmed_rate_per_100k": 93.8262,
      "deaths": 0,
      "deaths_rate_per_10k": 0,
      "deaths_rate_per_100k": 0,
      "total_tested": 978,
      "test_rate_per_10k": 917.621,
      "test_rate_per_100k": 9176.21,
      "total_population": 10658,
      "latitude": 40.997300,
      "longitude": -89.360600
    },
    {
      "County": "Mason",
      "confirmed_cases": 22,
      "confirmed_rate_per_10k": 14.308,
      "confirmed_rate_per_100k": 143.08,
      "deaths": 0,
      "deaths_rate_per_10k": 0,
      "deaths_rate_per_100k": 0,
      "total_tested": 1421,
      "test_rate_per_10k": 924.168,
      "test_rate_per_100k": 9241.68,
      "total_population": 15376,
      "latitude": 40.227100,
      "longitude": -89.925300
    },
    {
      "County": "Massac",
      "confirmed_cases": 15,
      "confirmed_rate_per_10k": 11.5776,
      "confirmed_rate_per_100k": 115.776,
      "deaths": 0,
      "deaths_rate_per_10k": 0,
      "deaths_rate_per_100k": 0,
      "total_tested": 1052,
      "test_rate_per_10k": 811.979,
      "test_rate_per_100k": 8119.79,
      "total_population": 12956,
      "latitude": 37.247800,
      "longitude": -88.749400
    },
    {
      "County": "McDonough",
      "confirmed_cases": 102,
      "confirmed_rate_per_10k": 35.2844,
      "confirmed_rate_per_100k": 352.844,
      "deaths": 15,
      "deaths_rate_per_10k": 5.18888,
      "deaths_rate_per_100k": 51.8888,
      "total_tested": 2443,
      "test_rate_per_10k": 845.095,
      "test_rate_per_100k": 8450.95,
      "total_population": 28908,
      "latitude": 40.388500,
      "longitude": -90.677300
    },
    {
      "County": "McHenry",
      "confirmed_cases": 2103,
      "confirmed_rate_per_10k": 62.7355,
      "confirmed_rate_per_100k": 627.355,
      "deaths": 97,
      "deaths_rate_per_10k": 2.89365,
      "deaths_rate_per_100k": 28.9365,
      "total_tested": 25413,
      "test_rate_per_10k": 758.106,
      "test_rate_per_100k": 7581.06,
      "total_population": 335217,
      "latitude": 42.304000,
      "longitude": -88.401600
    },
    {
      "County": "McLean",
      "confirmed_cases": 273,
      "confirmed_rate_per_10k": 15.6792,
      "confirmed_rate_per_100k": 156.792,
      "deaths": 13,
      "deaths_rate_per_10k": 0.746629,
      "deaths_rate_per_100k": 7.46629,
      "total_tested": 14488,
      "test_rate_per_10k": 832.089,
      "test_rate_per_100k": 8320.89,
      "total_population": 174116,
      "latitude": 40.547800,
      "longitude": -88.864700
    },
    {
      "County": "Menard",
      "confirmed_cases": 24,
      "confirmed_rate_per_10k": 19.6512,
      "confirmed_rate_per_100k": 196.512,
      "deaths": 0,
      "deaths_rate_per_10k": 0,
      "deaths_rate_per_100k": 0,
      "total_tested": 1503,
      "test_rate_per_10k": 1230.66,
      "test_rate_per_100k": 12306.6,
      "total_population": 12213,
      "latitude": 40.022100,
      "longitude": -89.813000
    },
    {
      "County": "Mercer",
      "confirmed_cases": 23,
      "confirmed_rate_per_10k": 15.5259,
      "confirmed_rate_per_100k": 155.259,
      "deaths": 0,
      "deaths_rate_per_10k": 0,
      "deaths_rate_per_100k": 0,
      "total_tested": 1054,
      "test_rate_per_10k": 711.489,
      "test_rate_per_100k": 7114.89,
      "total_population": 14814,
      "latitude": 41.198500,
      "longitude": -90.677300
    },
    {
      "County": "Monroe",
      "confirmed_cases": 129,
      "confirmed_rate_per_10k": 37.7381,
      "confirmed_rate_per_100k": 377.381,
      "deaths": 13,
      "deaths_rate_per_10k": 3.80306,
      "deaths_rate_per_100k": 38.0306,
      "total_tested": 1989,
      "test_rate_per_10k": 581.868,
      "test_rate_per_100k": 5818.68,
      "total_population": 34183,
      "latitude": 38.274300,
      "longitude": -90.187000
    },
    {
      "County": "Montgomery",
      "confirmed_cases": 48,
      "confirmed_rate_per_10k": 16.6441,
      "confirmed_rate_per_100k": 166.441,
      "deaths": 1,
      "deaths_rate_per_10k": 0.346753,
      "deaths_rate_per_100k": 3.46753,
      "total_tested": 3246,
      "test_rate_per_10k": 1125.56,
      "test_rate_per_100k": 11255.6,
      "total_population": 28839,
      "latitude": 39.236400,
      "longitude": -89.474200
    },
    {
      "County": "Morgan",
      "confirmed_cases": 130,
      "confirmed_rate_per_10k": 38.717,
      "confirmed_rate_per_100k": 387.17,
      "deaths": 3,
      "deaths_rate_per_10k": 0.893469,
      "deaths_rate_per_100k": 8.93469,
      "total_tested": 4650,
      "test_rate_per_10k": 1384.88,
      "test_rate_per_100k": 13848.8,
      "total_population": 33577,
      "latitude": 39.734100,
      "longitude": -90.224500
    },
    {
      "County": "Moultrie",
      "confirmed_cases": 19,
      "confirmed_rate_per_10k": 13.9613,
      "confirmed_rate_per_100k": 139.613,
      "deaths": 0,
      "deaths_rate_per_10k": 0,
      "deaths_rate_per_100k": 0,
      "total_tested": 1194,
      "test_rate_per_10k": 877.361,
      "test_rate_per_100k": 8773.61,
      "total_population": 13609,
      "latitude": 39.602100,
      "longitude": -88.595200
    },
    {
      "County": "Ogle",
      "confirmed_cases": 269,
      "confirmed_rate_per_10k": 55.1117,
      "confirmed_rate_per_100k": 551.117,
      "deaths": 4,
      "deaths_rate_per_10k": 0.819504,
      "deaths_rate_per_100k": 8.19504,
      "total_tested": 4372,
      "test_rate_per_10k": 895.718,
      "test_rate_per_100k": 8957.18,
      "total_population": 48810,
      "latitude": 41.997000,
      "longitude": -89.322700
    },
    {
      "County": "Peoria",
      "confirmed_cases": 551,
      "confirmed_rate_per_10k": 30.8545,
      "confirmed_rate_per_100k": 308.545,
      "deaths": 28,
      "deaths_rate_per_10k": 1.56792,
      "deaths_rate_per_100k": 15.6792,
      "total_tested": 21073,
      "test_rate_per_10k": 1180.03,
      "test_rate_per_100k": 11800.3,
      "total_population": 178580,
      "latitude": 40.715600,
      "longitude": -89.775500
    },
    {
      "County": "Perry",
      "confirmed_cases": 56,
      "confirmed_rate_per_10k": 28.7622,
      "confirmed_rate_per_100k": 287.622,
      "deaths": 1,
      "deaths_rate_per_10k": 0.513611,
      "deaths_rate_per_100k": 5.13611,
      "total_tested": 1660,
      "test_rate_per_10k": 852.594,
      "test_rate_per_100k": 8525.94,
      "total_population": 19470,
      "latitude": 38.061200,
      "longitude": -89.322700
    },
    {
      "County": "Piatt",
      "confirmed_cases": 20,
      "confirmed_rate_per_10k": 12.6687,
      "confirmed_rate_per_100k": 126.687,
      "deaths": 0,
      "deaths_rate_per_10k": 0,
      "deaths_rate_per_100k": 0,
      "total_tested": 1714,
      "test_rate_per_10k": 1085.7,
      "test_rate_per_100k": 10857,
      "total_population": 15787,
      "latitude": 40.054400,
      "longitude": -88.855650
    },
    {
      "County": "Pike",
      "confirmed_cases": 3,
      "confirmed_rate_per_10k": 1.87032,
      "confirmed_rate_per_100k": 18.7032,
      "deaths": 0,
      "deaths_rate_per_10k": 0,
      "deaths_rate_per_100k": 0,
      "total_tested": 915,
      "test_rate_per_10k": 570.449,
      "test_rate_per_100k": 5704.49,
      "total_population": 16040,
      "latitude": 39.566200,
      "longitude": -90.829400
    },
    {
      "County": "Pope",
      "confirmed_cases": 1,
      "confirmed_rate_per_10k": 3.10366,
      "confirmed_rate_per_100k": 31.0366,
      "deaths": 0,
      "deaths_rate_per_10k": 0,
      "deaths_rate_per_100k": 0,
      "total_tested": 160,
      "test_rate_per_10k": 496.586,
      "test_rate_per_100k": 4965.86,
      "total_population": 3222,
      "latitude": 37.417100,
      "longitude": -88.595200
    },
    {
      "County": "Pulaski",
      "confirmed_cases": 76,
      "confirmed_rate_per_10k": 135.111,
      "confirmed_rate_per_100k": 1351.11,
      "deaths": 0,
      "deaths_rate_per_10k": 0,
      "deaths_rate_per_100k": 0,
      "total_tested": 555,
      "test_rate_per_10k": 986.667,
      "test_rate_per_100k": 9866.67,
      "total_population": 5625,
      "latitude": 37.251200,
      "longitude": -89.132500
    },
    {
      "County": "Putnam",
      "confirmed_cases": 1,
      "confirmed_rate_per_10k": 1.69291,
      "confirmed_rate_per_100k": 16.9291,
      "deaths": 0,
      "deaths_rate_per_10k": 0,
      "deaths_rate_per_100k": 0,
      "total_tested": 282,
      "test_rate_per_10k": 477.4,
      "test_rate_per_100k": 4774,
      "total_population": 5907,
      "latitude": 41.238500,
      "longitude": -89.284700
    },
    {
      "County": "Randolph",
      "confirmed_cases": 288,
      "confirmed_rate_per_10k": 81.5564,
      "confirmed_rate_per_100k": 815.564,
      "deaths": 7,
      "deaths_rate_per_10k": 1.98227,
      "deaths_rate_per_100k": 19.8227,
      "total_tested": 3521,
      "test_rate_per_10k": 997.083,
      "test_rate_per_100k": 9970.83,
      "total_population": 35313,
      "latitude": 38.062900,
      "longitude": -89.775500
    },
    {
      "County": "Richland",
      "confirmed_cases": 4,
      "confirmed_rate_per_10k": 2.53775,
      "confirmed_rate_per_100k": 25.3775,
      "deaths": 0,
      "deaths_rate_per_10k": 0,
      "deaths_rate_per_100k": 0,
      "total_tested": 1318,
      "test_rate_per_10k": 836.188,
      "test_rate_per_100k": 8361.88,
      "total_population": 15762,
      "latitude": 38.721300,
      "longitude": -88.090100
    },
    {
      "County": "Rock Island",
      "confirmed_cases": 1018,
      "confirmed_rate_per_10k": 70.9314,
      "confirmed_rate_per_100k": 709.314,
      "deaths": 29,
      "deaths_rate_per_10k": 2.02064,
      "deaths_rate_per_100k": 20.2064,
      "total_tested": 16491,
      "test_rate_per_10k": 1149.05,
      "test_rate_per_100k": 11490.5,
      "total_population": 143519,
      "latitude": 41.509500,
      "longitude": -90.578700
    },
    {
      "County": "Saline",
      "confirmed_cases": 9,
      "confirmed_rate_per_10k": 3.70416,
      "confirmed_rate_per_100k": 37.0416,
      "deaths": 0,
      "deaths_rate_per_10k": 0,
      "deaths_rate_per_100k": 0,
      "total_tested": 1249,
      "test_rate_per_10k": 514.055,
      "test_rate_per_100k": 5140.55,
      "total_population": 24297,
      "latitude": 37.715000,
      "longitude": -88.556500
    },
    {
      "County": "Sangamon",
      "confirmed_cases": 446,
      "confirmed_rate_per_10k": 22.9278,
      "confirmed_rate_per_100k": 229.278,
      "deaths": 32,
      "deaths_rate_per_10k": 1.64504,
      "deaths_rate_per_100k": 16.4504,
      "total_tested": 31316,
      "test_rate_per_10k": 1609.88,
      "test_rate_per_100k": 16098.8,
      "total_population": 194524,
      "latitude": 39.733700,
      "longitude": -89.625200
    },
    {
      "County": "Schuyler",
      "confirmed_cases": 13,
      "confirmed_rate_per_10k": 20.1083,
      "confirmed_rate_per_100k": 201.083,
      "deaths": 0,
      "deaths_rate_per_10k": 0,
      "deaths_rate_per_100k": 0,
      "total_tested": 610,
      "test_rate_per_10k": 943.542,
      "test_rate_per_100k": 9435.42,
      "total_population": 6465,
      "latitude": 40.184500,
      "longitude": -90.639400
    },
    {
      "County": "Scott",
      "confirmed_cases": 1,
      "confirmed_rate_per_10k": 2.28258,
      "confirmed_rate_per_100k": 22.8258,
      "deaths": 0,
      "deaths_rate_per_10k": 0,
      "deaths_rate_per_100k": 0,
      "total_tested": 541,
      "test_rate_per_10k": 1234.88,
      "test_rate_per_100k": 12348.8,
      "total_population": 4381,
      "latitude": 39.609500,
      "longitude": -90.488000
    },
    {
      "County": "Shelby",
      "confirmed_cases": 19,
      "confirmed_rate_per_10k": 9.01799,
      "confirmed_rate_per_100k": 90.1799,
      "deaths": 1,
      "deaths_rate_per_10k": 0.474631,
      "deaths_rate_per_100k": 4.74631,
      "total_tested": 1867,
      "test_rate_per_10k": 886.136,
      "test_rate_per_100k": 8861.36,
      "total_population": 21069,
      "latitude": 39.398100,
      "longitude": -88.864700
    },
    {
      "County": "St. Clair",
      "confirmed_cases": 1988,
      "confirmed_rate_per_10k": 78.4212,
      "confirmed_rate_per_100k": 784.212,
      "deaths": 137,
      "deaths_rate_per_10k": 5.40428,
      "deaths_rate_per_100k": 54.0428,
      "total_tested": 22024,
      "test_rate_per_10k": 868.787,
      "test_rate_per_100k": 8687.87,
      "total_population": 253503,
      "latitude": 38.400800,
      "longitude": -89.925300
    },
    {
      "County": "Stark",
      "confirmed_cases": 4,
      "confirmed_rate_per_10k": 6.99913,
      "confirmed_rate_per_100k": 69.9913,
      "deaths": 0,
      "deaths_rate_per_10k": 0,
      "deaths_rate_per_100k": 0,
      "total_tested": 331,
      "test_rate_per_10k": 579.178,
      "test_rate_per_100k": 5791.78,
      "total_population": 5715,
      "latitude": 41.079600,
      "longitude": -89.813000
    },
    {
      "County": "Stephenson",
      "confirmed_cases": 276,
      "confirmed_rate_per_10k": 60.8882,
      "confirmed_rate_per_100k": 608.882,
      "deaths": 5,
      "deaths_rate_per_10k": 1.10305,
      "deaths_rate_per_100k": 11.0305,
      "total_tested": 5045,
      "test_rate_per_10k": 1112.97,
      "test_rate_per_100k": 11129.7,
      "total_population": 45329,
      "latitude": 42.314500,
      "longitude": -89.625200
    },
    {
      "County": "Tazewell",
      "confirmed_cases": 149,
      "confirmed_rate_per_10k": 11.1917,
      "confirmed_rate_per_100k": 111.917,
      "deaths": 8,
      "deaths_rate_per_10k": 0.600898,
      "deaths_rate_per_100k": 6.00898,
      "total_tested": 13782,
      "test_rate_per_10k": 1035.2,
      "test_rate_per_100k": 10352,
      "total_population": 133134,
      "latitude": 40.552200,
      "longitude": -89.474200
    },
    {
      "County": "Union",
      "confirmed_cases": 194,
      "confirmed_rate_per_10k": 120.087,
      "confirmed_rate_per_100k": 1200.87,
      "deaths": 19,
      "deaths_rate_per_10k": 11.7611,
      "deaths_rate_per_100k": 117.611,
      "total_tested": 2300,
      "test_rate_per_10k": 1423.71,
      "test_rate_per_100k": 14237.1,
      "total_population": 16155,
      "latitude": 37.508700,
      "longitude": -89.284700
    },
    {
      "County": "Vermilion",
      "confirmed_cases": 77,
      "confirmed_rate_per_10k": 10.138,
      "confirmed_rate_per_100k": 101.38,
      "deaths": 2,
      "deaths_rate_per_10k": 0.263324,
      "deaths_rate_per_100k": 2.63324,
      "total_tested": 6178,
      "test_rate_per_10k": 813.408,
      "test_rate_per_100k": 8134.08,
      "total_population": 75952,
      "latitude": 40.122500,
      "longitude": -87.697600
    },
    {
      "County": "Wabash",
      "confirmed_cases": 22,
      "confirmed_rate_per_10k": 19.7292,
      "confirmed_rate_per_100k": 197.292,
      "deaths": 0,
      "deaths_rate_per_10k": 0,
      "deaths_rate_per_100k": 0,
      "total_tested": 622,
      "test_rate_per_10k": 557.798,
      "test_rate_per_100k": 5577.98,
      "total_population": 11151,
      "latitude": 38.422600,
      "longitude": -87.815700
    },
    {
      "County": "Warren",
      "confirmed_cases": 143,
      "confirmed_rate_per_10k": 87.1154,
      "confirmed_rate_per_100k": 871.154,
      "deaths": 0,
      "deaths_rate_per_10k": 0,
      "deaths_rate_per_100k": 0,
      "total_tested": 1163,
      "test_rate_per_10k": 708.498,
      "test_rate_per_100k": 7084.98,
      "total_population": 16415,
      "latitude": 40.875900,
      "longitude": -90.677300
    },
    {
      "County": "Washington",
      "confirmed_cases": 21,
      "confirmed_rate_per_10k": 16.2037,
      "confirmed_rate_per_100k": 162.037,
      "deaths": 0,
      "deaths_rate_per_10k": 0,
      "deaths_rate_per_100k": 0,
      "total_tested": 869,
      "test_rate_per_10k": 670.525,
      "test_rate_per_100k": 6705.25,
      "total_population": 12960,
      "latitude": 38.398900,
      "longitude": -89.322700
    },
    {
      "County": "Wayne",
      "confirmed_cases": 14,
      "confirmed_rate_per_10k": 8.97839,
      "confirmed_rate_per_100k": 89.7839,
      "deaths": 1,
      "deaths_rate_per_10k": 0.641313,
      "deaths_rate_per_100k": 6.41313,
      "total_tested": 1228,
      "test_rate_per_10k": 787.533,
      "test_rate_per_100k": 7875.33,
      "total_population": 15593,
      "latitude": 38.390000,
      "longitude": -88.401600
    },
    {
      "County": "White",
      "confirmed_cases": 6,
      "confirmed_rate_per_10k": 4.20639,
      "confirmed_rate_per_100k": 42.0639,
      "deaths": 0,
      "deaths_rate_per_10k": 0,
      "deaths_rate_per_100k": 0,
      "total_tested": 552,
      "test_rate_per_10k": 386.988,
      "test_rate_per_100k": 3869.88,
      "total_population": 14264,
      "latitude": 38.050100,
      "longitude": -88.246100
    },
    {
      "County": "Whiteside",
      "confirmed_cases": 193,
      "confirmed_rate_per_10k": 34.2977,
      "confirmed_rate_per_100k": 342.977,
      "deaths": 15,
      "deaths_rate_per_10k": 2.66562,
      "deaths_rate_per_100k": 26.6562,
      "total_tested": 4365,
      "test_rate_per_10k": 775.697,
      "test_rate_per_100k": 7756.97,
      "total_population": 56272,
      "latitude": 41.760600,
      "longitude": -89.850500
    },
    {
      "County": "Will",
      "confirmed_cases": 6883,
      "confirmed_rate_per_10k": 98.4242,
      "confirmed_rate_per_100k": 984.242,
      "deaths": 320,
      "deaths_rate_per_10k": 4.57587,
      "deaths_rate_per_100k": 45.7587,
      "total_tested": 80150,
      "test_rate_per_10k": 1146.11,
      "test_rate_per_100k": 11461.1,
      "total_population": 699320,
      "latitude": 41.505500,
      "longitude": -88.090100
    },
    {
      "County": "Williamson",
      "confirmed_cases": 126,
      "confirmed_rate_per_10k": 20.299,
      "confirmed_rate_per_100k": 202.99,
      "deaths": 4,
      "deaths_rate_per_10k": 0.644413,
      "deaths_rate_per_100k": 6.44413,
      "total_tested": 6374,
      "test_rate_per_10k": 1026.87,
      "test_rate_per_100k": 10268.7,
      "total_population": 62072,
      "latitude": 37.718300,
      "longitude": -88.864700
    },
    {
      "County": "Winnebago",
      "confirmed_cases": 3084,
      "confirmed_rate_per_10k": 108.886,
      "confirmed_rate_per_100k": 1088.86,
      "deaths": 96,
      "deaths_rate_per_10k": 3.38946,
      "deaths_rate_per_100k": 33.8946,
      "total_tested": 34659,
      "test_rate_per_10k": 1223.7,
      "test_rate_per_100k": 12237,
      "total_population": 283231,
      "latitude": 42.312100,
      "longitude": -89.170600
    },
    {
      "County": "Woodford",
      "confirmed_cases": 35,
      "confirmed_rate_per_10k": 10.2405,
      "confirmed_rate_per_100k": 102.405,
      "deaths": 2,
      "deaths_rate_per_10k": 0.585172,
      "deaths_rate_per_100k": 5.85172,
      "total_tested": 2661,
      "test_rate_per_10k": 778.571,
      "test_rate_per_100k": 7785.71,
      "total_population": 34178,
      "latitude": 40.712900,
      "longitude": -89.170600
    }
  ]
}
