{
  "LastUpdateDate": {
    "year": 2020,
    "month": 12,
    "day": 20
  },
  "county_rates": [
    {
      "County": "Adams",
      "confirmed_cases": 5794,
      "confirmed_rate_per_10k": 882.008,
      "confirmed_rate_per_100k": 8820.08,
      "deaths": 62,
      "deaths_rate_per_10k": 9.43813,
      "deaths_rate_per_100k": 94.3813,
      "total_tested": 82039,
      "test_rate_per_10k": 12488.6,
      "test_rate_per_100k": 124886,
      "total_population": 65691,
      "latitude": 40.057800,
      "longitude": -91.135300
    },
    {
      "County": "Alexander",
      "confirmed_cases": 322,
      "confirmed_rate_per_10k": 531.353,
      "confirmed_rate_per_100k": 5313.53,
      "deaths": 5,
      "deaths_rate_per_10k": 8.25083,
      "deaths_rate_per_100k": 82.5083,
      "total_tested": 3632,
      "test_rate_per_10k": 5993.4,
      "test_rate_per_100k": 59934,
      "total_population": 6060,
      "latitude": 37.167000,
      "longitude": -89.360600
    },
    {
      "County": "Bond",
      "confirmed_cases": 1416,
      "confirmed_rate_per_10k": 851.473,
      "confirmed_rate_per_100k": 8514.73,
      "deaths": 13,
      "deaths_rate_per_10k": 7.8172,
      "deaths_rate_per_100k": 78.172,
      "total_tested": 15053,
      "test_rate_per_10k": 9051.71,
      "test_rate_per_100k": 90517.1,
      "total_population": 16630,
      "latitude": 38.903000,
      "longitude": -89.474200
    },
    {
      "County": "Boone",
      "confirmed_cases": 4752,
      "confirmed_rate_per_10k": 886.948,
      "confirmed_rate_per_100k": 8869.48,
      "deaths": 54,
      "deaths_rate_per_10k": 10.079,
      "deaths_rate_per_100k": 100.79,
      "total_tested": 38225,
      "test_rate_per_10k": 7134.59,
      "test_rate_per_100k": 71345.9,
      "total_population": 53577,
      "latitude": 42.348500,
      "longitude": -88.826300
    },
    {
      "County": "Brown",
      "confirmed_cases": 412,
      "confirmed_rate_per_10k": 628.432,
      "confirmed_rate_per_100k": 6284.32,
      "deaths": 3,
      "deaths_rate_per_10k": 4.57596,
      "deaths_rate_per_100k": 45.7596,
      "total_tested": 4172,
      "test_rate_per_10k": 6363.64,
      "test_rate_per_100k": 63636.4,
      "total_population": 6556,
      "latitude": 39.938000,
      "longitude": -90.715300
    },
    {
      "County": "Bureau",
      "confirmed_cases": 2612,
      "confirmed_rate_per_10k": 791.683,
      "confirmed_rate_per_100k": 7916.83,
      "deaths": 61,
      "deaths_rate_per_10k": 18.4888,
      "deaths_rate_per_100k": 184.888,
      "total_tested": 24571,
      "test_rate_per_10k": 7447.34,
      "test_rate_per_100k": 74473.4,
      "total_population": 32993,
      "latitude": 41.359900,
      "longitude": -89.474200
    },
    {
      "County": "Calhoun",
      "confirmed_cases": 353,
      "confirmed_rate_per_10k": 735.11,
      "confirmed_rate_per_100k": 7351.1,
      "deaths": 1,
      "deaths_rate_per_10k": 2.08247,
      "deaths_rate_per_100k": 20.8247,
      "total_tested": 3580,
      "test_rate_per_10k": 7455.23,
      "test_rate_per_100k": 74552.3,
      "total_population": 4802,
      "latitude": 39.173300,
      "longitude": -90.658300
    },
    {
      "County": "Carroll",
      "confirmed_cases": 1268,
      "confirmed_rate_per_10k": 885.97,
      "confirmed_rate_per_100k": 8859.7,
      "deaths": 29,
      "deaths_rate_per_10k": 20.2627,
      "deaths_rate_per_100k": 202.627,
      "total_tested": 12685,
      "test_rate_per_10k": 8863.19,
      "test_rate_per_100k": 88631.9,
      "total_population": 14312,
      "latitude": 42.038600,
      "longitude": -89.962700
    },
    {
      "County": "Cass",
      "confirmed_cases": 1425,
      "confirmed_rate_per_10k": 1162.32,
      "confirmed_rate_per_100k": 11623.2,
      "deaths": 18,
      "deaths_rate_per_10k": 14.6819,
      "deaths_rate_per_100k": 146.819,
      "total_tested": 11326,
      "test_rate_per_10k": 9238.17,
      "test_rate_per_100k": 92381.7,
      "total_population": 12260,
      "latitude": 39.939900,
      "longitude": -90.262000
    },
    {
      "County": "Champaign",
      "confirmed_cases": 12951,
      "confirmed_rate_per_10k": 616.764,
      "confirmed_rate_per_100k": 6167.64,
      "deaths": 77,
      "deaths_rate_per_10k": 3.66696,
      "deaths_rate_per_100k": 36.6696,
      "total_tested": 1221312,
      "test_rate_per_10k": 58162.4,
      "test_rate_per_100k": 581624,
      "total_population": 209983,
      "latitude": 40.213900,
      "longitude": -88.246100
    },
    {
      "County": "Chicago",
      "confirmed_cases": 193902,
      "confirmed_rate_per_10k": 716.565,
      "confirmed_rate_per_100k": 7165.65,
      "deaths": 3920,
      "deaths_rate_per_10k": 14.4864,
      "deaths_rate_per_100k": 144.864,
      "total_tested": 2399120,
      "test_rate_per_10k": 8865.95,
      "test_rate_per_100k": 88659.5,
      "total_population": 2705994,
      "latitude": 41.789896,
      "longitude": -87.627734
    },
    {
      "County": "Christian",
      "confirmed_cases": 2421,
      "confirmed_rate_per_10k": 741.251,
      "confirmed_rate_per_100k": 7412.51,
      "deaths": 43,
      "deaths_rate_per_10k": 13.1655,
      "deaths_rate_per_100k": 131.655,
      "total_tested": 24061,
      "test_rate_per_10k": 7366.89,
      "test_rate_per_100k": 73668.9,
      "total_population": 32661,
      "latitude": 39.567200,
      "longitude": -89.322700
    },
    {
      "County": "Clark",
      "confirmed_cases": 1069,
      "confirmed_rate_per_10k": 685.432,
      "confirmed_rate_per_100k": 6854.32,
      "deaths": 23,
      "deaths_rate_per_10k": 14.7474,
      "deaths_rate_per_100k": 147.474,
      "total_tested": 8921,
      "test_rate_per_10k": 5720.06,
      "test_rate_per_100k": 57200.6,
      "total_population": 15596,
      "latitude": 39.382400,
      "longitude": -87.776300
    },
    {
      "County": "Clay",
      "confirmed_cases": 1140,
      "confirmed_rate_per_10k": 860.183,
      "confirmed_rate_per_100k": 8601.83,
      "deaths": 30,
      "deaths_rate_per_10k": 22.6364,
      "deaths_rate_per_100k": 226.364,
      "total_tested": 9405,
      "test_rate_per_10k": 7096.51,
      "test_rate_per_100k": 70965.1,
      "total_population": 13253,
      "latitude": 38.727900,
      "longitude": -88.556500
    },
    {
      "County": "Clinton",
      "confirmed_cases": 4156,
      "confirmed_rate_per_10k": 1104.17,
      "confirmed_rate_per_100k": 11041.7,
      "deaths": 73,
      "deaths_rate_per_10k": 19.3948,
      "deaths_rate_per_100k": 193.948,
      "total_tested": 34364,
      "test_rate_per_10k": 9129.89,
      "test_rate_per_100k": 91298.9,
      "total_population": 37639,
      "latitude": 38.568400,
      "longitude": -89.625200
    },
    {
      "County": "Coles",
      "confirmed_cases": 4006,
      "confirmed_rate_per_10k": 787.265,
      "confirmed_rate_per_100k": 7872.65,
      "deaths": 69,
      "deaths_rate_per_10k": 13.56,
      "deaths_rate_per_100k": 135.6,
      "total_tested": 43754,
      "test_rate_per_10k": 8598.6,
      "test_rate_per_100k": 85986,
      "total_population": 50885,
      "latitude": 39.556000,
      "longitude": -88.246100
    },
    {
      "County": "Cook",
      "confirmed_cases": 177186,
      "confirmed_rate_per_10k": 716.048,
      "confirmed_rate_per_100k": 7160.48,
      "deaths": 3455,
      "deaths_rate_per_10k": 13.9624,
      "deaths_rate_per_100k": 139.624,
      "total_tested": 2147065,
      "test_rate_per_10k": 8676.77,
      "test_rate_per_100k": 86767.7,
      "total_population": 2474499,
      "latitude": 42.050784,
      "longitude": -87.963759
    },
    {
      "County": "Crawford",
      "confirmed_cases": 1461,
      "confirmed_rate_per_10k": 776.838,
      "confirmed_rate_per_100k": 7768.38,
      "deaths": 19,
      "deaths_rate_per_10k": 10.1026,
      "deaths_rate_per_100k": 101.026,
      "total_tested": 17233,
      "test_rate_per_10k": 9163.08,
      "test_rate_per_100k": 91630.8,
      "total_population": 18807,
      "latitude": 39.050000,
      "longitude": -87.776300
    },
    {
      "County": "Cumberland",
      "confirmed_cases": 868,
      "confirmed_rate_per_10k": 803.109,
      "confirmed_rate_per_100k": 8031.09,
      "deaths": 12,
      "deaths_rate_per_10k": 11.1029,
      "deaths_rate_per_100k": 111.029,
      "total_tested": 7286,
      "test_rate_per_10k": 6741.3,
      "test_rate_per_100k": 67413,
      "total_population": 10808,
      "latitude": 39.265400,
      "longitude": -88.207200
    },
    {
      "County": "De Witt",
      "confirmed_cases": 822,
      "confirmed_rate_per_10k": 521.276,
      "confirmed_rate_per_100k": 5212.76,
      "deaths": 18,
      "deaths_rate_per_10k": 11.4148,
      "deaths_rate_per_100k": 114.148,
      "total_tested": 11043,
      "test_rate_per_10k": 7002.98,
      "test_rate_per_100k": 70029.8,
      "total_population": 15769,
      "latitude": 40.181000,
      "longitude": -88.903100
    },
    {
      "County": "DeKalb",
      "confirmed_cases": 6222,
      "confirmed_rate_per_10k": 597.448,
      "confirmed_rate_per_100k": 5974.48,
      "deaths": 66,
      "deaths_rate_per_10k": 6.33744,
      "deaths_rate_per_100k": 63.3744,
      "total_tested": 77311,
      "test_rate_per_10k": 7423.54,
      "test_rate_per_100k": 74235.4,
      "total_population": 104143,
      "latitude": 41.833000,
      "longitude": -88.710900
    },
    {
      "County": "Douglas",
      "confirmed_cases": 1692,
      "confirmed_rate_per_10k": 868.628,
      "confirmed_rate_per_100k": 8686.28,
      "deaths": 19,
      "deaths_rate_per_10k": 9.75409,
      "deaths_rate_per_100k": 97.5409,
      "total_tested": 18484,
      "test_rate_per_10k": 9489.19,
      "test_rate_per_100k": 94891.9,
      "total_population": 19479,
      "latitude": 39.761800,
      "longitude": -88.207200
    },
    {
      "County": "DuPage",
      "confirmed_cases": 57784,
      "confirmed_rate_per_10k": 622.277,
      "confirmed_rate_per_100k": 6222.77,
      "deaths": 887,
      "deaths_rate_per_10k": 9.55213,
      "deaths_rate_per_100k": 95.5213,
      "total_tested": 727175,
      "test_rate_per_10k": 7830.97,
      "test_rate_per_100k": 78309.7,
      "total_population": 928589,
      "latitude": 41.824400,
      "longitude": -88.090100
    },
    {
      "County": "Edgar",
      "confirmed_cases": 1246,
      "confirmed_rate_per_10k": 717.742,
      "confirmed_rate_per_100k": 7177.42,
      "deaths": 22,
      "deaths_rate_per_10k": 12.6728,
      "deaths_rate_per_100k": 126.728,
      "total_tested": 8752,
      "test_rate_per_10k": 5041.47,
      "test_rate_per_100k": 50414.7,
      "total_population": 17360,
      "latitude": 39.713100,
      "longitude": -87.776300
    },
    {
      "County": "Edwards",
      "confirmed_cases": 348,
      "confirmed_rate_per_10k": 544.431,
      "confirmed_rate_per_100k": 5444.31,
      "deaths": 5,
      "deaths_rate_per_10k": 7.82228,
      "deaths_rate_per_100k": 78.2228,
      "total_tested": 2397,
      "test_rate_per_10k": 3750,
      "test_rate_per_100k": 37500,
      "total_population": 6392,
      "latitude": 38.426800,
      "longitude": -88.051000
    },
    {
      "County": "Effingham",
      "confirmed_cases": 3607,
      "confirmed_rate_per_10k": 1054.43,
      "confirmed_rate_per_100k": 10544.3,
      "deaths": 47,
      "deaths_rate_per_10k": 13.7395,
      "deaths_rate_per_100k": 137.395,
      "total_tested": 25741,
      "test_rate_per_10k": 7524.85,
      "test_rate_per_100k": 75248.5,
      "total_population": 34208,
      "latitude": 39.062200,
      "longitude": -88.556500
    },
    {
      "County": "Fayette",
      "confirmed_cases": 2502,
      "confirmed_rate_per_10k": 1168.29,
      "confirmed_rate_per_100k": 11682.9,
      "deaths": 43,
      "deaths_rate_per_10k": 20.0784,
      "deaths_rate_per_100k": 200.784,
      "total_tested": 16156,
      "test_rate_per_10k": 7543.89,
      "test_rate_per_100k": 75438.9,
      "total_population": 21416,
      "latitude": 39.067000,
      "longitude": -89.017900
    },
    {
      "County": "Ford",
      "confirmed_cases": 1115,
      "confirmed_rate_per_10k": 840.621,
      "confirmed_rate_per_100k": 8406.21,
      "deaths": 33,
      "deaths_rate_per_10k": 24.8794,
      "deaths_rate_per_100k": 248.794,
      "total_tested": 16427,
      "test_rate_per_10k": 12384.7,
      "test_rate_per_100k": 123847,
      "total_population": 13264,
      "latitude": 40.498900,
      "longitude": -88.207200
    },
    {
      "County": "Franklin",
      "confirmed_cases": 2938,
      "confirmed_rate_per_10k": 759.154,
      "confirmed_rate_per_100k": 7591.54,
      "deaths": 37,
      "deaths_rate_per_10k": 9.56048,
      "deaths_rate_per_100k": 95.6048,
      "total_tested": 29248,
      "test_rate_per_10k": 7557.43,
      "test_rate_per_100k": 75574.3,
      "total_population": 38701,
      "latitude": 38.015700,
      "longitude": -88.903100
    },
    {
      "County": "Fulton",
      "confirmed_cases": 2067,
      "confirmed_rate_per_10k": 593.215,
      "confirmed_rate_per_100k": 5932.15,
      "deaths": 24,
      "deaths_rate_per_10k": 6.88784,
      "deaths_rate_per_100k": 68.8784,
      "total_tested": 33853,
      "test_rate_per_10k": 9715.59,
      "test_rate_per_100k": 97155.9,
      "total_population": 34844,
      "latitude": 40.553200,
      "longitude": -90.224500
    },
    {
      "County": "Gallatin",
      "confirmed_cases": 282,
      "confirmed_rate_per_10k": 557.533,
      "confirmed_rate_per_100k": 5575.33,
      "deaths": 3,
      "deaths_rate_per_10k": 5.9312,
      "deaths_rate_per_100k": 59.312,
      "total_tested": 2284,
      "test_rate_per_10k": 4515.62,
      "test_rate_per_100k": 45156.2,
      "total_population": 5058,
      "latitude": 37.710800,
      "longitude": -88.246100
    },
    {
      "County": "Greene",
      "confirmed_cases": 1065,
      "confirmed_rate_per_10k": 816.467,
      "confirmed_rate_per_100k": 8164.67,
      "deaths": 30,
      "deaths_rate_per_10k": 22.9991,
      "deaths_rate_per_100k": 229.991,
      "total_tested": 8797,
      "test_rate_per_10k": 6744.1,
      "test_rate_per_100k": 67441,
      "total_population": 13044,
      "latitude": 39.403000,
      "longitude": -90.374800
    },
    {
      "County": "Grundy",
      "confirmed_cases": 3613,
      "confirmed_rate_per_10k": 708.821,
      "confirmed_rate_per_100k": 7088.21,
      "deaths": 36,
      "deaths_rate_per_10k": 7.0627,
      "deaths_rate_per_100k": 70.627,
      "total_tested": 28752,
      "test_rate_per_10k": 5640.74,
      "test_rate_per_100k": 56407.4,
      "total_population": 50972,
      "latitude": 41.350100,
      "longitude": -88.401600
    },
    {
      "County": "Hamilton",
      "confirmed_cases": 529,
      "confirmed_rate_per_10k": 648.046,
      "confirmed_rate_per_100k": 6480.46,
      "deaths": 8,
      "deaths_rate_per_10k": 9.80032,
      "deaths_rate_per_100k": 98.0032,
      "total_tested": 4086,
      "test_rate_per_10k": 5005.51,
      "test_rate_per_100k": 50055.1,
      "total_population": 8163,
      "latitude": 38.054300,
      "longitude": -88.556500
    },
    {
      "County": "Hancock",
      "confirmed_cases": 1199,
      "confirmed_rate_per_10k": 671.935,
      "confirmed_rate_per_100k": 6719.35,
      "deaths": 19,
      "deaths_rate_per_10k": 10.6478,
      "deaths_rate_per_100k": 106.478,
      "total_tested": 11502,
      "test_rate_per_10k": 6445.86,
      "test_rate_per_100k": 64458.6,
      "total_population": 17844,
      "latitude": 40.384900,
      "longitude": -91.135300
    },
    {
      "County": "Hardin",
      "confirmed_cases": 197,
      "confirmed_rate_per_10k": 503.836,
      "confirmed_rate_per_100k": 5038.36,
      "deaths": 5,
      "deaths_rate_per_10k": 12.7877,
      "deaths_rate_per_100k": 127.877,
      "total_tested": 2686,
      "test_rate_per_10k": 6869.57,
      "test_rate_per_100k": 68695.7,
      "total_population": 3910,
      "latitude": 37.499500,
      "longitude": -88.362800
    },
    {
      "County": "Henderson",
      "confirmed_cases": 369,
      "confirmed_rate_per_10k": 550.007,
      "confirmed_rate_per_100k": 5500.07,
      "deaths": 2,
      "deaths_rate_per_10k": 2.98107,
      "deaths_rate_per_100k": 29.8107,
      "total_tested": 4078,
      "test_rate_per_10k": 6078.4,
      "test_rate_per_100k": 60784,
      "total_population": 6709,
      "latitude": 40.833600,
      "longitude": -90.943800
    },
    {
      "County": "Henry",
      "confirmed_cases": 3437,
      "confirmed_rate_per_10k": 700.143,
      "confirmed_rate_per_100k": 7001.43,
      "deaths": 29,
      "deaths_rate_per_10k": 5.90752,
      "deaths_rate_per_100k": 59.0752,
      "total_tested": 40856,
      "test_rate_per_10k": 8322.67,
      "test_rate_per_100k": 83226.7,
      "total_population": 49090,
      "latitude": 41.361100,
      "longitude": -90.074700
    },
    {
      "County": "Iroquois",
      "confirmed_cases": 2187,
      "confirmed_rate_per_10k": 792.276,
      "confirmed_rate_per_100k": 7922.76,
      "deaths": 43,
      "deaths_rate_per_10k": 15.5775,
      "deaths_rate_per_100k": 155.775,
      "total_tested": 27472,
      "test_rate_per_10k": 9952.18,
      "test_rate_per_100k": 99521.8,
      "total_population": 27604,
      "latitude": 40.774000,
      "longitude": -87.697600
    },
    {
      "County": "Jackson",
      "confirmed_cases": 3398,
      "confirmed_rate_per_10k": 591.79,
      "confirmed_rate_per_100k": 5917.9,
      "deaths": 46,
      "deaths_rate_per_10k": 8.01129,
      "deaths_rate_per_100k": 80.1129,
      "total_tested": 41242,
      "test_rate_per_10k": 7182.64,
      "test_rate_per_100k": 71826.4,
      "total_population": 57419,
      "latitude": 37.721800,
      "longitude": -89.322700
    },
    {
      "County": "Jasper",
      "confirmed_cases": 833,
      "confirmed_rate_per_10k": 866.715,
      "confirmed_rate_per_100k": 8667.15,
      "deaths": 13,
      "deaths_rate_per_10k": 13.5262,
      "deaths_rate_per_100k": 135.262,
      "total_tested": 6680,
      "test_rate_per_10k": 6950.37,
      "test_rate_per_100k": 69503.7,
      "total_population": 9611,
      "latitude": 39.055500,
      "longitude": -88.090100
    },
    {
      "County": "Jefferson",
      "confirmed_cases": 2629,
      "confirmed_rate_per_10k": 695.135,
      "confirmed_rate_per_100k": 6951.35,
      "deaths": 72,
      "deaths_rate_per_10k": 19.0375,
      "deaths_rate_per_100k": 190.375,
      "total_tested": 22908,
      "test_rate_per_10k": 6057.11,
      "test_rate_per_100k": 60571.1,
      "total_population": 37820,
      "latitude": 38.226700,
      "longitude": -88.864700
    },
    {
      "County": "Jersey",
      "confirmed_cases": 1768,
      "confirmed_rate_per_10k": 809.264,
      "confirmed_rate_per_100k": 8092.64,
      "deaths": 26,
      "deaths_rate_per_10k": 11.9009,
      "deaths_rate_per_100k": 119.009,
      "total_tested": 17059,
      "test_rate_per_10k": 7808.39,
      "test_rate_per_100k": 78083.9,
      "total_population": 21847,
      "latitude": 39.070500,
      "longitude": -90.374800
    },
    {
      "County": "Jo Daviess",
      "confirmed_cases": 1333,
      "confirmed_rate_per_10k": 623.888,
      "confirmed_rate_per_100k": 6238.88,
      "deaths": 21,
      "deaths_rate_per_10k": 9.8287,
      "deaths_rate_per_100k": 98.287,
      "total_tested": 14137,
      "test_rate_per_10k": 6616.59,
      "test_rate_per_100k": 66165.9,
      "total_population": 21366,
      "latitude": 42.314900,
      "longitude": -90.224500
    },
    {
      "County": "Johnson",
      "confirmed_cases": 914,
      "confirmed_rate_per_10k": 733.783,
      "confirmed_rate_per_100k": 7337.83,
      "deaths": 8,
      "deaths_rate_per_10k": 6.42261,
      "deaths_rate_per_100k": 64.2261,
      "total_tested": 7970,
      "test_rate_per_10k": 6398.52,
      "test_rate_per_100k": 63985.2,
      "total_population": 12456,
      "latitude": 37.420400,
      "longitude": -88.903100
    },
    {
      "County": "Kane",
      "confirmed_cases": 38997,
      "confirmed_rate_per_10k": 729.986,
      "confirmed_rate_per_100k": 7299.86,
      "deaths": 529,
      "deaths_rate_per_10k": 9.90236,
      "deaths_rate_per_100k": 99.0236,
      "total_tested": 379870,
      "test_rate_per_10k": 7110.79,
      "test_rate_per_100k": 71107.9,
      "total_population": 534216,
      "latitude": 41.987900,
      "longitude": -88.401600
    },
    {
      "County": "Kankakee",
      "confirmed_cases": 10215,
      "confirmed_rate_per_10k": 928.434,
      "confirmed_rate_per_100k": 9284.34,
      "deaths": 143,
      "deaths_rate_per_10k": 12.9972,
      "deaths_rate_per_100k": 129.972,
      "total_tested": 127075,
      "test_rate_per_10k": 11549.8,
      "test_rate_per_100k": 115498,
      "total_population": 110024,
      "latitude": 41.179100,
      "longitude": -87.776300
    },
    {
      "County": "Kendall",
      "confirmed_cases": 7863,
      "confirmed_rate_per_10k": 614.705,
      "confirmed_rate_per_100k": 6147.05,
      "deaths": 63,
      "deaths_rate_per_10k": 4.92515,
      "deaths_rate_per_100k": 49.2515,
      "total_tested": 76506,
      "test_rate_per_10k": 5981,
      "test_rate_per_100k": 59810,
      "total_population": 127915,
      "latitude": 41.550700,
      "longitude": -88.440400
    },
    {
      "County": "Knox",
      "confirmed_cases": 3709,
      "confirmed_rate_per_10k": 740.142,
      "confirmed_rate_per_100k": 7401.42,
      "deaths": 87,
      "deaths_rate_per_10k": 17.3611,
      "deaths_rate_per_100k": 173.611,
      "total_tested": 43019,
      "test_rate_per_10k": 8584.57,
      "test_rate_per_100k": 85845.7,
      "total_population": 50112,
      "latitude": 40.877600,
      "longitude": -90.224500
    },
    {
      "County": "Lake",
      "confirmed_cases": 45431,
      "confirmed_rate_per_10k": 648.244,
      "confirmed_rate_per_100k": 6482.44,
      "deaths": 707,
      "deaths_rate_per_10k": 10.088,
      "deaths_rate_per_100k": 100.88,
      "total_tested": 546751,
      "test_rate_per_10k": 7801.46,
      "test_rate_per_100k": 78014.6,
      "total_population": 700832,
      "latitude": 42.368900,
      "longitude": -87.827200
    },
    {
      "County": "LaSalle",
      "confirmed_cases": 7810,
      "confirmed_rate_per_10k": 713.698,
      "confirmed_rate_per_100k": 7136.98,
      "deaths": 173,
      "deaths_rate_per_10k": 15.8092,
      "deaths_rate_per_100k": 158.092,
      "total_tested": 82171,
      "test_rate_per_10k": 7509,
      "test_rate_per_100k": 75090,
      "total_population": 109430,
      "latitude": 41.436400,
      "longitude": -88.941400
    },
    {
      "County": "Lawrence",
      "confirmed_cases": 1703,
      "confirmed_rate_per_10k": 1080.24,
      "confirmed_rate_per_100k": 10802.4,
      "deaths": 18,
      "deaths_rate_per_10k": 11.4177,
      "deaths_rate_per_100k": 114.177,
      "total_tested": 15058,
      "test_rate_per_10k": 9551.54,
      "test_rate_per_100k": 95515.4,
      "total_population": 15765,
      "latitude": 38.715800,
      "longitude": -87.776300
    },
    {
      "County": "Lee",
      "confirmed_cases": 2535,
      "confirmed_rate_per_10k": 740.73,
      "confirmed_rate_per_100k": 7407.3,
      "deaths": 29,
      "deaths_rate_per_10k": 8.47383,
      "deaths_rate_per_100k": 84.7383,
      "total_tested": 26800,
      "test_rate_per_10k": 7830.99,
      "test_rate_per_100k": 78309.9,
      "total_population": 34223,
      "latitude": 41.679000,
      "longitude": -89.322700
    },
    {
      "County": "Livingston",
      "confirmed_cases": 2893,
      "confirmed_rate_per_10k": 808.982,
      "confirmed_rate_per_100k": 8089.82,
      "deaths": 48,
      "deaths_rate_per_10k": 13.4224,
      "deaths_rate_per_100k": 134.224,
      "total_tested": 39961,
      "test_rate_per_10k": 11174.5,
      "test_rate_per_100k": 111745,
      "total_population": 35761,
      "latitude": 40.868900,
      "longitude": -88.556500
    },
    {
      "County": "Logan",
      "confirmed_cases": 2515,
      "confirmed_rate_per_10k": 869.49,
      "confirmed_rate_per_100k": 8694.9,
      "deaths": 32,
      "deaths_rate_per_10k": 11.0631,
      "deaths_rate_per_100k": 110.631,
      "total_tested": 38686,
      "test_rate_per_10k": 13374.6,
      "test_rate_per_100k": 133746,
      "total_population": 28925,
      "latitude": 40.061300,
      "longitude": -89.322700
    },
    {
      "County": "Macon",
      "confirmed_cases": 7607,
      "confirmed_rate_per_10k": 726.469,
      "confirmed_rate_per_100k": 7264.69,
      "deaths": 153,
      "deaths_rate_per_10k": 14.6115,
      "deaths_rate_per_100k": 146.115,
      "total_tested": 94356,
      "test_rate_per_10k": 9011,
      "test_rate_per_100k": 90110,
      "total_population": 104712,
      "latitude": 39.894900,
      "longitude": -89.017900
    },
    {
      "County": "Macoupin",
      "confirmed_cases": 3004,
      "confirmed_rate_per_10k": 662.944,
      "confirmed_rate_per_100k": 6629.44,
      "deaths": 48,
      "deaths_rate_per_10k": 10.593,
      "deaths_rate_per_100k": 105.93,
      "total_tested": 41353,
      "test_rate_per_10k": 9126.08,
      "test_rate_per_100k": 91260.8,
      "total_population": 45313,
      "latitude": 39.237500,
      "longitude": -89.925300
    },
    {
      "County": "Madison",
      "confirmed_cases": 19267,
      "confirmed_rate_per_10k": 728.538,
      "confirmed_rate_per_100k": 7285.38,
      "deaths": 313,
      "deaths_rate_per_10k": 11.8354,
      "deaths_rate_per_100k": 118.354,
      "total_tested": 178925,
      "test_rate_per_10k": 6765.65,
      "test_rate_per_100k": 67656.5,
      "total_population": 264461,
      "latitude": 38.904100,
      "longitude": -89.925300
    },
    {
      "County": "Marion",
      "confirmed_cases": 3268,
      "confirmed_rate_per_10k": 868.687,
      "confirmed_rate_per_100k": 8686.87,
      "deaths": 91,
      "deaths_rate_per_10k": 24.1893,
      "deaths_rate_per_100k": 241.893,
      "total_tested": 36003,
      "test_rate_per_10k": 9570.18,
      "test_rate_per_100k": 95701.8,
      "total_population": 37620,
      "latitude": 38.731300,
      "longitude": -88.864700
    },
    {
      "County": "Marshall",
      "confirmed_cases": 543,
      "confirmed_rate_per_10k": 470.782,
      "confirmed_rate_per_100k": 4707.82,
      "deaths": 7,
      "deaths_rate_per_10k": 6.06901,
      "deaths_rate_per_100k": 60.6901,
      "total_tested": 10335,
      "test_rate_per_10k": 8960.46,
      "test_rate_per_100k": 89604.6,
      "total_population": 11534,
      "latitude": 40.997300,
      "longitude": -89.360600
    },
    {
      "County": "Mason",
      "confirmed_cases": 914,
      "confirmed_rate_per_10k": 673.793,
      "confirmed_rate_per_100k": 6737.93,
      "deaths": 34,
      "deaths_rate_per_10k": 25.0645,
      "deaths_rate_per_100k": 250.645,
      "total_tested": 12019,
      "test_rate_per_10k": 8860.3,
      "test_rate_per_100k": 88603,
      "total_population": 13565,
      "latitude": 40.227100,
      "longitude": -89.925300
    },
    {
      "County": "Massac",
      "confirmed_cases": 806,
      "confirmed_rate_per_10k": 572.443,
      "confirmed_rate_per_100k": 5724.43,
      "deaths": 20,
      "deaths_rate_per_10k": 14.2045,
      "deaths_rate_per_100k": 142.045,
      "total_tested": 6631,
      "test_rate_per_10k": 4709.52,
      "test_rate_per_100k": 47095.2,
      "total_population": 14080,
      "latitude": 37.247800,
      "longitude": -88.749400
    },
    {
      "County": "McDonough",
      "confirmed_cases": 1886,
      "confirmed_rate_per_10k": 629.611,
      "confirmed_rate_per_100k": 6296.11,
      "deaths": 35,
      "deaths_rate_per_10k": 11.6842,
      "deaths_rate_per_100k": 116.842,
      "total_tested": 24553,
      "test_rate_per_10k": 8196.63,
      "test_rate_per_100k": 81966.3,
      "total_population": 29955,
      "latitude": 40.388500,
      "longitude": -90.677300
    },
    {
      "County": "McHenry",
      "confirmed_cases": 17713,
      "confirmed_rate_per_10k": 574.035,
      "confirmed_rate_per_100k": 5740.35,
      "deaths": 186,
      "deaths_rate_per_10k": 6.02781,
      "deaths_rate_per_100k": 60.2781,
      "total_tested": 181275,
      "test_rate_per_10k": 5874.68,
      "test_rate_per_100k": 58746.8,
      "total_population": 308570,
      "latitude": 42.304000,
      "longitude": -88.401600
    },
    {
      "County": "McLean",
      "confirmed_cases": 10757,
      "confirmed_rate_per_10k": 622.411,
      "confirmed_rate_per_100k": 6224.11,
      "deaths": 83,
      "deaths_rate_per_10k": 4.80246,
      "deaths_rate_per_100k": 48.0246,
      "total_tested": 175081,
      "test_rate_per_10k": 10130.4,
      "test_rate_per_100k": 101304,
      "total_population": 172828,
      "latitude": 40.547800,
      "longitude": -88.864700
    },
    {
      "County": "Menard",
      "confirmed_cases": 668,
      "confirmed_rate_per_10k": 543.62,
      "confirmed_rate_per_100k": 5436.2,
      "deaths": 5,
      "deaths_rate_per_10k": 4.06901,
      "deaths_rate_per_100k": 40.6901,
      "total_tested": 11180,
      "test_rate_per_10k": 9098.31,
      "test_rate_per_100k": 90983.1,
      "total_population": 12288,
      "latitude": 40.022100,
      "longitude": -89.813000
    },
    {
      "County": "Mercer",
      "confirmed_cases": 1011,
      "confirmed_rate_per_10k": 648.035,
      "confirmed_rate_per_100k": 6480.35,
      "deaths": 23,
      "deaths_rate_per_10k": 14.7426,
      "deaths_rate_per_100k": 147.426,
      "total_tested": 11209,
      "test_rate_per_10k": 7184.8,
      "test_rate_per_100k": 71848,
      "total_population": 15601,
      "latitude": 41.198500,
      "longitude": -90.677300
    },
    {
      "County": "Monroe",
      "confirmed_cases": 2808,
      "confirmed_rate_per_10k": 817.824,
      "confirmed_rate_per_100k": 8178.24,
      "deaths": 56,
      "deaths_rate_per_10k": 16.3099,
      "deaths_rate_per_100k": 163.099,
      "total_tested": 22783,
      "test_rate_per_10k": 6635.5,
      "test_rate_per_100k": 66355,
      "total_population": 34335,
      "latitude": 38.274300,
      "longitude": -90.187000
    },
    {
      "County": "Montgomery",
      "confirmed_cases": 1612,
      "confirmed_rate_per_10k": 563.617,
      "confirmed_rate_per_100k": 5636.17,
      "deaths": 21,
      "deaths_rate_per_10k": 7.3424,
      "deaths_rate_per_100k": 73.424,
      "total_tested": 29718,
      "test_rate_per_10k": 10390.5,
      "test_rate_per_100k": 103905,
      "total_population": 28601,
      "latitude": 39.236400,
      "longitude": -89.474200
    },
    {
      "County": "Morgan",
      "confirmed_cases": 2829,
      "confirmed_rate_per_10k": 832.647,
      "confirmed_rate_per_100k": 8326.47,
      "deaths": 59,
      "deaths_rate_per_10k": 17.3652,
      "deaths_rate_per_100k": 173.652,
      "total_tested": 30912,
      "test_rate_per_10k": 9098.19,
      "test_rate_per_100k": 90981.9,
      "total_population": 33976,
      "latitude": 39.734100,
      "longitude": -90.224500
    },
    {
      "County": "Moultrie",
      "confirmed_cases": 1163,
      "confirmed_rate_per_10k": 790.243,
      "confirmed_rate_per_100k": 7902.43,
      "deaths": 14,
      "deaths_rate_per_10k": 9.51281,
      "deaths_rate_per_100k": 95.1281,
      "total_tested": 13621,
      "test_rate_per_10k": 9255.28,
      "test_rate_per_100k": 92552.8,
      "total_population": 14717,
      "latitude": 39.602100,
      "longitude": -88.595200
    },
    {
      "County": "Ogle",
      "confirmed_cases": 3742,
      "confirmed_rate_per_10k": 734.835,
      "confirmed_rate_per_100k": 7348.35,
      "deaths": 57,
      "deaths_rate_per_10k": 11.1934,
      "deaths_rate_per_100k": 111.934,
      "total_tested": 35503,
      "test_rate_per_10k": 6971.9,
      "test_rate_per_100k": 69719,
      "total_population": 50923,
      "latitude": 41.997000,
      "longitude": -89.322700
    },
    {
      "County": "Peoria",
      "confirmed_cases": 12199,
      "confirmed_rate_per_10k": 675.392,
      "confirmed_rate_per_100k": 6753.92,
      "deaths": 171,
      "deaths_rate_per_10k": 9.46734,
      "deaths_rate_per_100k": 94.6734,
      "total_tested": 181957,
      "test_rate_per_10k": 10074,
      "test_rate_per_100k": 100740,
      "total_population": 180621,
      "latitude": 40.715600,
      "longitude": -89.775500
    },
    {
      "County": "Perry",
      "confirmed_cases": 1806,
      "confirmed_rate_per_10k": 852.933,
      "confirmed_rate_per_100k": 8529.33,
      "deaths": 39,
      "deaths_rate_per_10k": 18.4188,
      "deaths_rate_per_100k": 184.188,
      "total_tested": 15488,
      "test_rate_per_10k": 7314.63,
      "test_rate_per_100k": 73146.3,
      "total_population": 21174,
      "latitude": 38.061200,
      "longitude": -89.322700
    },
    {
      "County": "Piatt",
      "confirmed_cases": 966,
      "confirmed_rate_per_10k": 589.168,
      "confirmed_rate_per_100k": 5891.68,
      "deaths": 6,
      "deaths_rate_per_10k": 3.65943,
      "deaths_rate_per_100k": 36.5943,
      "total_tested": 18848,
      "test_rate_per_10k": 11495.5,
      "test_rate_per_100k": 114955,
      "total_population": 16396,
      "latitude": 40.054400,
      "longitude": -88.855650
    },
    {
      "County": "Pike",
      "confirmed_cases": 1271,
      "confirmed_rate_per_10k": 814.169,
      "confirmed_rate_per_100k": 8141.69,
      "deaths": 33,
      "deaths_rate_per_10k": 21.1389,
      "deaths_rate_per_100k": 211.389,
      "total_tested": 10850,
      "test_rate_per_10k": 6950.23,
      "test_rate_per_100k": 69502.3,
      "total_population": 15611,
      "latitude": 39.566200,
      "longitude": -90.829400
    },
    {
      "County": "Pope",
      "confirmed_cases": 167,
      "confirmed_rate_per_10k": 396.486,
      "confirmed_rate_per_100k": 3964.86,
      "deaths": 1,
      "deaths_rate_per_10k": 2.37417,
      "deaths_rate_per_100k": 23.7417,
      "total_tested": 1601,
      "test_rate_per_10k": 3801.04,
      "test_rate_per_100k": 38010.4,
      "total_population": 4212,
      "latitude": 37.417100,
      "longitude": -88.595200
    },
    {
      "County": "Pulaski",
      "confirmed_cases": 527,
      "confirmed_rate_per_10k": 964.671,
      "confirmed_rate_per_100k": 9646.71,
      "deaths": 2,
      "deaths_rate_per_10k": 3.66099,
      "deaths_rate_per_100k": 36.6099,
      "total_tested": 3603,
      "test_rate_per_10k": 6595.28,
      "test_rate_per_100k": 65952.8,
      "total_population": 5463,
      "latitude": 37.251200,
      "longitude": -89.132500
    },
    {
      "County": "Putnam",
      "confirmed_cases": 300,
      "confirmed_rate_per_10k": 522.648,
      "confirmed_rate_per_100k": 5226.48,
      "deaths": 0,
      "deaths_rate_per_10k": 0,
      "deaths_rate_per_100k": 0,
      "total_tested": 3190,
      "test_rate_per_10k": 5557.49,
      "test_rate_per_100k": 55574.9,
      "total_population": 5740,
      "latitude": 41.238500,
      "longitude": -89.284700
    },
    {
      "County": "Randolph",
      "confirmed_cases": 3006,
      "confirmed_rate_per_10k": 936.274,
      "confirmed_rate_per_100k": 9362.74,
      "deaths": 32,
      "deaths_rate_per_10k": 9.96698,
      "deaths_rate_per_100k": 99.6698,
      "total_tested": 28897,
      "test_rate_per_10k": 9000.5,
      "test_rate_per_100k": 90005,
      "total_population": 32106,
      "latitude": 38.062900,
      "longitude": -89.775500
    },
    {
      "County": "Richland",
      "confirmed_cases": 1178,
      "confirmed_rate_per_10k": 747.32,
      "confirmed_rate_per_100k": 7473.2,
      "deaths": 24,
      "deaths_rate_per_10k": 15.2255,
      "deaths_rate_per_100k": 152.255,
      "total_tested": 14383,
      "test_rate_per_10k": 9124.53,
      "test_rate_per_100k": 91245.3,
      "total_population": 15763,
      "latitude": 38.721300,
      "longitude": -88.090100
    },
    {
      "County": "Rock Island",
      "confirmed_cases": 10391,
      "confirmed_rate_per_10k": 724.228,
      "confirmed_rate_per_100k": 7242.28,
      "deaths": 188,
      "deaths_rate_per_10k": 13.1031,
      "deaths_rate_per_100k": 131.031,
      "total_tested": 113851,
      "test_rate_per_10k": 7935.14,
      "test_rate_per_100k": 79351.4,
      "total_population": 143477,
      "latitude": 41.509500,
      "longitude": -90.578700
    },
    {
      "County": "Saline",
      "confirmed_cases": 1551,
      "confirmed_rate_per_10k": 648.791,
      "confirmed_rate_per_100k": 6487.91,
      "deaths": 27,
      "deaths_rate_per_10k": 11.2942,
      "deaths_rate_per_100k": 112.942,
      "total_tested": 17544,
      "test_rate_per_10k": 7338.74,
      "test_rate_per_100k": 73387.4,
      "total_population": 23906,
      "latitude": 37.715000,
      "longitude": -88.556500
    },
    {
      "County": "Sangamon",
      "confirmed_cases": 12569,
      "confirmed_rate_per_10k": 643.416,
      "confirmed_rate_per_100k": 6434.16,
      "deaths": 156,
      "deaths_rate_per_10k": 7.98575,
      "deaths_rate_per_100k": 79.8575,
      "total_tested": 223154,
      "test_rate_per_10k": 11423.4,
      "test_rate_per_100k": 114234,
      "total_population": 195348,
      "latitude": 39.733700,
      "longitude": -89.625200
    },
    {
      "County": "Schuyler",
      "confirmed_cases": 505,
      "confirmed_rate_per_10k": 731.142,
      "confirmed_rate_per_100k": 7311.42,
      "deaths": 3,
      "deaths_rate_per_10k": 4.34342,
      "deaths_rate_per_100k": 43.4342,
      "total_tested": 6448,
      "test_rate_per_10k": 9335.46,
      "test_rate_per_100k": 93354.6,
      "total_population": 6907,
      "latitude": 40.184500,
      "longitude": -90.639400
    },
    {
      "County": "Scott",
      "confirmed_cases": 292,
      "confirmed_rate_per_10k": 592.773,
      "confirmed_rate_per_100k": 5927.73,
      "deaths": 1,
      "deaths_rate_per_10k": 2.03004,
      "deaths_rate_per_100k": 20.3004,
      "total_tested": 4946,
      "test_rate_per_10k": 10040.6,
      "test_rate_per_100k": 100406,
      "total_population": 4926,
      "latitude": 39.609500,
      "longitude": -90.488000
    },
    {
      "County": "Shelby",
      "confirmed_cases": 1690,
      "confirmed_rate_per_10k": 777.333,
      "confirmed_rate_per_100k": 7773.33,
      "deaths": 30,
      "deaths_rate_per_10k": 13.7988,
      "deaths_rate_per_100k": 137.988,
      "total_tested": 14530,
      "test_rate_per_10k": 6683.23,
      "test_rate_per_100k": 66832.3,
      "total_population": 21741,
      "latitude": 39.398100,
      "longitude": -88.864700
    },
    {
      "County": "St. Clair",
      "confirmed_cases": 17501,
      "confirmed_rate_per_10k": 670.385,
      "confirmed_rate_per_100k": 6703.85,
      "deaths": 302,
      "deaths_rate_per_10k": 11.5683,
      "deaths_rate_per_100k": 115.683,
      "total_tested": 183650,
      "test_rate_per_10k": 7034.81,
      "test_rate_per_100k": 70348.1,
      "total_population": 261059,
      "latitude": 38.400800,
      "longitude": -89.925300
    },
    {
      "County": "Stark",
      "confirmed_cases": 413,
      "confirmed_rate_per_10k": 761.01,
      "confirmed_rate_per_100k": 7610.1,
      "deaths": 13,
      "deaths_rate_per_10k": 23.9543,
      "deaths_rate_per_100k": 239.543,
      "total_tested": 5434,
      "test_rate_per_10k": 10012.9,
      "test_rate_per_100k": 100129,
      "total_population": 5427,
      "latitude": 41.079600,
      "longitude": -89.813000
    },
    {
      "County": "Stephenson",
      "confirmed_cases": 3051,
      "confirmed_rate_per_10k": 681.742,
      "confirmed_rate_per_100k": 6817.42,
      "deaths": 40,
      "deaths_rate_per_10k": 8.93795,
      "deaths_rate_per_100k": 89.3795,
      "total_tested": 31429,
      "test_rate_per_10k": 7022.77,
      "test_rate_per_100k": 70227.7,
      "total_population": 44753,
      "latitude": 42.314500,
      "longitude": -89.625200
    },
    {
      "County": "Tazewell",
      "confirmed_cases": 9317,
      "confirmed_rate_per_10k": 704.084,
      "confirmed_rate_per_100k": 7040.84,
      "deaths": 144,
      "deaths_rate_per_10k": 10.8821,
      "deaths_rate_per_100k": 108.821,
      "total_tested": 128093,
      "test_rate_per_10k": 9679.96,
      "test_rate_per_100k": 96799.6,
      "total_population": 132328,
      "latitude": 40.552200,
      "longitude": -89.474200
    },
    {
      "County": "Union",
      "confirmed_cases": 1511,
      "confirmed_rate_per_10k": 897.215,
      "confirmed_rate_per_100k": 8972.15,
      "deaths": 28,
      "deaths_rate_per_10k": 16.6261,
      "deaths_rate_per_100k": 166.261,
      "total_tested": 17876,
      "test_rate_per_10k": 10614.6,
      "test_rate_per_100k": 106146,
      "total_population": 16841,
      "latitude": 37.508700,
      "longitude": -89.284700
    },
    {
      "County": "Vermilion",
      "confirmed_cases": 5677,
      "confirmed_rate_per_10k": 739.135,
      "confirmed_rate_per_100k": 7391.35,
      "deaths": 67,
      "deaths_rate_per_10k": 8.72328,
      "deaths_rate_per_100k": 87.2328,
      "total_tested": 68388,
      "test_rate_per_10k": 8903.99,
      "test_rate_per_100k": 89039.9,
      "total_population": 76806,
      "latitude": 40.122500,
      "longitude": -87.697600
    },
    {
      "County": "Wabash",
      "confirmed_cases": 948,
      "confirmed_rate_per_10k": 820.85,
      "confirmed_rate_per_100k": 8208.5,
      "deaths": 9,
      "deaths_rate_per_10k": 7.79288,
      "deaths_rate_per_100k": 77.9288,
      "total_tested": 7935,
      "test_rate_per_10k": 6870.72,
      "test_rate_per_100k": 68707.2,
      "total_population": 11549,
      "latitude": 38.422600,
      "longitude": -87.815700
    },
    {
      "County": "Warren",
      "confirmed_cases": 1400,
      "confirmed_rate_per_10k": 821.982,
      "confirmed_rate_per_100k": 8219.82,
      "deaths": 28,
      "deaths_rate_per_10k": 16.4396,
      "deaths_rate_per_100k": 164.396,
      "total_tested": 10093,
      "test_rate_per_10k": 5925.9,
      "test_rate_per_100k": 59259,
      "total_population": 17032,
      "latitude": 40.875900,
      "longitude": -90.677300
    },
    {
      "County": "Washington",
      "confirmed_cases": 1082,
      "confirmed_rate_per_10k": 773.133,
      "confirmed_rate_per_100k": 7731.33,
      "deaths": 11,
      "deaths_rate_per_10k": 7.85995,
      "deaths_rate_per_100k": 78.5995,
      "total_tested": 7419,
      "test_rate_per_10k": 5301.18,
      "test_rate_per_100k": 53011.8,
      "total_population": 13995,
      "latitude": 38.398900,
      "longitude": -89.322700
    },
    {
      "County": "Wayne",
      "confirmed_cases": 1239,
      "confirmed_rate_per_10k": 758.633,
      "confirmed_rate_per_100k": 7586.33,
      "deaths": 38,
      "deaths_rate_per_10k": 23.2672,
      "deaths_rate_per_100k": 232.672,
      "total_tested": 9774,
      "test_rate_per_10k": 5984.57,
      "test_rate_per_100k": 59845.7,
      "total_population": 16332,
      "latitude": 38.390000,
      "longitude": -88.401600
    },
    {
      "County": "White",
      "confirmed_cases": 992,
      "confirmed_rate_per_10k": 725.942,
      "confirmed_rate_per_100k": 7259.42,
      "deaths": 16,
      "deaths_rate_per_10k": 11.7087,
      "deaths_rate_per_100k": 117.087,
      "total_tested": 13781,
      "test_rate_per_10k": 10084.9,
      "test_rate_per_100k": 100849,
      "total_population": 13665,
      "latitude": 38.050100,
      "longitude": -88.246100
    },
    {
      "County": "Whiteside",
      "confirmed_cases": 4494,
      "confirmed_rate_per_10k": 807.896,
      "confirmed_rate_per_100k": 8078.96,
      "deaths": 119,
      "deaths_rate_per_10k": 21.3929,
      "deaths_rate_per_100k": 213.929,
      "total_tested": 38431,
      "test_rate_per_10k": 6908.82,
      "test_rate_per_100k": 69088.2,
      "total_population": 55626,
      "latitude": 41.760600,
      "longitude": -89.850500
    },
    {
      "County": "Will",
      "confirmed_cases": 49025,
      "confirmed_rate_per_10k": 708.137,
      "confirmed_rate_per_100k": 7081.37,
      "deaths": 668,
      "deaths_rate_per_10k": 9.64886,
      "deaths_rate_per_100k": 96.4886,
      "total_tested": 482167,
      "test_rate_per_10k": 6964.61,
      "test_rate_per_100k": 69646.1,
      "total_population": 692310,
      "latitude": 41.505500,
      "longitude": -88.090100
    },
    {
      "County": "Williamson",
      "confirmed_cases": 4743,
      "confirmed_rate_per_10k": 707.319,
      "confirmed_rate_per_100k": 7073.19,
      "deaths": 97,
      "deaths_rate_per_10k": 14.4655,
      "deaths_rate_per_100k": 144.655,
      "total_tested": 57248,
      "test_rate_per_10k": 8537.34,
      "test_rate_per_100k": 85373.4,
      "total_population": 67056,
      "latitude": 37.718300,
      "longitude": -88.864700
    },
    {
      "County": "Winnebago",
      "confirmed_cases": 22861,
      "confirmed_rate_per_10k": 804.735,
      "confirmed_rate_per_100k": 8047.35,
      "deaths": 308,
      "deaths_rate_per_10k": 10.842,
      "deaths_rate_per_100k": 108.42,
      "total_tested": 229926,
      "test_rate_per_10k": 8093.68,
      "test_rate_per_100k": 80936.8,
      "total_population": 284081,
      "latitude": 42.312100,
      "longitude": -89.170600
    },
    {
      "County": "Woodford",
      "confirmed_cases": 2520,
      "confirmed_rate_per_10k": 655.175,
      "confirmed_rate_per_100k": 6551.75,
      "deaths": 38,
      "deaths_rate_per_10k": 9.87962,
      "deaths_rate_per_100k": 98.7962,
      "total_tested": 35354,
      "test_rate_per_10k": 9191.69,
      "test_rate_per_100k": 91916.9,
      "total_population": 38463,
      "latitude": 40.712900,
      "longitude": -89.170600
    }
  ]
}
