{
  "LastUpdateDate": {
    "year": 2020,
    "month": 9,
    "day": 17
  },
  "county_rates": [
    {
      "County": "Adams",
      "confirmed_cases": 922,
      "confirmed_rate_per_10k": 140.354,
      "confirmed_rate_per_100k": 1403.54,
      "deaths": 10,
      "deaths_rate_per_10k": 1.52228,
      "deaths_rate_per_100k": 15.2228,
      "total_tested": 29111,
      "test_rate_per_10k": 4431.51,
      "test_rate_per_100k": 44315.1,
      "total_population": 65691,
      "latitude": 40.057800,
      "longitude": -91.135300
    },
    {
      "County": "Alexander",
      "confirmed_cases": 64,
      "confirmed_rate_per_10k": 105.611,
      "confirmed_rate_per_100k": 1056.11,
      "deaths": 1,
      "deaths_rate_per_10k": 1.65017,
      "deaths_rate_per_100k": 16.5017,
      "total_tested": 1707,
      "test_rate_per_10k": 2816.83,
      "test_rate_per_100k": 28168.3,
      "total_population": 6060,
      "latitude": 37.167000,
      "longitude": -89.360600
    },
    {
      "County": "Bond",
      "confirmed_cases": 266,
      "confirmed_rate_per_10k": 159.952,
      "confirmed_rate_per_100k": 1599.52,
      "deaths": 4,
      "deaths_rate_per_10k": 2.40529,
      "deaths_rate_per_100k": 24.0529,
      "total_tested": 5633,
      "test_rate_per_10k": 3387.25,
      "test_rate_per_100k": 33872.5,
      "total_population": 16630,
      "latitude": 38.903000,
      "longitude": -89.474200
    },
    {
      "County": "Boone",
      "confirmed_cases": 999,
      "confirmed_rate_per_10k": 186.461,
      "confirmed_rate_per_100k": 1864.61,
      "deaths": 23,
      "deaths_rate_per_10k": 4.29289,
      "deaths_rate_per_100k": 42.9289,
      "total_tested": 13591,
      "test_rate_per_10k": 2536.72,
      "test_rate_per_100k": 25367.2,
      "total_population": 53577,
      "latitude": 42.348500,
      "longitude": -88.826300
    },
    {
      "County": "Brown",
      "confirmed_cases": 35,
      "confirmed_rate_per_10k": 53.3862,
      "confirmed_rate_per_100k": 533.862,
      "deaths": 0,
      "deaths_rate_per_10k": 0,
      "deaths_rate_per_100k": 0,
      "total_tested": 1453,
      "test_rate_per_10k": 2216.29,
      "test_rate_per_100k": 22162.9,
      "total_population": 6556,
      "latitude": 39.938000,
      "longitude": -90.715300
    },
    {
      "County": "Bureau",
      "confirmed_cases": 542,
      "confirmed_rate_per_10k": 164.277,
      "confirmed_rate_per_100k": 1642.77,
      "deaths": 10,
      "deaths_rate_per_10k": 3.03095,
      "deaths_rate_per_100k": 30.3095,
      "total_tested": 7600,
      "test_rate_per_10k": 2303.52,
      "test_rate_per_100k": 23035.2,
      "total_population": 32993,
      "latitude": 41.359900,
      "longitude": -89.474200
    },
    {
      "County": "Calhoun",
      "confirmed_cases": 35,
      "confirmed_rate_per_10k": 72.8863,
      "confirmed_rate_per_100k": 728.863,
      "deaths": 0,
      "deaths_rate_per_10k": 0,
      "deaths_rate_per_100k": 0,
      "total_tested": 946,
      "test_rate_per_10k": 1970.01,
      "test_rate_per_100k": 19700.1,
      "total_population": 4802,
      "latitude": 39.173300,
      "longitude": -90.658300
    },
    {
      "County": "Carroll",
      "confirmed_cases": 200,
      "confirmed_rate_per_10k": 139.743,
      "confirmed_rate_per_100k": 1397.43,
      "deaths": 4,
      "deaths_rate_per_10k": 2.79486,
      "deaths_rate_per_100k": 27.9486,
      "total_tested": 3202,
      "test_rate_per_10k": 2237.28,
      "test_rate_per_100k": 22372.8,
      "total_population": 14312,
      "latitude": 42.038600,
      "longitude": -89.962700
    },
    {
      "County": "Cass",
      "confirmed_cases": 370,
      "confirmed_rate_per_10k": 301.794,
      "confirmed_rate_per_100k": 3017.94,
      "deaths": 11,
      "deaths_rate_per_10k": 8.97227,
      "deaths_rate_per_100k": 89.7227,
      "total_tested": 4490,
      "test_rate_per_10k": 3662.32,
      "test_rate_per_100k": 36623.2,
      "total_population": 12260,
      "latitude": 39.939900,
      "longitude": -90.262000
    },
    {
      "County": "Champaign",
      "confirmed_cases": 4218,
      "confirmed_rate_per_10k": 200.873,
      "confirmed_rate_per_100k": 2008.73,
      "deaths": 20,
      "deaths_rate_per_10k": 0.952458,
      "deaths_rate_per_100k": 9.52458,
      "total_tested": 406953,
      "test_rate_per_10k": 19380.3,
      "test_rate_per_100k": 193803,
      "total_population": 209983,
      "latitude": 40.213900,
      "longitude": -88.246100
    },
    {
      "County": "Chicago",
      "confirmed_cases": 76242,
      "confirmed_rate_per_10k": 281.752,
      "confirmed_rate_per_100k": 2817.52,
      "deaths": 2923,
      "deaths_rate_per_10k": 10.8019,
      "deaths_rate_per_100k": 108.019,
      "total_tested": 1049848,
      "test_rate_per_10k": 3879.71,
      "test_rate_per_100k": 38797.1,
      "total_population": 2705994,
      "latitude": 41.789896,
      "longitude": -87.627734
    },
    {
      "County": "Christian",
      "confirmed_cases": 374,
      "confirmed_rate_per_10k": 114.51,
      "confirmed_rate_per_100k": 1145.1,
      "deaths": 10,
      "deaths_rate_per_10k": 3.06176,
      "deaths_rate_per_100k": 30.6176,
      "total_tested": 10401,
      "test_rate_per_10k": 3184.53,
      "test_rate_per_100k": 31845.3,
      "total_population": 32661,
      "latitude": 39.567200,
      "longitude": -89.322700
    },
    {
      "County": "Clark",
      "confirmed_cases": 143,
      "confirmed_rate_per_10k": 91.6902,
      "confirmed_rate_per_100k": 916.902,
      "deaths": 2,
      "deaths_rate_per_10k": 1.28238,
      "deaths_rate_per_100k": 12.8238,
      "total_tested": 4175,
      "test_rate_per_10k": 2676.97,
      "test_rate_per_100k": 26769.7,
      "total_population": 15596,
      "latitude": 39.382400,
      "longitude": -87.776300
    },
    {
      "County": "Clay",
      "confirmed_cases": 135,
      "confirmed_rate_per_10k": 101.864,
      "confirmed_rate_per_100k": 1018.64,
      "deaths": 0,
      "deaths_rate_per_10k": 0,
      "deaths_rate_per_100k": 0,
      "total_tested": 3043,
      "test_rate_per_10k": 2296.08,
      "test_rate_per_100k": 22960.8,
      "total_population": 13253,
      "latitude": 38.727900,
      "longitude": -88.556500
    },
    {
      "County": "Clinton",
      "confirmed_cases": 1004,
      "confirmed_rate_per_10k": 266.745,
      "confirmed_rate_per_100k": 2667.45,
      "deaths": 20,
      "deaths_rate_per_10k": 5.31364,
      "deaths_rate_per_100k": 53.1364,
      "total_tested": 11202,
      "test_rate_per_10k": 2976.17,
      "test_rate_per_100k": 29761.7,
      "total_population": 37639,
      "latitude": 38.568400,
      "longitude": -89.625200
    },
    {
      "County": "Coles",
      "confirmed_cases": 1315,
      "confirmed_rate_per_10k": 258.426,
      "confirmed_rate_per_100k": 2584.26,
      "deaths": 28,
      "deaths_rate_per_10k": 5.5026,
      "deaths_rate_per_100k": 55.026,
      "total_tested": 22567,
      "test_rate_per_10k": 4434.9,
      "test_rate_per_100k": 44349,
      "total_population": 50885,
      "latitude": 39.556000,
      "longitude": -88.246100
    },
    {
      "County": "Cook",
      "confirmed_cases": 60751,
      "confirmed_rate_per_10k": 245.508,
      "confirmed_rate_per_100k": 2455.08,
      "deaths": 2224,
      "deaths_rate_per_10k": 8.98768,
      "deaths_rate_per_100k": 89.8768,
      "total_tested": 887546,
      "test_rate_per_10k": 3586.77,
      "test_rate_per_100k": 35867.7,
      "total_population": 2474499,
      "latitude": 42.050784,
      "longitude": -87.963759
    },
    {
      "County": "Crawford",
      "confirmed_cases": 305,
      "confirmed_rate_per_10k": 162.174,
      "confirmed_rate_per_100k": 1621.74,
      "deaths": 1,
      "deaths_rate_per_10k": 0.531717,
      "deaths_rate_per_100k": 5.31717,
      "total_tested": 3514,
      "test_rate_per_10k": 1868.45,
      "test_rate_per_100k": 18684.5,
      "total_population": 18807,
      "latitude": 41.833000,
      "longitude": -88.710900
    },
    {
      "County": "Cumberland",
      "confirmed_cases": 186,
      "confirmed_rate_per_10k": 172.095,
      "confirmed_rate_per_100k": 1720.95,
      "deaths": 4,
      "deaths_rate_per_10k": 3.70096,
      "deaths_rate_per_100k": 37.0096,
      "total_tested": 3672,
      "test_rate_per_10k": 3397.48,
      "test_rate_per_100k": 33974.8,
      "total_population": 10808,
      "latitude": 39.265400,
      "longitude": -88.207200
    },
    {
      "County": "De Witt",
      "confirmed_cases": 88,
      "confirmed_rate_per_10k": 55.8057,
      "confirmed_rate_per_100k": 558.057,
      "deaths": 1,
      "deaths_rate_per_10k": 0.634156,
      "deaths_rate_per_100k": 6.34156,
      "total_tested": 3320,
      "test_rate_per_10k": 2105.4,
      "test_rate_per_100k": 21054,
      "total_population": 15769,
      "latitude": 40.181000,
      "longitude": -88.903100
    },
    {
      "County": "DeKalb",
      "confirmed_cases": 1393,
      "confirmed_rate_per_10k": 133.758,
      "confirmed_rate_per_100k": 1337.58,
      "deaths": 37,
      "deaths_rate_per_10k": 3.55281,
      "deaths_rate_per_100k": 35.5281,
      "total_tested": 27264,
      "test_rate_per_10k": 2617.94,
      "test_rate_per_100k": 26179.4,
      "total_population": 104143,
      "latitude": 41.833000,
      "longitude": -88.710900
    },
    {
      "County": "Douglas",
      "confirmed_cases": 269,
      "confirmed_rate_per_10k": 138.097,
      "confirmed_rate_per_100k": 1380.97,
      "deaths": 5,
      "deaths_rate_per_10k": 2.56687,
      "deaths_rate_per_100k": 25.6687,
      "total_tested": 7459,
      "test_rate_per_10k": 3829.25,
      "test_rate_per_100k": 38292.5,
      "total_population": 19479,
      "latitude": 39.761800,
      "longitude": -88.207200
    },
    {
      "County": "DuPage",
      "confirmed_cases": 16374,
      "confirmed_rate_per_10k": 176.332,
      "confirmed_rate_per_100k": 1763.32,
      "deaths": 548,
      "deaths_rate_per_10k": 5.90143,
      "deaths_rate_per_100k": 59.0143,
      "total_tested": 295857,
      "test_rate_per_10k": 3186.09,
      "test_rate_per_100k": 31860.9,
      "total_population": 928589,
      "latitude": 41.824400,
      "longitude": -88.090100
    },
    {
      "County": "Edgar",
      "confirmed_cases": 108,
      "confirmed_rate_per_10k": 62.212,
      "confirmed_rate_per_100k": 622.12,
      "deaths": 3,
      "deaths_rate_per_10k": 1.72811,
      "deaths_rate_per_100k": 17.2811,
      "total_tested": 3058,
      "test_rate_per_10k": 1761.52,
      "test_rate_per_100k": 17615.2,
      "total_population": 17360,
      "latitude": 39.713100,
      "longitude": -87.776300
    },
    {
      "County": "Edwards",
      "confirmed_cases": 57,
      "confirmed_rate_per_10k": 89.174,
      "confirmed_rate_per_100k": 891.74,
      "deaths": 0,
      "deaths_rate_per_10k": 0,
      "deaths_rate_per_100k": 0,
      "total_tested": 763,
      "test_rate_per_10k": 1193.68,
      "test_rate_per_100k": 11936.8,
      "total_population": 6392,
      "latitude": 38.426800,
      "longitude": -88.051000
    },
    {
      "County": "Effingham",
      "confirmed_cases": 787,
      "confirmed_rate_per_10k": 230.063,
      "confirmed_rate_per_100k": 2300.63,
      "deaths": 1,
      "deaths_rate_per_10k": 0.292329,
      "deaths_rate_per_100k": 2.92329,
      "total_tested": 10751,
      "test_rate_per_10k": 3142.83,
      "test_rate_per_100k": 31428.3,
      "total_population": 34208,
      "latitude": 39.062200,
      "longitude": -88.556500
    },
    {
      "County": "Fayette",
      "confirmed_cases": 300,
      "confirmed_rate_per_10k": 140.082,
      "confirmed_rate_per_100k": 1400.82,
      "deaths": 3,
      "deaths_rate_per_10k": 1.40082,
      "deaths_rate_per_100k": 14.0082,
      "total_tested": 5397,
      "test_rate_per_10k": 2520.08,
      "test_rate_per_100k": 25200.8,
      "total_population": 21416,
      "latitude": 39.067000,
      "longitude": -89.017900
    },
    {
      "County": "Ford",
      "confirmed_cases": 87,
      "confirmed_rate_per_10k": 65.5911,
      "confirmed_rate_per_100k": 655.911,
      "deaths": 4,
      "deaths_rate_per_10k": 3.01568,
      "deaths_rate_per_100k": 30.1568,
      "total_tested": 4425,
      "test_rate_per_10k": 3336.1,
      "test_rate_per_100k": 33361,
      "total_population": 13264,
      "latitude": 40.498900,
      "longitude": -88.207200
    },
    {
      "County": "Franklin",
      "confirmed_cases": 462,
      "confirmed_rate_per_10k": 119.377,
      "confirmed_rate_per_100k": 1193.77,
      "deaths": 1,
      "deaths_rate_per_10k": 0.258391,
      "deaths_rate_per_100k": 2.58391,
      "total_tested": 10439,
      "test_rate_per_10k": 2697.35,
      "test_rate_per_100k": 26973.5,
      "total_population": 38701,
      "latitude": 38.015700,
      "longitude": -88.903100
    },
    {
      "County": "Fulton",
      "confirmed_cases": 131,
      "confirmed_rate_per_10k": 37.5961,
      "confirmed_rate_per_100k": 375.961,
      "deaths": 0,
      "deaths_rate_per_10k": 0,
      "deaths_rate_per_100k": 0,
      "total_tested": 9013,
      "test_rate_per_10k": 2586.67,
      "test_rate_per_100k": 25866.7,
      "total_population": 34844,
      "latitude": 40.553200,
      "longitude": -90.224500
    },
    {
      "County": "Gallatin",
      "confirmed_cases": 68,
      "confirmed_rate_per_10k": 134.44,
      "confirmed_rate_per_100k": 1344.4,
      "deaths": 2,
      "deaths_rate_per_10k": 3.95413,
      "deaths_rate_per_100k": 39.5413,
      "total_tested": 723,
      "test_rate_per_10k": 1429.42,
      "test_rate_per_100k": 14294.2,
      "total_population": 5058,
      "latitude": 37.710800,
      "longitude": -88.246100
    },
    {
      "County": "Greene",
      "confirmed_cases": 197,
      "confirmed_rate_per_10k": 151.027,
      "confirmed_rate_per_100k": 1510.27,
      "deaths": 3,
      "deaths_rate_per_10k": 2.29991,
      "deaths_rate_per_100k": 22.9991,
      "total_tested": 3313,
      "test_rate_per_10k": 2539.87,
      "test_rate_per_100k": 25398.7,
      "total_population": 13044,
      "latitude": 39.403000,
      "longitude": -90.374800
    },
    {
      "County": "Grundy",
      "confirmed_cases": 610,
      "confirmed_rate_per_10k": 119.674,
      "confirmed_rate_per_100k": 1196.74,
      "deaths": 5,
      "deaths_rate_per_10k": 0.980931,
      "deaths_rate_per_100k": 9.80931,
      "total_tested": 9873,
      "test_rate_per_10k": 1936.95,
      "test_rate_per_100k": 19369.5,
      "total_population": 50972,
      "latitude": 41.350100,
      "longitude": -88.401600
    },
    {
      "County": "Hamilton",
      "confirmed_cases": 58,
      "confirmed_rate_per_10k": 71.0523,
      "confirmed_rate_per_100k": 710.523,
      "deaths": 0,
      "deaths_rate_per_10k": 0,
      "deaths_rate_per_100k": 0,
      "total_tested": 1234,
      "test_rate_per_10k": 1511.7,
      "test_rate_per_100k": 15117,
      "total_population": 8163,
      "latitude": 38.054300,
      "longitude": -88.556500
    },
    {
      "County": "Hancock",
      "confirmed_cases": 182,
      "confirmed_rate_per_10k": 101.995,
      "confirmed_rate_per_100k": 1019.95,
      "deaths": 3,
      "deaths_rate_per_10k": 1.68124,
      "deaths_rate_per_100k": 16.8124,
      "total_tested": 5117,
      "test_rate_per_10k": 2867.63,
      "test_rate_per_100k": 28676.3,
      "total_population": 17844,
      "latitude": 40.384900,
      "longitude": -91.135300
    },
    {
      "County": "Hardin",
      "confirmed_cases": 31,
      "confirmed_rate_per_10k": 79.2839,
      "confirmed_rate_per_100k": 792.839,
      "deaths": 0,
      "deaths_rate_per_10k": 0,
      "deaths_rate_per_100k": 0,
      "total_tested": 806,
      "test_rate_per_10k": 2061.38,
      "test_rate_per_100k": 20613.8,
      "total_population": 3910,
      "latitude": 37.499500,
      "longitude": -88.362800
    },
    {
      "County": "Henderson",
      "confirmed_cases": 62,
      "confirmed_rate_per_10k": 92.4132,
      "confirmed_rate_per_100k": 924.132,
      "deaths": 0,
      "deaths_rate_per_10k": 0,
      "deaths_rate_per_100k": 0,
      "total_tested": 1145,
      "test_rate_per_10k": 1706.66,
      "test_rate_per_100k": 17066.6,
      "total_population": 6709,
      "latitude": 40.833600,
      "longitude": -90.943800
    },
    {
      "County": "Henry",
      "confirmed_cases": 599,
      "confirmed_rate_per_10k": 122.021,
      "confirmed_rate_per_100k": 1220.21,
      "deaths": 5,
      "deaths_rate_per_10k": 1.01854,
      "deaths_rate_per_100k": 10.1854,
      "total_tested": 14791,
      "test_rate_per_10k": 3013.04,
      "test_rate_per_100k": 30130.4,
      "total_population": 49090,
      "latitude": 41.361100,
      "longitude": -90.074700
    },
    {
      "County": "Iroquois",
      "confirmed_cases": 344,
      "confirmed_rate_per_10k": 124.62,
      "confirmed_rate_per_100k": 1246.2,
      "deaths": 19,
      "deaths_rate_per_10k": 6.88306,
      "deaths_rate_per_100k": 68.8306,
      "total_tested": 10332,
      "test_rate_per_10k": 3742.94,
      "test_rate_per_100k": 37429.4,
      "total_population": 27604,
      "latitude": 40.774000,
      "longitude": -87.697600
    },
    {
      "County": "Jackson",
      "confirmed_cases": 1186,
      "confirmed_rate_per_10k": 206.552,
      "confirmed_rate_per_100k": 2065.52,
      "deaths": 24,
      "deaths_rate_per_10k": 4.1798,
      "deaths_rate_per_100k": 41.798,
      "total_tested": 16859,
      "test_rate_per_10k": 2936.14,
      "test_rate_per_100k": 29361.4,
      "total_population": 57419,
      "latitude": 37.721800,
      "longitude": -89.322700
    },
    {
      "County": "Jasper",
      "confirmed_cases": 185,
      "confirmed_rate_per_10k": 192.488,
      "confirmed_rate_per_100k": 1924.88,
      "deaths": 9,
      "deaths_rate_per_10k": 9.36427,
      "deaths_rate_per_100k": 93.6427,
      "total_tested": 2479,
      "test_rate_per_10k": 2579.34,
      "test_rate_per_100k": 25793.4,
      "total_population": 9611,
      "latitude": 39.055500,
      "longitude": -88.090100
    },
    {
      "County": "Jefferson",
      "confirmed_cases": 539,
      "confirmed_rate_per_10k": 142.517,
      "confirmed_rate_per_100k": 1425.17,
      "deaths": 37,
      "deaths_rate_per_10k": 9.78318,
      "deaths_rate_per_100k": 97.8318,
      "total_tested": 8295,
      "test_rate_per_10k": 2193.28,
      "test_rate_per_100k": 21932.8,
      "total_population": 37820,
      "latitude": 38.226700,
      "longitude": -88.864700
    },
    {
      "County": "Jersey",
      "confirmed_cases": 362,
      "confirmed_rate_per_10k": 165.698,
      "confirmed_rate_per_100k": 1656.98,
      "deaths": 13,
      "deaths_rate_per_10k": 5.95047,
      "deaths_rate_per_100k": 59.5047,
      "total_tested": 5521,
      "test_rate_per_10k": 2527.12,
      "test_rate_per_100k": 25271.2,
      "total_population": 21847,
      "latitude": 39.070500,
      "longitude": -90.374800
    },
    {
      "County": "Jo Daviess",
      "confirmed_cases": 224,
      "confirmed_rate_per_10k": 104.839,
      "confirmed_rate_per_100k": 1048.39,
      "deaths": 2,
      "deaths_rate_per_10k": 0.936067,
      "deaths_rate_per_100k": 9.36067,
      "total_tested": 4881,
      "test_rate_per_10k": 2284.47,
      "test_rate_per_100k": 22844.7,
      "total_population": 21366,
      "latitude": 42.314900,
      "longitude": -90.224500
    },
    {
      "County": "Johnson",
      "confirmed_cases": 139,
      "confirmed_rate_per_10k": 111.593,
      "confirmed_rate_per_100k": 1115.93,
      "deaths": 0,
      "deaths_rate_per_10k": 0,
      "deaths_rate_per_100k": 0,
      "total_tested": 2442,
      "test_rate_per_10k": 1960.5,
      "test_rate_per_100k": 19605,
      "total_population": 12456,
      "latitude": 37.420400,
      "longitude": -88.903100
    },
    {
      "County": "Kane",
      "confirmed_cases": 12372,
      "confirmed_rate_per_10k": 231.592,
      "confirmed_rate_per_100k": 2315.92,
      "deaths": 325,
      "deaths_rate_per_10k": 6.08368,
      "deaths_rate_per_100k": 60.8368,
      "total_tested": 159046,
      "test_rate_per_10k": 2977.19,
      "test_rate_per_100k": 29771.9,
      "total_population": 534216,
      "latitude": 41.987900,
      "longitude": -88.401600
    },
    {
      "County": "Kankakee",
      "confirmed_cases": 2591,
      "confirmed_rate_per_10k": 235.494,
      "confirmed_rate_per_100k": 2354.94,
      "deaths": 76,
      "deaths_rate_per_10k": 6.90758,
      "deaths_rate_per_100k": 69.0758,
      "total_tested": 47102,
      "test_rate_per_10k": 4281.07,
      "test_rate_per_100k": 42810.7,
      "total_population": 110024,
      "latitude": 41.179100,
      "longitude": -87.776300
    },
    {
      "County": "Kendall",
      "confirmed_cases": 1850,
      "confirmed_rate_per_10k": 144.627,
      "confirmed_rate_per_100k": 1446.27,
      "deaths": 25,
      "deaths_rate_per_10k": 1.95442,
      "deaths_rate_per_100k": 19.5442,
      "total_tested": 30976,
      "test_rate_per_10k": 2421.61,
      "test_rate_per_100k": 24216.1,
      "total_population": 127915,
      "latitude": 41.550700,
      "longitude": -88.440400
    },
    {
      "County": "Knox",
      "confirmed_cases": 552,
      "confirmed_rate_per_10k": 110.153,
      "confirmed_rate_per_100k": 1101.53,
      "deaths": 3,
      "deaths_rate_per_10k": 0.598659,
      "deaths_rate_per_100k": 5.98659,
      "total_tested": 15412,
      "test_rate_per_10k": 3075.51,
      "test_rate_per_100k": 30755.1,
      "total_population": 50112,
      "latitude": 40.877600,
      "longitude": -90.224500
    },
    {
      "County": "Lake",
      "confirmed_cases": 16040,
      "confirmed_rate_per_10k": 228.871,
      "confirmed_rate_per_100k": 2288.71,
      "deaths": 483,
      "deaths_rate_per_10k": 6.89181,
      "deaths_rate_per_100k": 68.9181,
      "total_tested": 225991,
      "test_rate_per_10k": 3224.61,
      "test_rate_per_100k": 32246.1,
      "total_population": 700832,
      "latitude": 42.368900,
      "longitude": -87.827200
    },
    {
      "County": "LaSalle",
      "confirmed_cases": 1546,
      "confirmed_rate_per_10k": 141.278,
      "confirmed_rate_per_100k": 1412.78,
      "deaths": 54,
      "deaths_rate_per_10k": 4.93466,
      "deaths_rate_per_100k": 49.3466,
      "total_tested": 27427,
      "test_rate_per_10k": 2506.35,
      "test_rate_per_100k": 25063.5,
      "total_population": 109430,
      "latitude": 41.436400,
      "longitude": -88.941400
    },
    {
      "County": "Lawrence",
      "confirmed_cases": 239,
      "confirmed_rate_per_10k": 151.602,
      "confirmed_rate_per_100k": 1516.02,
      "deaths": 2,
      "deaths_rate_per_10k": 1.26863,
      "deaths_rate_per_100k": 12.6863,
      "total_tested": 4490,
      "test_rate_per_10k": 2848.08,
      "test_rate_per_100k": 28480.8,
      "total_population": 15765,
      "latitude": 38.715800,
      "longitude": -87.776300
    },
    {
      "County": "Lee",
      "confirmed_cases": 317,
      "confirmed_rate_per_10k": 92.6278,
      "confirmed_rate_per_100k": 926.278,
      "deaths": 1,
      "deaths_rate_per_10k": 0.292201,
      "deaths_rate_per_100k": 2.92201,
      "total_tested": 6675,
      "test_rate_per_10k": 1950.44,
      "test_rate_per_100k": 19504.4,
      "total_population": 34223,
      "latitude": 41.679000,
      "longitude": -89.322700
    },
    {
      "County": "Livingston",
      "confirmed_cases": 282,
      "confirmed_rate_per_10k": 78.8569,
      "confirmed_rate_per_100k": 788.569,
      "deaths": 5,
      "deaths_rate_per_10k": 1.39817,
      "deaths_rate_per_100k": 13.9817,
      "total_tested": 9997,
      "test_rate_per_10k": 2795.5,
      "test_rate_per_100k": 27955,
      "total_population": 35761,
      "latitude": 40.868900,
      "longitude": -88.556500
    },
    {
      "County": "Logan",
      "confirmed_cases": 411,
      "confirmed_rate_per_10k": 142.092,
      "confirmed_rate_per_100k": 1420.92,
      "deaths": 1,
      "deaths_rate_per_10k": 0.345722,
      "deaths_rate_per_100k": 3.45722,
      "total_tested": 13171,
      "test_rate_per_10k": 4553.5,
      "test_rate_per_100k": 45535,
      "total_population": 28925,
      "latitude": 40.061300,
      "longitude": -89.322700
    },
    {
      "County": "Macon",
      "confirmed_cases": 1305,
      "confirmed_rate_per_10k": 124.628,
      "confirmed_rate_per_100k": 1246.28,
      "deaths": 34,
      "deaths_rate_per_10k": 3.247,
      "deaths_rate_per_100k": 32.47,
      "total_tested": 33196,
      "test_rate_per_10k": 3170.22,
      "test_rate_per_100k": 31702.2,
      "total_population": 104712,
      "latitude": 39.894900,
      "longitude": -89.017900
    },
    {
      "County": "Macoupin",
      "confirmed_cases": 461,
      "confirmed_rate_per_10k": 101.737,
      "confirmed_rate_per_100k": 1017.37,
      "deaths": 6,
      "deaths_rate_per_10k": 1.32412,
      "deaths_rate_per_100k": 13.2412,
      "total_tested": 16713,
      "test_rate_per_10k": 3688.35,
      "test_rate_per_100k": 36883.5,
      "total_population": 45313,
      "latitude": 39.237500,
      "longitude": -89.925300
    },
    {
      "County": "Madison",
      "confirmed_cases": 5154,
      "confirmed_rate_per_10k": 194.887,
      "confirmed_rate_per_100k": 1948.87,
      "deaths": 130,
      "deaths_rate_per_10k": 4.91566,
      "deaths_rate_per_100k": 49.1566,
      "total_tested": 67926,
      "test_rate_per_10k": 2568.47,
      "test_rate_per_100k": 25684.7,
      "total_population": 264461,
      "latitude": 38.904100,
      "longitude": -89.925300
    },
    {
      "County": "Marion",
      "confirmed_cases": 464,
      "confirmed_rate_per_10k": 123.339,
      "confirmed_rate_per_100k": 1233.39,
      "deaths": 0,
      "deaths_rate_per_10k": 0,
      "deaths_rate_per_100k": 0,
      "total_tested": 10119,
      "test_rate_per_10k": 2689.79,
      "test_rate_per_100k": 26897.9,
      "total_population": 37620,
      "latitude": 38.731300,
      "longitude": -88.864700
    },
    {
      "County": "Marshall",
      "confirmed_cases": 84,
      "confirmed_rate_per_10k": 72.8282,
      "confirmed_rate_per_100k": 728.282,
      "deaths": 0,
      "deaths_rate_per_10k": 0,
      "deaths_rate_per_100k": 0,
      "total_tested": 3077,
      "test_rate_per_10k": 2667.76,
      "test_rate_per_100k": 26677.6,
      "total_population": 11534,
      "latitude": 40.997300,
      "longitude": -89.360600
    },
    {
      "County": "Mason",
      "confirmed_cases": 116,
      "confirmed_rate_per_10k": 85.5142,
      "confirmed_rate_per_100k": 855.142,
      "deaths": 1,
      "deaths_rate_per_10k": 0.737191,
      "deaths_rate_per_100k": 7.37191,
      "total_tested": 4141,
      "test_rate_per_10k": 3052.71,
      "test_rate_per_100k": 30527.1,
      "total_population": 13565,
      "latitude": 40.227100,
      "longitude": -89.925300
    },
    {
      "County": "Massac",
      "confirmed_cases": 87,
      "confirmed_rate_per_10k": 61.7898,
      "confirmed_rate_per_100k": 617.898,
      "deaths": 2,
      "deaths_rate_per_10k": 1.42045,
      "deaths_rate_per_100k": 14.2045,
      "total_tested": 2475,
      "test_rate_per_10k": 1757.81,
      "test_rate_per_100k": 17578.1,
      "total_population": 14080,
      "latitude": 37.247800,
      "longitude": -88.749400
    },
    {
      "County": "McDonough",
      "confirmed_cases": 431,
      "confirmed_rate_per_10k": 143.882,
      "confirmed_rate_per_100k": 1438.82,
      "deaths": 15,
      "deaths_rate_per_10k": 5.00751,
      "deaths_rate_per_100k": 50.0751,
      "total_tested": 7595,
      "test_rate_per_10k": 2535.47,
      "test_rate_per_100k": 25354.7,
      "total_population": 29955,
      "latitude": 40.388500,
      "longitude": -90.677300
    },
    {
      "County": "McHenry",
      "confirmed_cases": 4322,
      "confirmed_rate_per_10k": 140.065,
      "confirmed_rate_per_100k": 1400.65,
      "deaths": 117,
      "deaths_rate_per_10k": 3.79168,
      "deaths_rate_per_100k": 37.9168,
      "total_tested": 69099,
      "test_rate_per_10k": 2239.33,
      "test_rate_per_100k": 22393.3,
      "total_population": 308570,
      "latitude": 42.304000,
      "longitude": -88.401600
    },
    {
      "County": "McLean",
      "confirmed_cases": 3043,
      "confirmed_rate_per_10k": 176.071,
      "confirmed_rate_per_100k": 1760.71,
      "deaths": 19,
      "deaths_rate_per_10k": 1.09936,
      "deaths_rate_per_100k": 10.9936,
      "total_tested": 65866,
      "test_rate_per_10k": 3811.07,
      "test_rate_per_100k": 38110.7,
      "total_population": 172828,
      "latitude": 40.547800,
      "longitude": -88.864700
    },
    {
      "County": "Menard",
      "confirmed_cases": 111,
      "confirmed_rate_per_10k": 90.332,
      "confirmed_rate_per_100k": 903.32,
      "deaths": 0,
      "deaths_rate_per_10k": 0,
      "deaths_rate_per_100k": 0,
      "total_tested": 4234,
      "test_rate_per_10k": 3445.64,
      "test_rate_per_100k": 34456.4,
      "total_population": 12288,
      "latitude": 40.022100,
      "longitude": -89.813000
    },
    {
      "County": "Mercer",
      "confirmed_cases": 120,
      "confirmed_rate_per_10k": 76.9181,
      "confirmed_rate_per_100k": 769.181,
      "deaths": 5,
      "deaths_rate_per_10k": 3.20492,
      "deaths_rate_per_100k": 32.0492,
      "total_tested": 4227,
      "test_rate_per_10k": 2709.44,
      "test_rate_per_100k": 27094.4,
      "total_population": 15601,
      "latitude": 41.198500,
      "longitude": -90.677300
    },
    {
      "County": "Monroe",
      "confirmed_cases": 603,
      "confirmed_rate_per_10k": 175.623,
      "confirmed_rate_per_100k": 1756.23,
      "deaths": 15,
      "deaths_rate_per_10k": 4.36872,
      "deaths_rate_per_100k": 43.6872,
      "total_tested": 6642,
      "test_rate_per_10k": 1934.47,
      "test_rate_per_100k": 19344.7,
      "total_population": 34335,
      "latitude": 38.274300,
      "longitude": -90.187000
    },
    {
      "County": "Montgomery",
      "confirmed_cases": 300,
      "confirmed_rate_per_10k": 104.891,
      "confirmed_rate_per_100k": 1048.91,
      "deaths": 12,
      "deaths_rate_per_10k": 4.19566,
      "deaths_rate_per_100k": 41.9566,
      "total_tested": 12114,
      "test_rate_per_10k": 4235.52,
      "test_rate_per_100k": 42355.2,
      "total_population": 28601,
      "latitude": 39.236400,
      "longitude": -89.474200
    },
    {
      "County": "Morgan",
      "confirmed_cases": 604,
      "confirmed_rate_per_10k": 177.773,
      "confirmed_rate_per_100k": 1777.73,
      "deaths": 21,
      "deaths_rate_per_10k": 6.18083,
      "deaths_rate_per_100k": 61.8083,
      "total_tested": 12236,
      "test_rate_per_10k": 3601.37,
      "test_rate_per_100k": 36013.7,
      "total_population": 33976,
      "latitude": 39.734100,
      "longitude": -90.224500
    },
    {
      "County": "Moultrie",
      "confirmed_cases": 204,
      "confirmed_rate_per_10k": 138.615,
      "confirmed_rate_per_100k": 1386.15,
      "deaths": 3,
      "deaths_rate_per_10k": 2.03846,
      "deaths_rate_per_100k": 20.3846,
      "total_tested": 4306,
      "test_rate_per_10k": 2925.87,
      "test_rate_per_100k": 29258.7,
      "total_population": 14717,
      "latitude": 39.602100,
      "longitude": -88.595200
    },
    {
      "County": "Ogle",
      "confirmed_cases": 595,
      "confirmed_rate_per_10k": 116.843,
      "confirmed_rate_per_100k": 1168.43,
      "deaths": 6,
      "deaths_rate_per_10k": 1.17825,
      "deaths_rate_per_100k": 11.7825,
      "total_tested": 12970,
      "test_rate_per_10k": 2546.98,
      "test_rate_per_100k": 25469.8,
      "total_population": 50923,
      "latitude": 41.997000,
      "longitude": -89.322700
    },
    {
      "County": "Peoria",
      "confirmed_cases": 3081,
      "confirmed_rate_per_10k": 170.578,
      "confirmed_rate_per_100k": 1705.78,
      "deaths": 48,
      "deaths_rate_per_10k": 2.6575,
      "deaths_rate_per_100k": 26.575,
      "total_tested": 78689,
      "test_rate_per_10k": 4356.58,
      "test_rate_per_100k": 43565.8,
      "total_population": 180621,
      "latitude": 40.715600,
      "longitude": -89.775500
    },
    {
      "County": "Perry",
      "confirmed_cases": 326,
      "confirmed_rate_per_10k": 153.962,
      "confirmed_rate_per_100k": 1539.62,
      "deaths": 14,
      "deaths_rate_per_10k": 6.61188,
      "deaths_rate_per_100k": 66.1188,
      "total_tested": 5978,
      "test_rate_per_10k": 2823.27,
      "test_rate_per_100k": 28232.7,
      "total_population": 21174,
      "latitude": 38.061200,
      "longitude": -89.322700
    },
    {
      "County": "Piatt",
      "confirmed_cases": 126,
      "confirmed_rate_per_10k": 76.848,
      "confirmed_rate_per_100k": 768.48,
      "deaths": 0,
      "deaths_rate_per_10k": 0,
      "deaths_rate_per_100k": 0,
      "total_tested": 7173,
      "test_rate_per_10k": 4374.85,
      "test_rate_per_100k": 43748.5,
      "total_population": 16396,
      "latitude": 40.054400,
      "longitude": -88.855650
    },
    {
      "County": "Pike",
      "confirmed_cases": 104,
      "confirmed_rate_per_10k": 66.6197,
      "confirmed_rate_per_100k": 666.197,
      "deaths": 1,
      "deaths_rate_per_10k": 0.640574,
      "deaths_rate_per_100k": 6.40574,
      "total_tested": 2959,
      "test_rate_per_10k": 1895.46,
      "test_rate_per_100k": 18954.6,
      "total_population": 15611,
      "latitude": 39.566200,
      "longitude": -90.829400
    },
    {
      "County": "Pope",
      "confirmed_cases": 25,
      "confirmed_rate_per_10k": 59.3542,
      "confirmed_rate_per_100k": 593.542,
      "deaths": 1,
      "deaths_rate_per_10k": 2.37417,
      "deaths_rate_per_100k": 23.7417,
      "total_tested": 527,
      "test_rate_per_10k": 1251.19,
      "test_rate_per_100k": 12511.9,
      "total_population": 4212,
      "latitude": 37.417100,
      "longitude": -88.595200
    },
    {
      "County": "Pulaski",
      "confirmed_cases": 152,
      "confirmed_rate_per_10k": 278.235,
      "confirmed_rate_per_100k": 2782.35,
      "deaths": 1,
      "deaths_rate_per_10k": 1.8305,
      "deaths_rate_per_100k": 18.305,
      "total_tested": 1385,
      "test_rate_per_10k": 2535.24,
      "test_rate_per_100k": 25352.4,
      "total_population": 5463,
      "latitude": 37.251200,
      "longitude": -89.132500
    },
    {
      "County": "Putnam",
      "confirmed_cases": 38,
      "confirmed_rate_per_10k": 66.2021,
      "confirmed_rate_per_100k": 662.021,
      "deaths": 0,
      "deaths_rate_per_10k": 0,
      "deaths_rate_per_100k": 0,
      "total_tested": 1014,
      "test_rate_per_10k": 1766.55,
      "test_rate_per_100k": 17665.5,
      "total_population": 5740,
      "latitude": 41.238500,
      "longitude": -89.284700
    },
    {
      "County": "Randolph",
      "confirmed_cases": 893,
      "confirmed_rate_per_10k": 278.141,
      "confirmed_rate_per_100k": 2781.41,
      "deaths": 11,
      "deaths_rate_per_10k": 3.42615,
      "deaths_rate_per_100k": 34.2615,
      "total_tested": 10548,
      "test_rate_per_10k": 3285.37,
      "test_rate_per_100k": 32853.7,
      "total_population": 32106,
      "latitude": 38.062900,
      "longitude": -89.775500
    },
    {
      "County": "Richland",
      "confirmed_cases": 127,
      "confirmed_rate_per_10k": 80.5684,
      "confirmed_rate_per_100k": 805.684,
      "deaths": 4,
      "deaths_rate_per_10k": 2.53759,
      "deaths_rate_per_100k": 25.3759,
      "total_tested": 4743,
      "test_rate_per_10k": 3008.94,
      "test_rate_per_100k": 30089.4,
      "total_population": 15763,
      "latitude": 38.721300,
      "longitude": -88.090100
    },
    {
      "County": "Rock Island",
      "confirmed_cases": 2688,
      "confirmed_rate_per_10k": 187.347,
      "confirmed_rate_per_100k": 1873.47,
      "deaths": 70,
      "deaths_rate_per_10k": 4.87883,
      "deaths_rate_per_100k": 48.7883,
      "total_tested": 53812,
      "test_rate_per_10k": 3750.57,
      "test_rate_per_100k": 37505.7,
      "total_population": 143477,
      "latitude": 41.509500,
      "longitude": -90.578700
    },
    {
      "County": "Saline",
      "confirmed_cases": 226,
      "confirmed_rate_per_10k": 94.5369,
      "confirmed_rate_per_100k": 945.369,
      "deaths": 3,
      "deaths_rate_per_10k": 1.25492,
      "deaths_rate_per_100k": 12.5492,
      "total_tested": 5761,
      "test_rate_per_10k": 2409.86,
      "test_rate_per_100k": 24098.6,
      "total_population": 23906,
      "latitude": 37.715000,
      "longitude": -88.556500
    },
    {
      "County": "Sangamon",
      "confirmed_cases": 2166,
      "confirmed_rate_per_10k": 110.879,
      "confirmed_rate_per_100k": 1108.79,
      "deaths": 44,
      "deaths_rate_per_10k": 2.25239,
      "deaths_rate_per_100k": 22.5239,
      "total_tested": 92433,
      "test_rate_per_10k": 4731.71,
      "test_rate_per_100k": 47317.1,
      "total_population": 195348,
      "latitude": 39.733700,
      "longitude": -89.625200
    },
    {
      "County": "Schuyler",
      "confirmed_cases": 41,
      "confirmed_rate_per_10k": 59.3601,
      "confirmed_rate_per_100k": 593.601,
      "deaths": 0,
      "deaths_rate_per_10k": 0,
      "deaths_rate_per_100k": 0,
      "total_tested": 1708,
      "test_rate_per_10k": 2472.85,
      "test_rate_per_100k": 24728.5,
      "total_population": 6907,
      "latitude": 40.184500,
      "longitude": -90.639400
    },
    {
      "County": "Scott",
      "confirmed_cases": 66,
      "confirmed_rate_per_10k": 133.983,
      "confirmed_rate_per_100k": 1339.83,
      "deaths": 0,
      "deaths_rate_per_10k": 0,
      "deaths_rate_per_100k": 0,
      "total_tested": 1893,
      "test_rate_per_10k": 3842.87,
      "test_rate_per_100k": 38428.7,
      "total_population": 4926,
      "latitude": 39.609500,
      "longitude": -90.488000
    },
    {
      "County": "Shelby",
      "confirmed_cases": 338,
      "confirmed_rate_per_10k": 155.467,
      "confirmed_rate_per_100k": 1554.67,
      "deaths": 4,
      "deaths_rate_per_10k": 1.83984,
      "deaths_rate_per_100k": 18.3984,
      "total_tested": 6377,
      "test_rate_per_10k": 2933.17,
      "test_rate_per_100k": 29331.7,
      "total_population": 21741,
      "latitude": 39.398100,
      "longitude": -88.864700
    },
    {
      "County": "St. Clair",
      "confirmed_cases": 6144,
      "confirmed_rate_per_10k": 235.349,
      "confirmed_rate_per_100k": 2353.49,
      "deaths": 180,
      "deaths_rate_per_10k": 6.89499,
      "deaths_rate_per_100k": 68.9499,
      "total_tested": 72126,
      "test_rate_per_10k": 2762.82,
      "test_rate_per_100k": 27628.2,
      "total_population": 261059,
      "latitude": 38.400800,
      "longitude": -89.925300
    },
    {
      "County": "Stark",
      "confirmed_cases": 48,
      "confirmed_rate_per_10k": 88.4467,
      "confirmed_rate_per_100k": 884.467,
      "deaths": 2,
      "deaths_rate_per_10k": 3.68528,
      "deaths_rate_per_100k": 36.8528,
      "total_tested": 1757,
      "test_rate_per_10k": 3237.52,
      "test_rate_per_100k": 32375.2,
      "total_population": 5427,
      "latitude": 41.079600,
      "longitude": -89.813000
    },
    {
      "County": "Stephenson",
      "confirmed_cases": 449,
      "confirmed_rate_per_10k": 100.328,
      "confirmed_rate_per_100k": 1003.28,
      "deaths": 6,
      "deaths_rate_per_10k": 1.34069,
      "deaths_rate_per_100k": 13.4069,
      "total_tested": 10695,
      "test_rate_per_10k": 2389.78,
      "test_rate_per_100k": 23897.8,
      "total_population": 44753,
      "latitude": 42.314500,
      "longitude": -89.625200
    },
    {
      "County": "Tazewell",
      "confirmed_cases": 1485,
      "confirmed_rate_per_10k": 112.221,
      "confirmed_rate_per_100k": 1122.21,
      "deaths": 13,
      "deaths_rate_per_10k": 0.982407,
      "deaths_rate_per_100k": 9.82407,
      "total_tested": 52577,
      "test_rate_per_10k": 3973.23,
      "test_rate_per_100k": 39732.3,
      "total_population": 132328,
      "latitude": 40.552200,
      "longitude": -89.474200
    },
    {
      "County": "Union",
      "confirmed_cases": 486,
      "confirmed_rate_per_10k": 288.581,
      "confirmed_rate_per_100k": 2885.81,
      "deaths": 24,
      "deaths_rate_per_10k": 14.2509,
      "deaths_rate_per_100k": 142.509,
      "total_tested": 5793,
      "test_rate_per_10k": 3439.82,
      "test_rate_per_100k": 34398.2,
      "total_population": 16841,
      "latitude": 37.508700,
      "longitude": -89.284700
    },
    {
      "County": "Vermilion",
      "confirmed_cases": 534,
      "confirmed_rate_per_10k": 69.5258,
      "confirmed_rate_per_100k": 695.258,
      "deaths": 4,
      "deaths_rate_per_10k": 0.520793,
      "deaths_rate_per_100k": 5.20793,
      "total_tested": 23086,
      "test_rate_per_10k": 3005.75,
      "test_rate_per_100k": 30057.5,
      "total_population": 76806,
      "latitude": 40.122500,
      "longitude": -87.697600
    },
    {
      "County": "Wabash",
      "confirmed_cases": 138,
      "confirmed_rate_per_10k": 119.491,
      "confirmed_rate_per_100k": 1194.91,
      "deaths": 1,
      "deaths_rate_per_10k": 0.865876,
      "deaths_rate_per_100k": 8.65876,
      "total_tested": 2197,
      "test_rate_per_10k": 1902.33,
      "test_rate_per_100k": 19023.3,
      "total_population": 11549,
      "latitude": 38.422600,
      "longitude": -87.815700
    },
    {
      "County": "Warren",
      "confirmed_cases": 289,
      "confirmed_rate_per_10k": 169.681,
      "confirmed_rate_per_100k": 1696.81,
      "deaths": 1,
      "deaths_rate_per_10k": 0.58713,
      "deaths_rate_per_100k": 5.8713,
      "total_tested": 3609,
      "test_rate_per_10k": 2118.95,
      "test_rate_per_100k": 21189.5,
      "total_population": 17032,
      "latitude": 40.875900,
      "longitude": -90.677300
    },
    {
      "County": "Washington",
      "confirmed_cases": 172,
      "confirmed_rate_per_10k": 122.901,
      "confirmed_rate_per_100k": 1229.01,
      "deaths": 1,
      "deaths_rate_per_10k": 0.714541,
      "deaths_rate_per_100k": 7.14541,
      "total_tested": 2642,
      "test_rate_per_10k": 1887.82,
      "test_rate_per_100k": 18878.2,
      "total_population": 13995,
      "latitude": 38.398900,
      "longitude": -89.322700
    },
    {
      "County": "Wayne",
      "confirmed_cases": 230,
      "confirmed_rate_per_10k": 140.828,
      "confirmed_rate_per_100k": 1408.28,
      "deaths": 5,
      "deaths_rate_per_10k": 3.06147,
      "deaths_rate_per_100k": 30.6147,
      "total_tested": 3473,
      "test_rate_per_10k": 2126.5,
      "test_rate_per_100k": 21265,
      "total_population": 16332,
      "latitude": 38.390000,
      "longitude": -88.401600
    },
    {
      "County": "White",
      "confirmed_cases": 154,
      "confirmed_rate_per_10k": 112.697,
      "confirmed_rate_per_100k": 1126.97,
      "deaths": 0,
      "deaths_rate_per_10k": 0,
      "deaths_rate_per_100k": 0,
      "total_tested": 3988,
      "test_rate_per_10k": 2918.4,
      "test_rate_per_100k": 29184,
      "total_population": 13665,
      "latitude": 38.050100,
      "longitude": -88.246100
    },
    {
      "County": "Whiteside",
      "confirmed_cases": 662,
      "confirmed_rate_per_10k": 119.009,
      "confirmed_rate_per_100k": 1190.09,
      "deaths": 19,
      "deaths_rate_per_10k": 3.41567,
      "deaths_rate_per_100k": 34.1567,
      "total_tested": 12979,
      "test_rate_per_10k": 2333.26,
      "test_rate_per_100k": 23332.6,
      "total_population": 55626,
      "latitude": 41.760600,
      "longitude": -89.850500
    },
    {
      "County": "Will",
      "confirmed_cases": 13130,
      "confirmed_rate_per_10k": 189.655,
      "confirmed_rate_per_100k": 1896.55,
      "deaths": 369,
      "deaths_rate_per_10k": 5.32998,
      "deaths_rate_per_100k": 53.2998,
      "total_tested": 194225,
      "test_rate_per_10k": 2805.46,
      "test_rate_per_100k": 28054.6,
      "total_population": 692310,
      "latitude": 41.505500,
      "longitude": -88.090100
    },
    {
      "County": "Williamson",
      "confirmed_cases": 1253,
      "confirmed_rate_per_10k": 186.859,
      "confirmed_rate_per_100k": 1868.59,
      "deaths": 31,
      "deaths_rate_per_10k": 4.623,
      "deaths_rate_per_100k": 46.23,
      "total_tested": 23025,
      "test_rate_per_10k": 3433.7,
      "test_rate_per_100k": 34337,
      "total_population": 67056,
      "latitude": 37.718300,
      "longitude": -88.864700
    },
    {
      "County": "Winnebago",
      "confirmed_cases": 5044,
      "confirmed_rate_per_10k": 177.555,
      "confirmed_rate_per_100k": 1775.55,
      "deaths": 149,
      "deaths_rate_per_10k": 5.24498,
      "deaths_rate_per_100k": 52.4498,
      "total_tested": 81039,
      "test_rate_per_10k": 2852.67,
      "test_rate_per_100k": 28526.7,
      "total_population": 284081,
      "latitude": 42.312100,
      "longitude": -89.170600
    },
    {
      "County": "Woodford",
      "confirmed_cases": 380,
      "confirmed_rate_per_10k": 98.7962,
      "confirmed_rate_per_100k": 987.962,
      "deaths": 5,
      "deaths_rate_per_10k": 1.29995,
      "deaths_rate_per_100k": 12.9995,
      "total_tested": 11399,
      "test_rate_per_10k": 2963.63,
      "test_rate_per_100k": 29636.3,
      "total_population": 38463,
      "latitude": 40.712900,
      "longitude": -89.170600
    }
  ]
}
