{
	"lastUpdatedDate": {
		"year": 2021,
		"month": 1,
		"day": 24
	},
	"characteristics_by_county": [
		{
			"CountyName": "Adams",
			"tested": 107891,
			"confirmed_cases": 7537,
			"deaths": 101,
			"latitude": 40.0578,
			"longitude": -91.1353
		},
		{
			"CountyName": "Alexander",
			"tested": 4360,
			"confirmed_cases": 404,
			"deaths": 7,
			"latitude": 37.167,
			"longitude": -89.3606
		},
		{
			"CountyName": "Bond",
			"tested": 18759,
			"confirmed_cases": 1782,
			"deaths": 20,
			"latitude": 38.903,
			"longitude": -89.4742
		},
		{
			"CountyName": "Boone",
			"tested": 45465,
			"confirmed_cases": 5656,
			"deaths": 67,
			"latitude": 42.3485,
			"longitude": -88.8263
		},
		{
			"CountyName": "Brown",
			"tested": 14202,
			"confirmed_cases": 622,
			"deaths": 5,
			"latitude": 39.938,
			"longitude": -90.7153
		},
		{
			"CountyName": "Bureau",
			"tested": 30963,
			"confirmed_cases": 3056,
			"deaths": 72,
			"latitude": 41.3599,
			"longitude": -89.4742
		},
		{
			"CountyName": "Calhoun",
			"tested": 4421,
			"confirmed_cases": 450,
			"deaths": 1,
			"latitude": 39.1733,
			"longitude": -90.6583
		},
		{
			"CountyName": "Carroll",
			"tested": 15464,
			"confirmed_cases": 1468,
			"deaths": 32,
			"latitude": 42.0386,
			"longitude": -89.9627
		},
		{
			"CountyName": "Cass",
			"tested": 14830,
			"confirmed_cases": 1794,
			"deaths": 21,
			"latitude": 39.9399,
			"longitude": -90.262
		},
		{
			"CountyName": "Champaign",
			"tested": 1401281,
			"confirmed_cases": 15867,
			"deaths": 99,
			"latitude": 40.2139,
			"longitude": -88.2461
		},
		{
			"CountyName": "Chicago",
			"tested": 2910931,
			"confirmed_cases": 230403,
			"deaths": 4559,
			"latitude": 41.789896,
			"longitude": -87.627734
		},
		{
			"CountyName": "Christian",
			"tested": 34015,
			"confirmed_cases": 3056,
			"deaths": 61,
			"latitude": 39.5672,
			"longitude": -89.3227
		},
		{
			"CountyName": "Clark",
			"tested": 11676,
			"confirmed_cases": 1529,
			"deaths": 27,
			"latitude": 39.3824,
			"longitude": -87.7763
		},
		{
			"CountyName": "Clay",
			"tested": 11708,
			"confirmed_cases": 1340,
			"deaths": 35,
			"latitude": 38.7279,
			"longitude": -88.5565
		},
		{
			"CountyName": "Clinton",
			"tested": 44694,
			"confirmed_cases": 5174,
			"deaths": 79,
			"latitude": 38.5684,
			"longitude": -89.6252
		},
		{
			"CountyName": "Coles",
			"tested": 55281,
			"confirmed_cases": 4790,
			"deaths": 83,
			"latitude": 39.556,
			"longitude": -88.2461
		},
		{
			"CountyName": "Cook",
			"tested": 2645625,
			"confirmed_cases": 214524,
			"deaths": 4147,
			"latitude": 42.050784,
			"longitude": -87.963759
		},
		{
			"CountyName": "Crawford",
			"tested": 25511,
			"confirmed_cases": 1831,
			"deaths": 20,
			"latitude": 39.05,
			"longitude": -87.7763
		},
		{
			"CountyName": "Cumberland",
			"tested": 9036,
			"confirmed_cases": 1117,
			"deaths": 15,
			"latitude": 39.2654,
			"longitude": -88.2072
		},
		{
			"CountyName": "De Witt",
			"tested": 14931,
			"confirmed_cases": 1190,
			"deaths": 21,
			"latitude": 40.181,
			"longitude": -88.9031
		},
		{
			"CountyName": "DeKalb",
			"tested": 92514,
			"confirmed_cases": 7678,
			"deaths": 91,
			"latitude": 41.833,
			"longitude": -88.7109
		},
		{
			"CountyName": "Douglas",
			"tested": 22829,
			"confirmed_cases": 2045,
			"deaths": 28,
			"latitude": 39.7618,
			"longitude": -88.2072
		},
		{
			"CountyName": "DuPage",
			"tested": 900083,
			"confirmed_cases": 70890,
			"deaths": 1084,
			"latitude": 41.8244,
			"longitude": -88.0901
		},
		{
			"CountyName": "Edgar",
			"tested": 11174,
			"confirmed_cases": 1492,
			"deaths": 32,
			"latitude": 39.7131,
			"longitude": -87.7763
		},
		{
			"CountyName": "Edwards",
			"tested": 3150,
			"confirmed_cases": 478,
			"deaths": 8,
			"latitude": 38.4268,
			"longitude": -88.051
		},
		{
			"CountyName": "Effingham",
			"tested": 32750,
			"confirmed_cases": 4373,
			"deaths": 61,
			"latitude": 39.0622,
			"longitude": -88.5565
		},
		{
			"CountyName": "Fayette",
			"tested": 21837,
			"confirmed_cases": 2967,
			"deaths": 50,
			"latitude": 39.067,
			"longitude": -89.0179
		},
		{
			"CountyName": "Ford",
			"tested": 20806,
			"confirmed_cases": 1406,
			"deaths": 43,
			"latitude": 40.4989,
			"longitude": -88.2072
		},
		{
			"CountyName": "Franklin",
			"tested": 37269,
			"confirmed_cases": 3937,
			"deaths": 60,
			"latitude": 38.0157,
			"longitude": -88.9031
		},
		{
			"CountyName": "Fulton",
			"tested": 55274,
			"confirmed_cases": 2625,
			"deaths": 41,
			"latitude": 40.5532,
			"longitude": -90.2245
		},
		{
			"CountyName": "Gallatin",
			"tested": 3096,
			"confirmed_cases": 397,
			"deaths": 3,
			"latitude": 37.7108,
			"longitude": -88.2461
		},
		{
			"CountyName": "Greene",
			"tested": 10838,
			"confirmed_cases": 1282,
			"deaths": 30,
			"latitude": 39.403,
			"longitude": -90.3748
		},
		{
			"CountyName": "Grundy",
			"tested": 37367,
			"confirmed_cases": 4531,
			"deaths": 50,
			"latitude": 41.3501,
			"longitude": -88.4016
		},
		{
			"CountyName": "Hamilton",
			"tested": 5313,
			"confirmed_cases": 731,
			"deaths": 14,
			"latitude": 38.0543,
			"longitude": -88.5565
		},
		{
			"CountyName": "Hancock",
			"tested": 14236,
			"confirmed_cases": 1550,
			"deaths": 25,
			"latitude": 40.3849,
			"longitude": -91.1353
		},
		{
			"CountyName": "Hardin",
			"tested": 3898,
			"confirmed_cases": 312,
			"deaths": 8,
			"latitude": 37.4995,
			"longitude": -88.3628
		},
		{
			"CountyName": "Henderson",
			"tested": 5231,
			"confirmed_cases": 466,
			"deaths": 7,
			"latitude": 40.8336,
			"longitude": -90.9438
		},
		{
			"CountyName": "Henry",
			"tested": 50410,
			"confirmed_cases": 4102,
			"deaths": 50,
			"latitude": 41.3611,
			"longitude": -90.0747
		},
		{
			"CountyName": "Illinois",
			"tested": 15409832,
			"confirmed_cases": 1101819,
			"deaths": 18750,
			"latitude": 39.839888,
			"longitude": -89.510168
		},
		{
			"CountyName": "Iroquois",
			"tested": 35016,
			"confirmed_cases": 2624,
			"deaths": 56,
			"latitude": 40.774,
			"longitude": -87.6976
		},
		{
			"CountyName": "Jackson",
			"tested": 55145,
			"confirmed_cases": 4302,
			"deaths": 59,
			"latitude": 37.7218,
			"longitude": -89.3227
		},
		{
			"CountyName": "Jasper",
			"tested": 8820,
			"confirmed_cases": 1061,
			"deaths": 14,
			"latitude": 39.0555,
			"longitude": -88.0901
		},
		{
			"CountyName": "Jefferson",
			"tested": 33093,
			"confirmed_cases": 3557,
			"deaths": 104,
			"latitude": 38.2267,
			"longitude": -88.8647
		},
		{
			"CountyName": "Jersey",
			"tested": 22736,
			"confirmed_cases": 2301,
			"deaths": 43,
			"latitude": 39.0705,
			"longitude": -90.3748
		},
		{
			"CountyName": "Jo Daviess",
			"tested": 16617,
			"confirmed_cases": 1523,
			"deaths": 22,
			"latitude": 42.3149,
			"longitude": -90.2245
		},
		{
			"CountyName": "Johnson",
			"tested": 20860,
			"confirmed_cases": 1256,
			"deaths": 9,
			"latitude": 37.4204,
			"longitude": -88.9031
		},
		{
			"CountyName": "Kane",
			"tested": 468755,
			"confirmed_cases": 47171,
			"deaths": 656,
			"latitude": 41.9879,
			"longitude": -88.4016
		},
		{
			"CountyName": "Kankakee",
			"tested": 159249,
			"confirmed_cases": 11720,
			"deaths": 179,
			"latitude": 41.1791,
			"longitude": -87.7763
		},
		{
			"CountyName": "Kendall",
			"tested": 93574,
			"confirmed_cases": 10016,
			"deaths": 72,
			"latitude": 41.5507,
			"longitude": -88.4404
		},
		{
			"CountyName": "Knox",
			"tested": 63266,
			"confirmed_cases": 4706,
			"deaths": 117,
			"latitude": 40.8776,
			"longitude": -90.2245
		},
		{
			"CountyName": "Lake",
			"tested": 675676,
			"confirmed_cases": 54700,
			"deaths": 850,
			"latitude": 42.3689,
			"longitude": -87.8272
		},
		{
			"CountyName": "LaSalle",
			"tested": 114716,
			"confirmed_cases": 9791,
			"deaths": 197,
			"latitude": 41.4364,
			"longitude": -88.9414
		},
		{
			"CountyName": "Lawrence",
			"tested": 23557,
			"confirmed_cases": 2207,
			"deaths": 21,
			"latitude": 38.7158,
			"longitude": -87.7763
		},
		{
			"CountyName": "Lee",
			"tested": 43720,
			"confirmed_cases": 3142,
			"deaths": 37,
			"latitude": 41.679,
			"longitude": -89.3227
		},
		{
			"CountyName": "Livingston",
			"tested": 60078,
			"confirmed_cases": 3792,
			"deaths": 60,
			"latitude": 40.8689,
			"longitude": -88.5565
		},
		{
			"CountyName": "Logan",
			"tested": 55267,
			"confirmed_cases": 3169,
			"deaths": 47,
			"latitude": 40.0613,
			"longitude": -89.3227
		},
		{
			"CountyName": "Macon",
			"tested": 116949,
			"confirmed_cases": 8982,
			"deaths": 172,
			"latitude": 39.8949,
			"longitude": -89.0179
		},
		{
			"CountyName": "Macoupin",
			"tested": 52224,
			"confirmed_cases": 4009,
			"deaths": 70,
			"latitude": 39.2375,
			"longitude": -89.9253
		},
		{
			"CountyName": "Madison",
			"tested": 226743,
			"confirmed_cases": 25299,
			"deaths": 412,
			"latitude": 38.9041,
			"longitude": -89.9253
		},
		{
			"CountyName": "Marion",
			"tested": 50951,
			"confirmed_cases": 4081,
			"deaths": 107,
			"latitude": 38.7313,
			"longitude": -88.8647
		},
		{
			"CountyName": "Marshall",
			"tested": 13742,
			"confirmed_cases": 705,
			"deaths": 13,
			"latitude": 40.9973,
			"longitude": -89.3606
		},
		{
			"CountyName": "Mason",
			"tested": 15594,
			"confirmed_cases": 1195,
			"deaths": 40,
			"latitude": 40.2271,
			"longitude": -89.9253
		},
		{
			"CountyName": "Massac",
			"tested": 8469,
			"confirmed_cases": 1072,
			"deaths": 30,
			"latitude": 37.2478,
			"longitude": -88.7494
		},
		{
			"CountyName": "McDonough",
			"tested": 32444,
			"confirmed_cases": 2193,
			"deaths": 39,
			"latitude": 40.3885,
			"longitude": -90.6773
		},
		{
			"CountyName": "McHenry",
			"tested": 227600,
			"confirmed_cases": 22214,
			"deaths": 233,
			"latitude": 42.304,
			"longitude": -88.4016
		},
		{
			"CountyName": "McLean",
			"tested": 216570,
			"confirmed_cases": 13564,
			"deaths": 137,
			"latitude": 40.5478,
			"longitude": -88.8647
		},
		{
			"CountyName": "Menard",
			"tested": 13815,
			"confirmed_cases": 916,
			"deaths": 6,
			"latitude": 40.0221,
			"longitude": -89.813
		},
		{
			"CountyName": "Mercer",
			"tested": 13357,
			"confirmed_cases": 1187,
			"deaths": 30,
			"latitude": 41.1985,
			"longitude": -90.6773
		},
		{
			"CountyName": "Monroe",
			"tested": 30562,
			"confirmed_cases": 3673,
			"deaths": 71,
			"latitude": 38.2743,
			"longitude": -90.187
		},
		{
			"CountyName": "Montgomery",
			"tested": 45106,
			"confirmed_cases": 3159,
			"deaths": 50,
			"latitude": 39.2364,
			"longitude": -89.4742
		},
		{
			"CountyName": "Morgan",
			"tested": 40809,
			"confirmed_cases": 3321,
			"deaths": 74,
			"latitude": 39.7341,
			"longitude": -90.2245
		},
		{
			"CountyName": "Moultrie",
			"tested": 17356,
			"confirmed_cases": 1415,
			"deaths": 20,
			"latitude": 39.6021,
			"longitude": -88.5952
		},
		{
			"CountyName": "Ogle",
			"tested": 43832,
			"confirmed_cases": 4700,
			"deaths": 65,
			"latitude": 41.997,
			"longitude": -89.3227
		},
		{
			"CountyName": "Peoria",
			"tested": 221312,
			"confirmed_cases": 15466,
			"deaths": 236,
			"latitude": 40.7156,
			"longitude": -89.7755
		},
		{
			"CountyName": "Perry",
			"tested": 26606,
			"confirmed_cases": 2792,
			"deaths": 53,
			"latitude": 38.0612,
			"longitude": -89.3227
		},
		{
			"CountyName": "Piatt",
			"tested": 22881,
			"confirmed_cases": 1195,
			"deaths": 12,
			"latitude": 40.02861312,
			"longitude": -88.57328
		},
		{
			"CountyName": "Pike",
			"tested": 13574,
			"confirmed_cases": 1600,
			"deaths": 45,
			"latitude": 39.5662,
			"longitude": -90.8294
		},
		{
			"CountyName": "Pope",
			"tested": 2135,
			"confirmed_cases": 257,
			"deaths": 3,
			"latitude": 37.4171,
			"longitude": -88.5952
		},
		{
			"CountyName": "Pulaski",
			"tested": 4509,
			"confirmed_cases": 625,
			"deaths": 3,
			"latitude": 37.2512,
			"longitude": -89.1325
		},
		{
			"CountyName": "Putnam",
			"tested": 4138,
			"confirmed_cases": 357,
			"deaths": 1,
			"latitude": 41.2385,
			"longitude": -89.2847
		},
		{
			"CountyName": "Randolph",
			"tested": 38062,
			"confirmed_cases": 3802,
			"deaths": 68,
			"latitude": 38.0629,
			"longitude": -89.7755
		},
		{
			"CountyName": "Richland",
			"tested": 18726,
			"confirmed_cases": 1571,
			"deaths": 37,
			"latitude": 38.7213,
			"longitude": -88.0901
		},
		{
			"CountyName": "Rock Island",
			"tested": 139252,
			"confirmed_cases": 12195,
			"deaths": 266,
			"latitude": 41.5095,
			"longitude": -90.5787
		},
		{
			"CountyName": "Saline",
			"tested": 23278,
			"confirmed_cases": 2087,
			"deaths": 39,
			"latitude": 37.715,
			"longitude": -88.5565
		},
		{
			"CountyName": "Sangamon",
			"tested": 264937,
			"confirmed_cases": 14918,
			"deaths": 205,
			"latitude": 39.7337,
			"longitude": -89.6252
		},
		{
			"CountyName": "Schuyler",
			"tested": 8723,
			"confirmed_cases": 646,
			"deaths": 5,
			"latitude": 40.1845,
			"longitude": -90.6394
		},
		{
			"CountyName": "Scott",
			"tested": 6244,
			"confirmed_cases": 408,
			"deaths": 1,
			"latitude": 39.6095,
			"longitude": -90.488
		},
		{
			"CountyName": "Shelby",
			"tested": 18297,
			"confirmed_cases": 2022,
			"deaths": 32,
			"latitude": 39.3981,
			"longitude": -88.8647
		},
		{
			"CountyName": "St. Clair",
			"tested": 243922,
			"confirmed_cases": 22976,
			"deaths": 409,
			"latitude": 38.4008,
			"longitude": -89.9253
		},
		{
			"CountyName": "Stark",
			"tested": 6633,
			"confirmed_cases": 499,
			"deaths": 20,
			"latitude": 41.0796,
			"longitude": -89.813
		},
		{
			"CountyName": "Stephenson",
			"tested": 40115,
			"confirmed_cases": 3639,
			"deaths": 58,
			"latitude": 42.3145,
			"longitude": -89.6252
		},
		{
			"CountyName": "Tazewell",
			"tested": 156993,
			"confirmed_cases": 12296,
			"deaths": 218,
			"latitude": 40.5522,
			"longitude": -89.4742
		},
		{
			"CountyName": "Union",
			"tested": 24286,
			"confirmed_cases": 2036,
			"deaths": 30,
			"latitude": 37.5087,
			"longitude": -89.2847
		},
		{
			"CountyName": "Vermilion",
			"tested": 91488,
			"confirmed_cases": 7784,
			"deaths": 100,
			"latitude": 40.1225,
			"longitude": -87.6976
		},
		{
			"CountyName": "Wabash",
			"tested": 10527,
			"confirmed_cases": 1218,
			"deaths": 12,
			"latitude": 38.4226,
			"longitude": -87.8157
		},
		{
			"CountyName": "Warren",
			"tested": 12271,
			"confirmed_cases": 1603,
			"deaths": 41,
			"latitude": 40.8759,
			"longitude": -90.6773
		},
		{
			"CountyName": "Washington",
			"tested": 9721,
			"confirmed_cases": 1493,
			"deaths": 20,
			"latitude": 38.3989,
			"longitude": -89.3227
		},
		{
			"CountyName": "Wayne",
			"tested": 12248,
			"confirmed_cases": 1547,
			"deaths": 42,
			"latitude": 38.39,
			"longitude": -88.4016
		},
		{
			"CountyName": "White",
			"tested": 17950,
			"confirmed_cases": 1402,
			"deaths": 23,
			"latitude": 38.0501,
			"longitude": -88.2461
		},
		{
			"CountyName": "Whiteside",
			"tested": 48406,
			"confirmed_cases": 5438,
			"deaths": 135,
			"latitude": 41.7606,
			"longitude": -89.8505
		},
		{
			"CountyName": "Will",
			"tested": 604540,
			"confirmed_cases": 59768,
			"deaths": 817,
			"latitude": 41.5055,
			"longitude": -88.0901
		},
		{
			"CountyName": "Williamson",
			"tested": 73914,
			"confirmed_cases": 6358,
			"deaths": 108,
			"latitude": 37.7183,
			"longitude": -88.8647
		},
		{
			"CountyName": "Winnebago",
			"tested": 279590,
			"confirmed_cases": 26766,
			"deaths": 385,
			"latitude": 42.3121,
			"longitude": -89.1706
		},
		{
			"CountyName": "Woodford",
			"tested": 46996,
			"confirmed_cases": 3344,
			"deaths": 57,
			"latitude": 40.7129,
			"longitude": -89.1706
		}
	]
}