{
  "LastUpdateDate": {
    "year": 2020,
    "month": 8,
    "day": 7
  },
  "county_rates": [
    {
      "County": "Adams",
      "confirmed_cases": 506,
      "confirmed_rate_per_10k": 77.9301,
      "confirmed_rate_per_100k": 779.301,
      "deaths": 5,
      "deaths_rate_per_10k": 0.77006,
      "deaths_rate_per_100k": 7.7006,
      "total_tested": 19040,
      "test_rate_per_10k": 2932.39,
      "test_rate_per_100k": 29323.9,
      "total_population": 64930,
      "latitude": 40.057800,
      "longitude": -91.135300
    },
    {
      "County": "Alexander",
      "confirmed_cases": 36,
      "confirmed_rate_per_10k": 62.6305,
      "confirmed_rate_per_100k": 626.305,
      "deaths": 0,
      "deaths_rate_per_10k": 0,
      "deaths_rate_per_100k": 0,
      "total_tested": 1181,
      "test_rate_per_10k": 2054.63,
      "test_rate_per_100k": 20546.3,
      "total_population": 5748,
      "latitude": 37.167000,
      "longitude": -89.360600
    },
    {
      "County": "Bond",
      "confirmed_cases": 59,
      "confirmed_rate_per_10k": 32.8581,
      "confirmed_rate_per_100k": 328.581,
      "deaths": 3,
      "deaths_rate_per_10k": 1.67075,
      "deaths_rate_per_100k": 16.7075,
      "total_tested": 3029,
      "test_rate_per_10k": 1686.9,
      "test_rate_per_100k": 16869,
      "total_population": 17956,
      "latitude": 38.903000,
      "longitude": -89.474200
    },
    {
      "County": "Boone",
      "confirmed_cases": 758,
      "confirmed_rate_per_10k": 147.753,
      "confirmed_rate_per_100k": 1477.53,
      "deaths": 23,
      "deaths_rate_per_10k": 4.48326,
      "deaths_rate_per_100k": 44.8326,
      "total_tested": 9067,
      "test_rate_per_10k": 1767.38,
      "test_rate_per_100k": 17673.8,
      "total_population": 51302,
      "latitude": 42.348500,
      "longitude": -88.826300
    },
    {
      "County": "Brown",
      "confirmed_cases": 13,
      "confirmed_rate_per_10k": 20.3475,
      "confirmed_rate_per_100k": 203.475,
      "deaths": 0,
      "deaths_rate_per_10k": 0,
      "deaths_rate_per_100k": 0,
      "total_tested": 982,
      "test_rate_per_10k": 1537.02,
      "test_rate_per_100k": 15370.2,
      "total_population": 6389,
      "latitude": 39.938000,
      "longitude": -90.715300
    },
    {
      "County": "Bureau",
      "confirmed_cases": 179,
      "confirmed_rate_per_10k": 55.4351,
      "confirmed_rate_per_100k": 554.351,
      "deaths": 2,
      "deaths_rate_per_10k": 0.619387,
      "deaths_rate_per_100k": 6.19387,
      "total_tested": 4318,
      "test_rate_per_10k": 1337.26,
      "test_rate_per_100k": 13372.6,
      "total_population": 32290,
      "latitude": 41.359900,
      "longitude": -89.474200
    },
    {
      "County": "Calhoun",
      "confirmed_cases": 9,
      "confirmed_rate_per_10k": 19.9468,
      "confirmed_rate_per_100k": 199.468,
      "deaths": 0,
      "deaths_rate_per_10k": 0,
      "deaths_rate_per_100k": 0,
      "total_tested": 456,
      "test_rate_per_10k": 1010.64,
      "test_rate_per_100k": 10106.4,
      "total_population": 4512,
      "latitude": 39.173300,
      "longitude": -90.658300
    },
    {
      "County": "Carroll",
      "confirmed_cases": 50,
      "confirmed_rate_per_10k": 34.3501,
      "confirmed_rate_per_100k": 343.501,
      "deaths": 4,
      "deaths_rate_per_10k": 2.74801,
      "deaths_rate_per_100k": 27.4801,
      "total_tested": 1554,
      "test_rate_per_10k": 1067.6,
      "test_rate_per_100k": 10676,
      "total_population": 14556,
      "latitude": 42.038600,
      "longitude": -89.962700
    },
    {
      "County": "Cass",
      "confirmed_cases": 223,
      "confirmed_rate_per_10k": 177.604,
      "confirmed_rate_per_100k": 1776.04,
      "deaths": 11,
      "deaths_rate_per_10k": 8.76075,
      "deaths_rate_per_100k": 87.6075,
      "total_tested": 3127,
      "test_rate_per_10k": 2490.44,
      "test_rate_per_100k": 24904.4,
      "total_population": 12556,
      "latitude": 39.939900,
      "longitude": -90.262000
    },
    {
      "County": "Champaign",
      "confirmed_cases": 1625,
      "confirmed_rate_per_10k": 77.065,
      "confirmed_rate_per_100k": 770.65,
      "deaths": 19,
      "deaths_rate_per_10k": 0.901068,
      "deaths_rate_per_100k": 9.01068,
      "total_tested": 79677,
      "test_rate_per_10k": 3778.65,
      "test_rate_per_100k": 37786.5,
      "total_population": 210861,
      "latitude": 40.213900,
      "longitude": -88.246100
    },
    {
      "County": "Chicago",
      "confirmed_cases": 63124,
      "confirmed_rate_per_10k": 233.275,
      "confirmed_rate_per_100k": 2332.75,
      "deaths": 2807,
      "deaths_rate_per_10k": 10.3733,
      "deaths_rate_per_100k": 103.733,
      "total_tested": 715108,
      "test_rate_per_10k": 2642.68,
      "test_rate_per_100k": 26426.8,
      "total_population": 2.70599e+006,
      "latitude": 41.789896,
      "longitude": -87.627734
    },
    {
      "County": "Christian",
      "confirmed_cases": 134,
      "confirmed_rate_per_10k": 42.606,
      "confirmed_rate_per_100k": 426.06,
      "deaths": 4,
      "deaths_rate_per_10k": 1.27182,
      "deaths_rate_per_100k": 12.7182,
      "total_tested": 6318,
      "test_rate_per_10k": 2008.84,
      "test_rate_per_100k": 20088.4,
      "total_population": 31451,
      "latitude": 39.567200,
      "longitude": -89.322700
    },
    {
      "County": "Clark",
      "confirmed_cases": 79,
      "confirmed_rate_per_10k": 49.1202,
      "confirmed_rate_per_100k": 491.202,
      "deaths": 2,
      "deaths_rate_per_10k": 1.24355,
      "deaths_rate_per_100k": 12.4355,
      "total_tested": 2309,
      "test_rate_per_10k": 1435.68,
      "test_rate_per_100k": 14356.8,
      "total_population": 16083,
      "latitude": 39.382400,
      "longitude": -87.776300
    },
    {
      "County": "Clay",
      "confirmed_cases": 20,
      "confirmed_rate_per_10k": 15.7667,
      "confirmed_rate_per_100k": 157.667,
      "deaths": 0,
      "deaths_rate_per_10k": 0,
      "deaths_rate_per_100k": 0,
      "total_tested": 1684,
      "test_rate_per_10k": 1327.55,
      "test_rate_per_100k": 13275.5,
      "total_population": 12685,
      "latitude": 38.727900,
      "longitude": -88.556500
    },
    {
      "County": "Clinton",
      "confirmed_cases": 387,
      "confirmed_rate_per_10k": 122.124,
      "confirmed_rate_per_100k": 1221.24,
      "deaths": 17,
      "deaths_rate_per_10k": 5.36464,
      "deaths_rate_per_100k": 53.6464,
      "total_tested": 6959,
      "test_rate_per_10k": 2196.03,
      "test_rate_per_100k": 21960.3,
      "total_population": 31689,
      "latitude": 38.568400,
      "longitude": -89.625200
    },
    {
      "County": "Coles",
      "confirmed_cases": 448,
      "confirmed_rate_per_10k": 89.8624,
      "confirmed_rate_per_100k": 898.624,
      "deaths": 20,
      "deaths_rate_per_10k": 4.01171,
      "deaths_rate_per_100k": 40.1171,
      "total_tested": 12259,
      "test_rate_per_10k": 2458.98,
      "test_rate_per_100k": 24589.8,
      "total_population": 49854,
      "latitude": 39.556000,
      "longitude": -88.246100
    },
    {
      "County": "Cook",
      "confirmed_cases": 46878,
      "confirmed_rate_per_10k": 192.116,
      "confirmed_rate_per_100k": 1921.16,
      "deaths": 2113,
      "deaths_rate_per_10k": 8.65954,
      "deaths_rate_per_100k": 86.5954,
      "total_tested": 586304,
      "test_rate_per_10k": 2402.8,
      "test_rate_per_100k": 24028,
      "total_population": 2.44008e+006,
      "latitude": 42.050784,
      "longitude": -87.963759
    },
    {
      "County": "Crawford",
      "confirmed_cases": 29,
      "confirmed_rate_per_10k": 14.9231,
      "confirmed_rate_per_100k": 149.231,
      "deaths": 0,
      "deaths_rate_per_10k": 0,
      "deaths_rate_per_100k": 0,
      "total_tested": 1608,
      "test_rate_per_10k": 827.458,
      "test_rate_per_100k": 8274.58,
      "total_population": 19433,
      "latitude": 41.833000,
      "longitude": -88.710900
    },
    {
      "County": "Cumberland",
      "confirmed_cases": 53,
      "confirmed_rate_per_10k": 47.9855,
      "confirmed_rate_per_100k": 479.855,
      "deaths": 2,
      "deaths_rate_per_10k": 1.81077,
      "deaths_rate_per_100k": 18.1077,
      "total_tested": 2049,
      "test_rate_per_10k": 1855.14,
      "test_rate_per_100k": 18551.4,
      "total_population": 11045,
      "latitude": 39.265400,
      "longitude": -88.207200
    },
    {
      "County": "De Witt",
      "confirmed_cases": 33,
      "confirmed_rate_per_10k": 21.4467,
      "confirmed_rate_per_100k": 214.467,
      "deaths": 0,
      "deaths_rate_per_10k": 0,
      "deaths_rate_per_100k": 0,
      "total_tested": 1929,
      "test_rate_per_10k": 1253.66,
      "test_rate_per_100k": 12536.6,
      "total_population": 15387,
      "latitude": 40.181000,
      "longitude": -88.903100
    },
    {
      "County": "DeKalb",
      "confirmed_cases": 917,
      "confirmed_rate_per_10k": 87.3466,
      "confirmed_rate_per_100k": 873.466,
      "deaths": 30,
      "deaths_rate_per_10k": 2.85758,
      "deaths_rate_per_100k": 28.5758,
      "total_tested": 16121,
      "test_rate_per_10k": 1535.57,
      "test_rate_per_100k": 15355.7,
      "total_population": 104984,
      "latitude": 41.833000,
      "longitude": -88.710900
    },
    {
      "County": "Douglas",
      "confirmed_cases": 108,
      "confirmed_rate_per_10k": 49.0998,
      "confirmed_rate_per_100k": 490.998,
      "deaths": 2,
      "deaths_rate_per_10k": 0.909256,
      "deaths_rate_per_100k": 9.09256,
      "total_tested": 3986,
      "test_rate_per_10k": 1812.15,
      "test_rate_per_100k": 18121.5,
      "total_population": 21996,
      "latitude": 39.761800,
      "longitude": -88.207200
    },
    {
      "County": "DuPage",
      "confirmed_cases": 12021,
      "confirmed_rate_per_10k": 125.115,
      "confirmed_rate_per_100k": 1251.15,
      "deaths": 519,
      "deaths_rate_per_10k": 5.40179,
      "deaths_rate_per_100k": 54.0179,
      "total_tested": 190727,
      "test_rate_per_10k": 1985.1,
      "test_rate_per_100k": 19851,
      "total_population": 960793,
      "latitude": 41.824400,
      "longitude": -88.090100
    },
    {
      "County": "Edgar",
      "confirmed_cases": 28,
      "confirmed_rate_per_10k": 16.6083,
      "confirmed_rate_per_100k": 166.083,
      "deaths": 0,
      "deaths_rate_per_10k": 0,
      "deaths_rate_per_100k": 0,
      "total_tested": 1863,
      "test_rate_per_10k": 1105.05,
      "test_rate_per_100k": 11050.5,
      "total_population": 16859,
      "latitude": 39.713100,
      "longitude": -87.776300
    },
    {
      "County": "Edwards",
      "confirmed_cases": 17,
      "confirmed_rate_per_10k": 29.5036,
      "confirmed_rate_per_100k": 295.036,
      "deaths": 0,
      "deaths_rate_per_10k": 0,
      "deaths_rate_per_100k": 0,
      "total_tested": 413,
      "test_rate_per_10k": 716.765,
      "test_rate_per_100k": 7167.65,
      "total_population": 5762,
      "latitude": 38.426800,
      "longitude": -88.051000
    },
    {
      "County": "Effingham",
      "confirmed_cases": 139,
      "confirmed_rate_per_10k": 40.9426,
      "confirmed_rate_per_100k": 409.426,
      "deaths": 1,
      "deaths_rate_per_10k": 0.294551,
      "deaths_rate_per_100k": 2.94551,
      "total_tested": 5400,
      "test_rate_per_10k": 1590.57,
      "test_rate_per_100k": 15905.7,
      "total_population": 33950,
      "latitude": 39.062200,
      "longitude": -88.556500
    },
    {
      "County": "Fayette",
      "confirmed_cases": 60,
      "confirmed_rate_per_10k": 27.7675,
      "confirmed_rate_per_100k": 277.675,
      "deaths": 3,
      "deaths_rate_per_10k": 1.38837,
      "deaths_rate_per_100k": 13.8837,
      "total_tested": 2591,
      "test_rate_per_10k": 1199.09,
      "test_rate_per_100k": 11990.9,
      "total_population": 21608,
      "latitude": 39.067000,
      "longitude": -89.017900
    },
    {
      "County": "Ford",
      "confirmed_cases": 49,
      "confirmed_rate_per_10k": 37.4446,
      "confirmed_rate_per_100k": 374.446,
      "deaths": 2,
      "deaths_rate_per_10k": 1.52835,
      "deaths_rate_per_100k": 15.2835,
      "total_tested": 2479,
      "test_rate_per_10k": 1894.39,
      "test_rate_per_100k": 18943.9,
      "total_population": 13086,
      "latitude": 40.498900,
      "longitude": -88.207200
    },
    {
      "County": "Franklin",
      "confirmed_cases": 156,
      "confirmed_rate_per_10k": 39.5839,
      "confirmed_rate_per_100k": 395.839,
      "deaths": 0,
      "deaths_rate_per_10k": 0,
      "deaths_rate_per_100k": 0,
      "total_tested": 5733,
      "test_rate_per_10k": 1454.71,
      "test_rate_per_100k": 14547.1,
      "total_population": 39410,
      "latitude": 38.015700,
      "longitude": -88.903100
    },
    {
      "County": "Fulton",
      "confirmed_cases": 33,
      "confirmed_rate_per_10k": 9.41056,
      "confirmed_rate_per_100k": 94.1056,
      "deaths": 0,
      "deaths_rate_per_10k": 0,
      "deaths_rate_per_100k": 0,
      "total_tested": 4911,
      "test_rate_per_10k": 1400.46,
      "test_rate_per_100k": 14004.6,
      "total_population": 35067,
      "latitude": 40.553200,
      "longitude": -90.224500
    },
    {
      "County": "Gallatin",
      "confirmed_cases": 49,
      "confirmed_rate_per_10k": 97.2415,
      "confirmed_rate_per_100k": 972.415,
      "deaths": 2,
      "deaths_rate_per_10k": 3.96904,
      "deaths_rate_per_100k": 39.6904,
      "total_tested": 433,
      "test_rate_per_10k": 859.297,
      "test_rate_per_100k": 8592.97,
      "total_population": 5039,
      "latitude": 37.710800,
      "longitude": -88.246100
    },
    {
      "County": "Greene",
      "confirmed_cases": 38,
      "confirmed_rate_per_10k": 28.6857,
      "confirmed_rate_per_100k": 286.857,
      "deaths": 0,
      "deaths_rate_per_10k": 0,
      "deaths_rate_per_100k": 0,
      "total_tested": 1627,
      "test_rate_per_10k": 1228.2,
      "test_rate_per_100k": 12282,
      "total_population": 13247,
      "latitude": 39.403000,
      "longitude": -90.374800
    },
    {
      "County": "Grundy",
      "confirmed_cases": 307,
      "confirmed_rate_per_10k": 58.6976,
      "confirmed_rate_per_100k": 586.976,
      "deaths": 5,
      "deaths_rate_per_10k": 0.955986,
      "deaths_rate_per_100k": 9.55986,
      "total_tested": 6546,
      "test_rate_per_10k": 1251.58,
      "test_rate_per_100k": 12515.8,
      "total_population": 52302,
      "latitude": 41.350100,
      "longitude": -88.401600
    },
    {
      "County": "Hamilton",
      "confirmed_cases": 28,
      "confirmed_rate_per_10k": 33.2226,
      "confirmed_rate_per_100k": 332.226,
      "deaths": 0,
      "deaths_rate_per_10k": 0,
      "deaths_rate_per_100k": 0,
      "total_tested": 774,
      "test_rate_per_10k": 918.367,
      "test_rate_per_100k": 9183.67,
      "total_population": 8428,
      "latitude": 38.054300,
      "longitude": -88.556500
    },
    {
      "County": "Hancock",
      "confirmed_cases": 47,
      "confirmed_rate_per_10k": 25.5324,
      "confirmed_rate_per_100k": 255.324,
      "deaths": 1,
      "deaths_rate_per_10k": 0.543242,
      "deaths_rate_per_100k": 5.43242,
      "total_tested": 3123,
      "test_rate_per_10k": 1696.54,
      "test_rate_per_100k": 16965.4,
      "total_population": 18408,
      "latitude": 40.384900,
      "longitude": -91.135300
    },
    {
      "County": "Hardin",
      "confirmed_cases": 18,
      "confirmed_rate_per_10k": 43.6681,
      "confirmed_rate_per_100k": 436.681,
      "deaths": 0,
      "deaths_rate_per_10k": 0,
      "deaths_rate_per_100k": 0,
      "total_tested": 478,
      "test_rate_per_10k": 1159.63,
      "test_rate_per_100k": 11596.3,
      "total_population": 4122,
      "latitude": 37.499500,
      "longitude": -88.362800
    },
    {
      "County": "Henderson",
      "confirmed_cases": 10,
      "confirmed_rate_per_10k": 16.4528,
      "confirmed_rate_per_100k": 164.528,
      "deaths": 0,
      "deaths_rate_per_10k": 0,
      "deaths_rate_per_100k": 0,
      "total_tested": 613,
      "test_rate_per_10k": 1008.56,
      "test_rate_per_100k": 10085.6,
      "total_population": 6078,
      "latitude": 40.833600,
      "longitude": -90.943800
    },
    {
      "County": "Henry",
      "confirmed_cases": 232,
      "confirmed_rate_per_10k": 48.762,
      "confirmed_rate_per_100k": 487.62,
      "deaths": 1,
      "deaths_rate_per_10k": 0.210181,
      "deaths_rate_per_100k": 2.10181,
      "total_tested": 9051,
      "test_rate_per_10k": 1902.35,
      "test_rate_per_100k": 19023.5,
      "total_population": 47578,
      "latitude": 41.361100,
      "longitude": -90.074700
    },
    {
      "County": "Iroquois",
      "confirmed_cases": 257,
      "confirmed_rate_per_10k": 99.1589,
      "confirmed_rate_per_100k": 991.589,
      "deaths": 11,
      "deaths_rate_per_10k": 4.24415,
      "deaths_rate_per_100k": 42.4415,
      "total_tested": 6163,
      "test_rate_per_10k": 2377.88,
      "test_rate_per_100k": 23778.8,
      "total_population": 25918,
      "latitude": 40.774000,
      "longitude": -87.697600
    },
    {
      "County": "Jackson",
      "confirmed_cases": 695,
      "confirmed_rate_per_10k": 115.804,
      "confirmed_rate_per_100k": 1158.04,
      "deaths": 19,
      "deaths_rate_per_10k": 3.16588,
      "deaths_rate_per_100k": 31.6588,
      "total_tested": 10871,
      "test_rate_per_10k": 1811.38,
      "test_rate_per_100k": 18113.8,
      "total_population": 60015,
      "latitude": 37.721800,
      "longitude": -89.322700
    },
    {
      "County": "Jasper",
      "confirmed_cases": 59,
      "confirmed_rate_per_10k": 65.461,
      "confirmed_rate_per_100k": 654.61,
      "deaths": 7,
      "deaths_rate_per_10k": 7.76656,
      "deaths_rate_per_100k": 77.6656,
      "total_tested": 1416,
      "test_rate_per_10k": 1571.06,
      "test_rate_per_100k": 15710.6,
      "total_population": 9013,
      "latitude": 39.055500,
      "longitude": -88.090100
    },
    {
      "County": "Jefferson",
      "confirmed_cases": 247,
      "confirmed_rate_per_10k": 66.8634,
      "confirmed_rate_per_100k": 668.634,
      "deaths": 19,
      "deaths_rate_per_10k": 5.14334,
      "deaths_rate_per_100k": 51.4334,
      "total_tested": 5125,
      "test_rate_per_10k": 1387.35,
      "test_rate_per_100k": 13873.5,
      "total_population": 36941,
      "latitude": 38.226700,
      "longitude": -88.864700
    },
    {
      "County": "Jersey",
      "confirmed_cases": 98,
      "confirmed_rate_per_10k": 56.4029,
      "confirmed_rate_per_100k": 564.029,
      "deaths": 2,
      "deaths_rate_per_10k": 1.15108,
      "deaths_rate_per_100k": 11.5108,
      "total_tested": 2386,
      "test_rate_per_10k": 1373.24,
      "test_rate_per_100k": 13732.4,
      "total_population": 17375,
      "latitude": 39.070500,
      "longitude": -90.374800
    },
    {
      "County": "Jo Daviess",
      "confirmed_cases": 124,
      "confirmed_rate_per_10k": 59.6555,
      "confirmed_rate_per_100k": 596.555,
      "deaths": 1,
      "deaths_rate_per_10k": 0.481093,
      "deaths_rate_per_100k": 4.81093,
      "total_tested": 2911,
      "test_rate_per_10k": 1400.46,
      "test_rate_per_100k": 14004.6,
      "total_population": 20786,
      "latitude": 42.314900,
      "longitude": -90.224500
    },
    {
      "County": "Johnson",
      "confirmed_cases": 66,
      "confirmed_rate_per_10k": 49.4308,
      "confirmed_rate_per_100k": 494.308,
      "deaths": 0,
      "deaths_rate_per_10k": 0,
      "deaths_rate_per_100k": 0,
      "total_tested": 1431,
      "test_rate_per_10k": 1071.75,
      "test_rate_per_100k": 10717.5,
      "total_population": 13352,
      "latitude": 37.420400,
      "longitude": -88.903100
    },
    {
      "County": "Kane",
      "confirmed_cases": 9629,
      "confirmed_rate_per_10k": 203.212,
      "confirmed_rate_per_100k": 2032.12,
      "deaths": 303,
      "deaths_rate_per_10k": 6.39455,
      "deaths_rate_per_100k": 63.9455,
      "total_tested": 103007,
      "test_rate_per_10k": 2173.87,
      "test_rate_per_100k": 21738.7,
      "total_population": 473841,
      "latitude": 41.987900,
      "longitude": -88.401600
    },
    {
      "County": "Kankakee",
      "confirmed_cases": 1725,
      "confirmed_rate_per_10k": 156.441,
      "confirmed_rate_per_100k": 1564.41,
      "deaths": 68,
      "deaths_rate_per_10k": 6.16696,
      "deaths_rate_per_100k": 61.6696,
      "total_tested": 29860,
      "test_rate_per_10k": 2708.02,
      "test_rate_per_100k": 27080.2,
      "total_population": 110265,
      "latitude": 41.179100,
      "longitude": -87.776300
    },
    {
      "County": "Kendall",
      "confirmed_cases": 1343,
      "confirmed_rate_per_10k": 117.079,
      "confirmed_rate_per_100k": 1170.79,
      "deaths": 23,
      "deaths_rate_per_10k": 2.00507,
      "deaths_rate_per_100k": 20.0507,
      "total_tested": 20158,
      "test_rate_per_10k": 1757.32,
      "test_rate_per_100k": 17573.2,
      "total_population": 114709,
      "latitude": 41.550700,
      "longitude": -88.440400
    },
    {
      "County": "Knox",
      "confirmed_cases": 291,
      "confirmed_rate_per_10k": 58.776,
      "confirmed_rate_per_100k": 587.76,
      "deaths": 1,
      "deaths_rate_per_10k": 0.201979,
      "deaths_rate_per_100k": 2.01979,
      "total_tested": 7985,
      "test_rate_per_10k": 1612.81,
      "test_rate_per_100k": 16128.1,
      "total_population": 49510,
      "latitude": 40.877600,
      "longitude": -90.224500
    },
    {
      "County": "Lake",
      "confirmed_cases": 12491,
      "confirmed_rate_per_10k": 172.622,
      "confirmed_rate_per_100k": 1726.22,
      "deaths": 445,
      "deaths_rate_per_10k": 6.14976,
      "deaths_rate_per_100k": 61.4976,
      "total_tested": 152885,
      "test_rate_per_10k": 2112.82,
      "test_rate_per_100k": 21128.2,
      "total_population": 723606,
      "latitude": 42.368900,
      "longitude": -87.827200
    },
    {
      "County": "LaSalle",
      "confirmed_cases": 684,
      "confirmed_rate_per_10k": 62.6001,
      "confirmed_rate_per_100k": 626.001,
      "deaths": 24,
      "deaths_rate_per_10k": 2.19649,
      "deaths_rate_per_100k": 21.9649,
      "total_tested": 15773,
      "test_rate_per_10k": 1443.55,
      "test_rate_per_100k": 14435.5,
      "total_population": 109265,
      "latitude": 41.436400,
      "longitude": -88.941400
    },
    {
      "County": "Lawrence",
      "confirmed_cases": 45,
      "confirmed_rate_per_10k": 29.9242,
      "confirmed_rate_per_100k": 299.242,
      "deaths": 0,
      "deaths_rate_per_10k": 0,
      "deaths_rate_per_100k": 0,
      "total_tested": 2286,
      "test_rate_per_10k": 1520.15,
      "test_rate_per_100k": 15201.5,
      "total_population": 15038,
      "latitude": 38.715800,
      "longitude": -87.776300
    },
    {
      "County": "Lee",
      "confirmed_cases": 165,
      "confirmed_rate_per_10k": 47.7016,
      "confirmed_rate_per_100k": 477.016,
      "deaths": 1,
      "deaths_rate_per_10k": 0.289101,
      "deaths_rate_per_100k": 2.89101,
      "total_tested": 4107,
      "test_rate_per_10k": 1187.34,
      "test_rate_per_100k": 11873.4,
      "total_population": 34590,
      "latitude": 41.679000,
      "longitude": -89.322700
    },
    {
      "County": "Livingston",
      "confirmed_cases": 105,
      "confirmed_rate_per_10k": 32.1032,
      "confirmed_rate_per_100k": 321.032,
      "deaths": 2,
      "deaths_rate_per_10k": 0.61149,
      "deaths_rate_per_100k": 6.1149,
      "total_tested": 4772,
      "test_rate_per_10k": 1459.01,
      "test_rate_per_100k": 14590.1,
      "total_population": 32707,
      "latitude": 40.868900,
      "longitude": -88.556500
    },
    {
      "County": "Logan",
      "confirmed_cases": 106,
      "confirmed_rate_per_10k": 37.3213,
      "confirmed_rate_per_100k": 373.213,
      "deaths": 0,
      "deaths_rate_per_10k": 0,
      "deaths_rate_per_100k": 0,
      "total_tested": 7262,
      "test_rate_per_10k": 2556.86,
      "test_rate_per_100k": 25568.6,
      "total_population": 28402,
      "latitude": 40.061300,
      "longitude": -89.322700
    },
    {
      "County": "Macon",
      "confirmed_cases": 578,
      "confirmed_rate_per_10k": 56.1383,
      "confirmed_rate_per_100k": 561.383,
      "deaths": 23,
      "deaths_rate_per_10k": 2.23388,
      "deaths_rate_per_100k": 22.3388,
      "total_tested": 18684,
      "test_rate_per_10k": 1814.69,
      "test_rate_per_100k": 18146.9,
      "total_population": 102960,
      "latitude": 39.894900,
      "longitude": -89.017900
    },
    {
      "County": "Macoupin",
      "confirmed_cases": 156,
      "confirmed_rate_per_10k": 32.1318,
      "confirmed_rate_per_100k": 321.318,
      "deaths": 3,
      "deaths_rate_per_10k": 0.61792,
      "deaths_rate_per_100k": 6.1792,
      "total_tested": 10101,
      "test_rate_per_10k": 2080.54,
      "test_rate_per_100k": 20805.4,
      "total_population": 48550,
      "latitude": 39.237500,
      "longitude": -89.925300
    },
    {
      "County": "Madison",
      "confirmed_cases": 2470,
      "confirmed_rate_per_10k": 92.4062,
      "confirmed_rate_per_100k": 924.062,
      "deaths": 74,
      "deaths_rate_per_10k": 2.76845,
      "deaths_rate_per_100k": 27.6845,
      "total_tested": 41974,
      "test_rate_per_10k": 1570.31,
      "test_rate_per_100k": 15703.1,
      "total_population": 267298,
      "latitude": 38.904100,
      "longitude": -89.925300
    },
    {
      "County": "Marion",
      "confirmed_cases": 152,
      "confirmed_rate_per_10k": 33.9286,
      "confirmed_rate_per_100k": 339.286,
      "deaths": 0,
      "deaths_rate_per_10k": 0,
      "deaths_rate_per_100k": 0,
      "total_tested": 5523,
      "test_rate_per_10k": 1232.81,
      "test_rate_per_100k": 12328.1,
      "total_population": 44800,
      "latitude": 38.731300,
      "longitude": -88.864700
    },
    {
      "County": "Marshall",
      "confirmed_cases": 24,
      "confirmed_rate_per_10k": 22.5183,
      "confirmed_rate_per_100k": 225.183,
      "deaths": 0,
      "deaths_rate_per_10k": 0,
      "deaths_rate_per_100k": 0,
      "total_tested": 1645,
      "test_rate_per_10k": 1543.44,
      "test_rate_per_100k": 15434.4,
      "total_population": 10658,
      "latitude": 40.997300,
      "longitude": -89.360600
    },
    {
      "County": "Mason",
      "confirmed_cases": 45,
      "confirmed_rate_per_10k": 29.2664,
      "confirmed_rate_per_100k": 292.664,
      "deaths": 0,
      "deaths_rate_per_10k": 0,
      "deaths_rate_per_100k": 0,
      "total_tested": 2383,
      "test_rate_per_10k": 1549.82,
      "test_rate_per_100k": 15498.2,
      "total_population": 15376,
      "latitude": 40.227100,
      "longitude": -89.925300
    },
    {
      "County": "Massac",
      "confirmed_cases": 37,
      "confirmed_rate_per_10k": 28.5582,
      "confirmed_rate_per_100k": 285.582,
      "deaths": 0,
      "deaths_rate_per_10k": 0,
      "deaths_rate_per_100k": 0,
      "total_tested": 1707,
      "test_rate_per_10k": 1317.54,
      "test_rate_per_100k": 13175.4,
      "total_population": 12956,
      "latitude": 37.247800,
      "longitude": -88.749400
    },
    {
      "County": "McDonough",
      "confirmed_cases": 139,
      "confirmed_rate_per_10k": 48.0836,
      "confirmed_rate_per_100k": 480.836,
      "deaths": 15,
      "deaths_rate_per_10k": 5.18888,
      "deaths_rate_per_100k": 51.8888,
      "total_tested": 3983,
      "test_rate_per_10k": 1377.82,
      "test_rate_per_100k": 13778.2,
      "total_population": 28908,
      "latitude": 40.388500,
      "longitude": -90.677300
    },
    {
      "County": "McHenry",
      "confirmed_cases": 3123,
      "confirmed_rate_per_10k": 93.1635,
      "confirmed_rate_per_100k": 931.635,
      "deaths": 114,
      "deaths_rate_per_10k": 3.40078,
      "deaths_rate_per_100k": 34.0078,
      "total_tested": 44356,
      "test_rate_per_10k": 1323.2,
      "test_rate_per_100k": 13232,
      "total_population": 335217,
      "latitude": 42.304000,
      "longitude": -88.401600
    },
    {
      "County": "McLean",
      "confirmed_cases": 624,
      "confirmed_rate_per_10k": 35.8382,
      "confirmed_rate_per_100k": 358.382,
      "deaths": 15,
      "deaths_rate_per_10k": 0.861495,
      "deaths_rate_per_100k": 8.61495,
      "total_tested": 29489,
      "test_rate_per_10k": 1693.64,
      "test_rate_per_100k": 16936.4,
      "total_population": 174116,
      "latitude": 40.547800,
      "longitude": -88.864700
    },
    {
      "County": "Menard",
      "confirmed_cases": 53,
      "confirmed_rate_per_10k": 43.3964,
      "confirmed_rate_per_100k": 433.964,
      "deaths": 0,
      "deaths_rate_per_10k": 0,
      "deaths_rate_per_100k": 0,
      "total_tested": 2696,
      "test_rate_per_10k": 2207.48,
      "test_rate_per_100k": 22074.8,
      "total_population": 12213,
      "latitude": 40.022100,
      "longitude": -89.813000
    },
    {
      "County": "Mercer",
      "confirmed_cases": 73,
      "confirmed_rate_per_10k": 49.2777,
      "confirmed_rate_per_100k": 492.777,
      "deaths": 3,
      "deaths_rate_per_10k": 2.02511,
      "deaths_rate_per_100k": 20.2511,
      "total_tested": 2357,
      "test_rate_per_10k": 1591.06,
      "test_rate_per_100k": 15910.6,
      "total_population": 14814,
      "latitude": 41.198500,
      "longitude": -90.677300
    },
    {
      "County": "Monroe",
      "confirmed_cases": 305,
      "confirmed_rate_per_10k": 89.2256,
      "confirmed_rate_per_100k": 892.256,
      "deaths": 13,
      "deaths_rate_per_10k": 3.80306,
      "deaths_rate_per_100k": 38.0306,
      "total_tested": 3866,
      "test_rate_per_10k": 1130.97,
      "test_rate_per_100k": 11309.7,
      "total_population": 34183,
      "latitude": 38.274300,
      "longitude": -90.187000
    },
    {
      "County": "Montgomery",
      "confirmed_cases": 161,
      "confirmed_rate_per_10k": 55.8272,
      "confirmed_rate_per_100k": 558.272,
      "deaths": 7,
      "deaths_rate_per_10k": 2.42727,
      "deaths_rate_per_100k": 24.2727,
      "total_tested": 7239,
      "test_rate_per_10k": 2510.14,
      "test_rate_per_100k": 25101.4,
      "total_population": 28839,
      "latitude": 39.236400,
      "longitude": -89.474200
    },
    {
      "County": "Morgan",
      "confirmed_cases": 229,
      "confirmed_rate_per_10k": 68.2014,
      "confirmed_rate_per_100k": 682.014,
      "deaths": 6,
      "deaths_rate_per_10k": 1.78694,
      "deaths_rate_per_100k": 17.8694,
      "total_tested": 7706,
      "test_rate_per_10k": 2295.02,
      "test_rate_per_100k": 22950.2,
      "total_population": 33577,
      "latitude": 39.734100,
      "longitude": -90.224500
    },
    {
      "County": "Moultrie",
      "confirmed_cases": 72,
      "confirmed_rate_per_10k": 52.9062,
      "confirmed_rate_per_100k": 529.062,
      "deaths": 0,
      "deaths_rate_per_10k": 0,
      "deaths_rate_per_100k": 0,
      "total_tested": 2120,
      "test_rate_per_10k": 1557.79,
      "test_rate_per_100k": 15577.9,
      "total_population": 13609,
      "latitude": 39.602100,
      "longitude": -88.595200
    },
    {
      "County": "Ogle",
      "confirmed_cases": 403,
      "confirmed_rate_per_10k": 82.565,
      "confirmed_rate_per_100k": 825.65,
      "deaths": 5,
      "deaths_rate_per_10k": 1.02438,
      "deaths_rate_per_100k": 10.2438,
      "total_tested": 8044,
      "test_rate_per_10k": 1648.02,
      "test_rate_per_100k": 16480.2,
      "total_population": 48810,
      "latitude": 41.997000,
      "longitude": -89.322700
    },
    {
      "County": "Peoria",
      "confirmed_cases": 1525,
      "confirmed_rate_per_10k": 85.3959,
      "confirmed_rate_per_100k": 853.959,
      "deaths": 35,
      "deaths_rate_per_10k": 1.95991,
      "deaths_rate_per_100k": 19.5991,
      "total_tested": 45639,
      "test_rate_per_10k": 2555.66,
      "test_rate_per_100k": 25556.6,
      "total_population": 178580,
      "latitude": 40.715600,
      "longitude": -89.775500
    },
    {
      "County": "Perry",
      "confirmed_cases": 149,
      "confirmed_rate_per_10k": 76.528,
      "confirmed_rate_per_100k": 765.28,
      "deaths": 1,
      "deaths_rate_per_10k": 0.513611,
      "deaths_rate_per_100k": 5.13611,
      "total_tested": 3240,
      "test_rate_per_10k": 1664.1,
      "test_rate_per_100k": 16641,
      "total_population": 19470,
      "latitude": 38.061200,
      "longitude": -89.322700
    },
    {
      "County": "Piatt",
      "confirmed_cases": 56,
      "confirmed_rate_per_10k": 35.4722,
      "confirmed_rate_per_100k": 354.722,
      "deaths": 0,
      "deaths_rate_per_10k": 0,
      "deaths_rate_per_100k": 0,
      "total_tested": 3945,
      "test_rate_per_10k": 2498.89,
      "test_rate_per_100k": 24988.9,
      "total_population": 15787,
      "latitude": 40.054400,
      "longitude": -88.855650
    },
    {
      "County": "Pike",
      "confirmed_cases": 20,
      "confirmed_rate_per_10k": 12.4688,
      "confirmed_rate_per_100k": 124.688,
      "deaths": 0,
      "deaths_rate_per_10k": 0,
      "deaths_rate_per_100k": 0,
      "total_tested": 1573,
      "test_rate_per_10k": 980.673,
      "test_rate_per_100k": 9806.73,
      "total_population": 16040,
      "latitude": 39.566200,
      "longitude": -90.829400
    },
    {
      "County": "Pope",
      "confirmed_cases": 8,
      "confirmed_rate_per_10k": 24.8293,
      "confirmed_rate_per_100k": 248.293,
      "deaths": 0,
      "deaths_rate_per_10k": 0,
      "deaths_rate_per_100k": 0,
      "total_tested": 310,
      "test_rate_per_10k": 962.135,
      "test_rate_per_100k": 9621.35,
      "total_population": 3222,
      "latitude": 37.417100,
      "longitude": -88.595200
    },
    {
      "County": "Pulaski",
      "confirmed_cases": 92,
      "confirmed_rate_per_10k": 163.556,
      "confirmed_rate_per_100k": 1635.56,
      "deaths": 0,
      "deaths_rate_per_10k": 0,
      "deaths_rate_per_100k": 0,
      "total_tested": 816,
      "test_rate_per_10k": 1450.67,
      "test_rate_per_100k": 14506.7,
      "total_population": 5625,
      "latitude": 37.251200,
      "longitude": -89.132500
    },
    {
      "County": "Putnam",
      "confirmed_cases": 11,
      "confirmed_rate_per_10k": 18.622,
      "confirmed_rate_per_100k": 186.22,
      "deaths": 0,
      "deaths_rate_per_10k": 0,
      "deaths_rate_per_100k": 0,
      "total_tested": 508,
      "test_rate_per_10k": 859.997,
      "test_rate_per_100k": 8599.97,
      "total_population": 5907,
      "latitude": 41.238500,
      "longitude": -89.284700
    },
    {
      "County": "Randolph",
      "confirmed_cases": 452,
      "confirmed_rate_per_10k": 127.998,
      "confirmed_rate_per_100k": 1279.98,
      "deaths": 7,
      "deaths_rate_per_10k": 1.98227,
      "deaths_rate_per_100k": 19.8227,
      "total_tested": 6125,
      "test_rate_per_10k": 1734.49,
      "test_rate_per_100k": 17344.9,
      "total_population": 35313,
      "latitude": 38.062900,
      "longitude": -89.775500
    },
    {
      "County": "Richland",
      "confirmed_cases": 18,
      "confirmed_rate_per_10k": 11.4199,
      "confirmed_rate_per_100k": 114.199,
      "deaths": 0,
      "deaths_rate_per_10k": 0,
      "deaths_rate_per_100k": 0,
      "total_tested": 2529,
      "test_rate_per_10k": 1604.49,
      "test_rate_per_100k": 16044.9,
      "total_population": 15762,
      "latitude": 38.721300,
      "longitude": -88.090100
    },
    {
      "County": "Rock Island",
      "confirmed_cases": 1679,
      "confirmed_rate_per_10k": 116.988,
      "confirmed_rate_per_100k": 1169.88,
      "deaths": 34,
      "deaths_rate_per_10k": 2.36902,
      "deaths_rate_per_100k": 23.6902,
      "total_tested": 35752,
      "test_rate_per_10k": 2491.1,
      "test_rate_per_100k": 24911,
      "total_population": 143519,
      "latitude": 41.509500,
      "longitude": -90.578700
    },
    {
      "County": "Saline",
      "confirmed_cases": 130,
      "confirmed_rate_per_10k": 53.5045,
      "confirmed_rate_per_100k": 535.045,
      "deaths": 2,
      "deaths_rate_per_10k": 0.823147,
      "deaths_rate_per_100k": 8.23147,
      "total_tested": 3288,
      "test_rate_per_10k": 1353.25,
      "test_rate_per_100k": 13532.5,
      "total_population": 24297,
      "latitude": 37.715000,
      "longitude": -88.556500
    },
    {
      "County": "Sangamon",
      "confirmed_cases": 1194,
      "confirmed_rate_per_10k": 61.3806,
      "confirmed_rate_per_100k": 613.806,
      "deaths": 33,
      "deaths_rate_per_10k": 1.69645,
      "deaths_rate_per_100k": 16.9645,
      "total_tested": 59233,
      "test_rate_per_10k": 3045.02,
      "test_rate_per_100k": 30450.2,
      "total_population": 194524,
      "latitude": 39.733700,
      "longitude": -89.625200
    },
    {
      "County": "Schuyler",
      "confirmed_cases": 17,
      "confirmed_rate_per_10k": 26.2954,
      "confirmed_rate_per_100k": 262.954,
      "deaths": 0,
      "deaths_rate_per_10k": 0,
      "deaths_rate_per_100k": 0,
      "total_tested": 1037,
      "test_rate_per_10k": 1604.02,
      "test_rate_per_100k": 16040.2,
      "total_population": 6465,
      "latitude": 40.184500,
      "longitude": -90.639400
    },
    {
      "County": "Scott",
      "confirmed_cases": 16,
      "confirmed_rate_per_10k": 36.5213,
      "confirmed_rate_per_100k": 365.213,
      "deaths": 0,
      "deaths_rate_per_10k": 0,
      "deaths_rate_per_100k": 0,
      "total_tested": 1034,
      "test_rate_per_10k": 2360.19,
      "test_rate_per_100k": 23601.9,
      "total_population": 4381,
      "latitude": 39.609500,
      "longitude": -90.488000
    },
    {
      "County": "Shelby",
      "confirmed_cases": 75,
      "confirmed_rate_per_10k": 35.5973,
      "confirmed_rate_per_100k": 355.973,
      "deaths": 1,
      "deaths_rate_per_10k": 0.474631,
      "deaths_rate_per_100k": 4.74631,
      "total_tested": 3501,
      "test_rate_per_10k": 1661.68,
      "test_rate_per_100k": 16616.8,
      "total_population": 21069,
      "latitude": 39.398100,
      "longitude": -88.864700
    },
    {
      "County": "St. Clair",
      "confirmed_cases": 3897,
      "confirmed_rate_per_10k": 153.726,
      "confirmed_rate_per_100k": 1537.26,
      "deaths": 160,
      "deaths_rate_per_10k": 6.31156,
      "deaths_rate_per_100k": 63.1156,
      "total_tested": 45502,
      "test_rate_per_10k": 1794.93,
      "test_rate_per_100k": 17949.3,
      "total_population": 253503,
      "latitude": 38.400800,
      "longitude": -89.925300
    },
    {
      "County": "Stark",
      "confirmed_cases": 7,
      "confirmed_rate_per_10k": 12.2485,
      "confirmed_rate_per_100k": 122.485,
      "deaths": 0,
      "deaths_rate_per_10k": 0,
      "deaths_rate_per_100k": 0,
      "total_tested": 1005,
      "test_rate_per_10k": 1758.53,
      "test_rate_per_100k": 17585.3,
      "total_population": 5715,
      "latitude": 41.079600,
      "longitude": -89.813000
    },
    {
      "County": "Stephenson",
      "confirmed_cases": 325,
      "confirmed_rate_per_10k": 71.698,
      "confirmed_rate_per_100k": 716.98,
      "deaths": 6,
      "deaths_rate_per_10k": 1.32366,
      "deaths_rate_per_100k": 13.2366,
      "total_tested": 7230,
      "test_rate_per_10k": 1595.01,
      "test_rate_per_100k": 15950.1,
      "total_population": 45329,
      "latitude": 42.314500,
      "longitude": -89.625200
    },
    {
      "County": "Tazewell",
      "confirmed_cases": 486,
      "confirmed_rate_per_10k": 36.5046,
      "confirmed_rate_per_100k": 365.046,
      "deaths": 8,
      "deaths_rate_per_10k": 0.600898,
      "deaths_rate_per_100k": 6.00898,
      "total_tested": 28887,
      "test_rate_per_10k": 2169.77,
      "test_rate_per_100k": 21697.7,
      "total_population": 133134,
      "latitude": 40.552200,
      "longitude": -89.474200
    },
    {
      "County": "Union",
      "confirmed_cases": 318,
      "confirmed_rate_per_10k": 196.843,
      "confirmed_rate_per_100k": 1968.43,
      "deaths": 23,
      "deaths_rate_per_10k": 14.2371,
      "deaths_rate_per_100k": 142.371,
      "total_tested": 3603,
      "test_rate_per_10k": 2230.27,
      "test_rate_per_100k": 22302.7,
      "total_population": 16155,
      "latitude": 37.508700,
      "longitude": -89.284700
    },
    {
      "County": "Vermilion",
      "confirmed_cases": 229,
      "confirmed_rate_per_10k": 30.1506,
      "confirmed_rate_per_100k": 301.506,
      "deaths": 2,
      "deaths_rate_per_10k": 0.263324,
      "deaths_rate_per_100k": 2.63324,
      "total_tested": 13617,
      "test_rate_per_10k": 1792.84,
      "test_rate_per_100k": 17928.4,
      "total_population": 75952,
      "latitude": 40.122500,
      "longitude": -87.697600
    },
    {
      "County": "Wabash",
      "confirmed_cases": 34,
      "confirmed_rate_per_10k": 30.4905,
      "confirmed_rate_per_100k": 304.905,
      "deaths": 0,
      "deaths_rate_per_10k": 0,
      "deaths_rate_per_100k": 0,
      "total_tested": 994,
      "test_rate_per_10k": 891.4,
      "test_rate_per_100k": 8914,
      "total_population": 11151,
      "latitude": 38.422600,
      "longitude": -87.815700
    },
    {
      "County": "Warren",
      "confirmed_cases": 189,
      "confirmed_rate_per_10k": 115.139,
      "confirmed_rate_per_100k": 1151.39,
      "deaths": 0,
      "deaths_rate_per_10k": 0,
      "deaths_rate_per_100k": 0,
      "total_tested": 2125,
      "test_rate_per_10k": 1294.55,
      "test_rate_per_100k": 12945.5,
      "total_population": 16415,
      "latitude": 40.875900,
      "longitude": -90.677300
    },
    {
      "County": "Washington",
      "confirmed_cases": 64,
      "confirmed_rate_per_10k": 49.3827,
      "confirmed_rate_per_100k": 493.827,
      "deaths": 0,
      "deaths_rate_per_10k": 0,
      "deaths_rate_per_100k": 0,
      "total_tested": 1581,
      "test_rate_per_10k": 1219.91,
      "test_rate_per_100k": 12199.1,
      "total_population": 12960,
      "latitude": 38.398900,
      "longitude": -89.322700
    },
    {
      "County": "Wayne",
      "confirmed_cases": 59,
      "confirmed_rate_per_10k": 37.8375,
      "confirmed_rate_per_100k": 378.375,
      "deaths": 1,
      "deaths_rate_per_10k": 0.641313,
      "deaths_rate_per_100k": 6.41313,
      "total_tested": 1668,
      "test_rate_per_10k": 1069.71,
      "test_rate_per_100k": 10697.1,
      "total_population": 15593,
      "latitude": 38.390000,
      "longitude": -88.401600
    },
    {
      "County": "White",
      "confirmed_cases": 64,
      "confirmed_rate_per_10k": 44.8682,
      "confirmed_rate_per_100k": 448.682,
      "deaths": 0,
      "deaths_rate_per_10k": 0,
      "deaths_rate_per_100k": 0,
      "total_tested": 1598,
      "test_rate_per_10k": 1120.3,
      "test_rate_per_100k": 11203,
      "total_population": 14264,
      "latitude": 38.050100,
      "longitude": -88.246100
    },
    {
      "County": "Whiteside",
      "confirmed_cases": 339,
      "confirmed_rate_per_10k": 60.2431,
      "confirmed_rate_per_100k": 602.431,
      "deaths": 16,
      "deaths_rate_per_10k": 2.84333,
      "deaths_rate_per_100k": 28.4333,
      "total_tested": 8326,
      "test_rate_per_10k": 1479.6,
      "test_rate_per_100k": 14796,
      "total_population": 56272,
      "latitude": 41.760600,
      "longitude": -89.850500
    },
    {
      "County": "Will",
      "confirmed_cases": 9053,
      "confirmed_rate_per_10k": 129.454,
      "confirmed_rate_per_100k": 1294.54,
      "deaths": 344,
      "deaths_rate_per_10k": 4.91906,
      "deaths_rate_per_100k": 49.1906,
      "total_tested": 126174,
      "test_rate_per_10k": 1804.24,
      "test_rate_per_100k": 18042.4,
      "total_population": 699320,
      "latitude": 41.505500,
      "longitude": -88.090100
    },
    {
      "County": "Williamson",
      "confirmed_cases": 374,
      "confirmed_rate_per_10k": 60.2526,
      "confirmed_rate_per_100k": 602.526,
      "deaths": 6,
      "deaths_rate_per_10k": 0.966619,
      "deaths_rate_per_100k": 9.66619,
      "total_tested": 12717,
      "test_rate_per_10k": 2048.75,
      "test_rate_per_100k": 20487.5,
      "total_population": 62072,
      "latitude": 37.718300,
      "longitude": -88.864700
    },
    {
      "County": "Winnebago",
      "confirmed_cases": 3755,
      "confirmed_rate_per_10k": 132.577,
      "confirmed_rate_per_100k": 1325.77,
      "deaths": 129,
      "deaths_rate_per_10k": 4.55459,
      "deaths_rate_per_100k": 45.5459,
      "total_tested": 54953,
      "test_rate_per_10k": 1940.22,
      "test_rate_per_100k": 19402.2,
      "total_population": 283231,
      "latitude": 42.312100,
      "longitude": -89.170600
    },
    {
      "County": "Woodford",
      "confirmed_cases": 134,
      "confirmed_rate_per_10k": 39.2065,
      "confirmed_rate_per_100k": 392.065,
      "deaths": 3,
      "deaths_rate_per_10k": 0.877758,
      "deaths_rate_per_100k": 8.77758,
      "total_tested": 5866,
      "test_rate_per_10k": 1716.31,
      "test_rate_per_100k": 17163.1,
      "total_population": 34178,
      "latitude": 40.712900,
      "longitude": -89.170600
    }
  ]
}
