{
	"lastUpdatedDate": {
		"year": 2021,
		"month": 1,
		"day": 11
	},
	"county_rates": [
		{
			"County": "Adams",
			"confirmed_cases": 7074,
			"confirmed_rate_per_10k": 1076.859843814221,
			"confirmed_rate_per_100k": 10768.59843814221,
			"deaths": 82,
			"deaths_rate_per_10k": 12.482684081533,
			"deaths_rate_per_100k": 124.82684081533,
			"total_tested": 97975,
			"test_rate_per_10k": 14914.524059612428,
			"test_rate_per_100k": 149145.2405961243,
			"total_population": 65691,
			"latitude": 40.0578,
			"longitude": -91.1353
		},
		{
			"County": "Alexander",
			"confirmed_cases": 365,
			"confirmed_rate_per_10k": 602.310231023102,
			"confirmed_rate_per_100k": 6023.10231023102,
			"deaths": 7,
			"deaths_rate_per_10k": 11.551155115512,
			"deaths_rate_per_100k": 115.51155115512,
			"total_tested": 4022,
			"test_rate_per_10k": 6636.963696369637,
			"test_rate_per_100k": 66369.63696369636,
			"total_population": 6060,
			"latitude": 37.167,
			"longitude": -89.3606
		},
		{
			"County": "Bond",
			"confirmed_cases": 1667,
			"confirmed_rate_per_10k": 1002.405291641612,
			"confirmed_rate_per_100k": 10024.05291641612,
			"deaths": 17,
			"deaths_rate_per_10k": 10.222489476849,
			"deaths_rate_per_100k": 102.22489476849,
			"total_tested": 17134,
			"test_rate_per_10k": 10303.066746843055,
			"test_rate_per_100k": 103030.66746843055,
			"total_population": 16630,
			"latitude": 38.903,
			"longitude": -89.4742
		},
		{
			"County": "Boone",
			"confirmed_cases": 5402,
			"confirmed_rate_per_10k": 1008.268473412098,
			"confirmed_rate_per_100k": 10082.68473412098,
			"deaths": 64,
			"deaths_rate_per_10k": 11.945424342535,
			"deaths_rate_per_100k": 119.45424342535,
			"total_tested": 42996,
			"test_rate_per_10k": 8025.085391119324,
			"test_rate_per_100k": 80250.85391119323,
			"total_population": 53577,
			"latitude": 42.3485,
			"longitude": -88.8263
		},
		{
			"County": "Brown",
			"confirmed_cases": 569,
			"confirmed_rate_per_10k": 867.90726052471,
			"confirmed_rate_per_100k": 8679.0726052471,
			"deaths": 5,
			"deaths_rate_per_10k": 7.626601586333,
			"deaths_rate_per_100k": 76.26601586333,
			"total_tested": 8770,
			"test_rate_per_10k": 13377.05918242831,
			"test_rate_per_100k": 133770.5918242831,
			"total_population": 6556,
			"latitude": 39.938,
			"longitude": -90.7153
		},
		{
			"County": "Bureau",
			"confirmed_cases": 2948,
			"confirmed_rate_per_10k": 893.522868487255,
			"confirmed_rate_per_100k": 8935.22868487255,
			"deaths": 68,
			"deaths_rate_per_10k": 20.610432515988,
			"deaths_rate_per_100k": 206.10432515988,
			"total_tested": 28633,
			"test_rate_per_10k": 8678.507562210167,
			"test_rate_per_100k": 86785.07562210166,
			"total_population": 32993,
			"latitude": 41.3599,
			"longitude": -89.4742
		},
		{
			"County": "Calhoun",
			"confirmed_cases": 418,
			"confirmed_rate_per_10k": 870.470637234486,
			"confirmed_rate_per_100k": 8704.70637234486,
			"deaths": 1,
			"deaths_rate_per_10k": 2.082465639317,
			"deaths_rate_per_100k": 20.82465639317,
			"total_tested": 4058,
			"test_rate_per_10k": 8450.645564348188,
			"test_rate_per_100k": 84506.45564348188,
			"total_population": 4802,
			"latitude": 39.1733,
			"longitude": -90.6583
		},
		{
			"County": "Carroll",
			"confirmed_cases": 1387,
			"confirmed_rate_per_10k": 969.116825041923,
			"confirmed_rate_per_100k": 9691.16825041923,
			"deaths": 31,
			"deaths_rate_per_10k": 21.660145332588,
			"deaths_rate_per_100k": 216.60145332588,
			"total_tested": 14294,
			"test_rate_per_10k": 9987.423141419787,
			"test_rate_per_100k": 99874.23141419789,
			"total_population": 14312,
			"latitude": 42.0386,
			"longitude": -89.9627
		},
		{
			"County": "Cass",
			"confirmed_cases": 1704,
			"confirmed_rate_per_10k": 1389.885807504078,
			"confirmed_rate_per_100k": 13898.85807504078,
			"deaths": 21,
			"deaths_rate_per_10k": 17.128874388254,
			"deaths_rate_per_100k": 171.28874388254,
			"total_tested": 13443,
			"test_rate_per_10k": 10964.926590538336,
			"test_rate_per_100k": 109649.26590538336,
			"total_population": 12260,
			"latitude": 39.9399,
			"longitude": -90.262
		},
		{
			"County": "Champaign",
			"confirmed_cases": 14893,
			"confirmed_rate_per_10k": 709.247891495978,
			"confirmed_rate_per_100k": 7092.47891495978,
			"deaths": 86,
			"deaths_rate_per_10k": 4.095569641352,
			"deaths_rate_per_100k": 40.95569641352,
			"total_tested": 1305005,
			"test_rate_per_10k": 62148.12627688908,
			"test_rate_per_100k": 621481.2627688908,
			"total_population": 209983,
			"latitude": 40.2139,
			"longitude": -88.2461
		},
		{
			"County": "Chicago",
			"confirmed_cases": 218015,
			"confirmed_rate_per_10k": 805.67436587073,
			"confirmed_rate_per_100k": 8056.7436587073,
			"deaths": 4361,
			"deaths_rate_per_10k": 16.116074167201,
			"deaths_rate_per_100k": 161.16074167201,
			"total_tested": 2712856,
			"test_rate_per_10k": 10025.35851890285,
			"test_rate_per_100k": 100253.5851890285,
			"total_population": 2705994,
			"latitude": 41.789896,
			"longitude": -87.627734
		},
		{
			"County": "Christian",
			"confirmed_cases": 2851,
			"confirmed_rate_per_10k": 872.906524601206,
			"confirmed_rate_per_100k": 8729.06524601206,
			"deaths": 54,
			"deaths_rate_per_10k": 16.533480297603,
			"deaths_rate_per_100k": 165.33480297603,
			"total_tested": 30064,
			"test_rate_per_10k": 9204.862067909738,
			"test_rate_per_100k": 92048.6206790974,
			"total_population": 32661,
			"latitude": 39.5672,
			"longitude": -89.3227
		},
		{
			"County": "Clark",
			"confirmed_cases": 1390,
			"confirmed_rate_per_10k": 891.254167735317,
			"confirmed_rate_per_100k": 8912.54167735317,
			"deaths": 24,
			"deaths_rate_per_10k": 15.388561169531,
			"deaths_rate_per_100k": 153.88561169531,
			"total_tested": 10337,
			"test_rate_per_10k": 6627.981533726597,
			"test_rate_per_100k": 66279.81533726597,
			"total_population": 15596,
			"latitude": 39.3824,
			"longitude": -87.7763
		},
		{
			"County": "Clay",
			"confirmed_cases": 1288,
			"confirmed_rate_per_10k": 971.855428959481,
			"confirmed_rate_per_100k": 9718.55428959481,
			"deaths": 33,
			"deaths_rate_per_10k": 24.900022636384,
			"deaths_rate_per_100k": 249.00022636384,
			"total_tested": 10842,
			"test_rate_per_10k": 8180.789255262959,
			"test_rate_per_100k": 81807.8925526296,
			"total_population": 13253,
			"latitude": 38.7279,
			"longitude": -88.5565
		},
		{
			"County": "Clinton",
			"confirmed_cases": 4813,
			"confirmed_rate_per_10k": 1278.726852466856,
			"confirmed_rate_per_100k": 12787.26852466856,
			"deaths": 76,
			"deaths_rate_per_10k": 20.191822311964,
			"deaths_rate_per_100k": 201.91822311964,
			"total_tested": 40500,
			"test_rate_per_10k": 10760.115837296422,
			"test_rate_per_100k": 107601.15837296422,
			"total_population": 37639,
			"latitude": 38.5684,
			"longitude": -89.6252
		},
		{
			"County": "Coles",
			"confirmed_cases": 4592,
			"confirmed_rate_per_10k": 902.42704136779,
			"confirmed_rate_per_100k": 9024.2704136779,
			"deaths": 75,
			"deaths_rate_per_10k": 14.739117618159,
			"deaths_rate_per_100k": 147.39117618159,
			"total_tested": 50505,
			"test_rate_per_10k": 9925.321804067997,
			"test_rate_per_100k": 99253.21804067996,
			"total_population": 50885,
			"latitude": 39.556,
			"longitude": -88.2461
		},
		{
			"County": "Cook",
			"confirmed_cases": 201456,
			"confirmed_rate_per_10k": 814.128435695468,
			"confirmed_rate_per_100k": 8141.28435695468,
			"deaths": 3960,
			"deaths_rate_per_10k": 16.003239443621,
			"deaths_rate_per_100k": 160.03239443621,
			"total_tested": 2445843,
			"test_rate_per_10k": 9884.194740026163,
			"test_rate_per_100k": 98841.94740026163,
			"total_population": 2474499,
			"latitude": 42.050784,
			"longitude": -87.963759
		},
		{
			"County": "Crawford",
			"confirmed_cases": 1698,
			"confirmed_rate_per_10k": 902.855319827724,
			"confirmed_rate_per_100k": 9028.55319827724,
			"deaths": 19,
			"deaths_rate_per_10k": 10.102621364386,
			"deaths_rate_per_100k": 101.02621364386,
			"total_tested": 21992,
			"test_rate_per_10k": 11693.518370819376,
			"test_rate_per_100k": 116935.18370819376,
			"total_population": 18807,
			"latitude": 39.05,
			"longitude": -87.7763
		},
		{
			"County": "Cumberland",
			"confirmed_cases": 1032,
			"confirmed_rate_per_10k": 954.848260547742,
			"confirmed_rate_per_100k": 9548.48260547742,
			"deaths": 14,
			"deaths_rate_per_10k": 12.953367875648,
			"deaths_rate_per_100k": 129.53367875648,
			"total_tested": 8315,
			"test_rate_per_10k": 7693.375277572169,
			"test_rate_per_100k": 76933.75277572169,
			"total_population": 10808,
			"latitude": 39.2654,
			"longitude": -88.2072
		},
		{
			"County": "De Witt",
			"confirmed_cases": 1066,
			"confirmed_rate_per_10k": 676.0098928277,
			"confirmed_rate_per_100k": 6760.098928277,
			"deaths": 18,
			"deaths_rate_per_10k": 11.414801192213,
			"deaths_rate_per_100k": 114.14801192213,
			"total_tested": 13207,
			"test_rate_per_10k": 8375.293296975078,
			"test_rate_per_100k": 83752.93296975078,
			"total_population": 15769,
			"latitude": 40.181,
			"longitude": -88.9031
		},
		{
			"County": "DeKalb",
			"confirmed_cases": 7142,
			"confirmed_rate_per_10k": 685.787810990657,
			"confirmed_rate_per_100k": 6857.87810990657,
			"deaths": 84,
			"deaths_rate_per_10k": 8.065832557157,
			"deaths_rate_per_100k": 80.65832557157,
			"total_tested": 86293,
			"test_rate_per_10k": 8286.01058160414,
			"test_rate_per_100k": 82860.1058160414,
			"total_population": 104143,
			"latitude": 41.833,
			"longitude": -88.7109
		},
		{
			"County": "Douglas",
			"confirmed_cases": 1956,
			"confirmed_rate_per_10k": 1004.158324349299,
			"confirmed_rate_per_100k": 10041.58324349299,
			"deaths": 27,
			"deaths_rate_per_10k": 13.861081164331,
			"deaths_rate_per_100k": 138.61081164331,
			"total_tested": 21051,
			"test_rate_per_10k": 10807.022947789928,
			"test_rate_per_100k": 108070.22947789928,
			"total_population": 19479,
			"latitude": 39.7618,
			"longitude": -88.2072
		},
		{
			"County": "DuPage",
			"confirmed_cases": 66414,
			"confirmed_rate_per_10k": 715.214158255159,
			"confirmed_rate_per_100k": 7152.14158255159,
			"deaths": 1029,
			"deaths_rate_per_10k": 11.081328768702,
			"deaths_rate_per_100k": 110.81328768702,
			"total_tested": 834424,
			"test_rate_per_10k": 8985.934573853448,
			"test_rate_per_100k": 89859.3457385345,
			"total_population": 928589,
			"latitude": 41.8244,
			"longitude": -88.0901
		},
		{
			"County": "Edgar",
			"confirmed_cases": 1405,
			"confirmed_rate_per_10k": 809.331797235023,
			"confirmed_rate_per_100k": 8093.31797235023,
			"deaths": 31,
			"deaths_rate_per_10k": 17.857142857143,
			"deaths_rate_per_100k": 178.57142857143,
			"total_tested": 10077,
			"test_rate_per_10k": 5804.723502304147,
			"test_rate_per_100k": 58047.23502304147,
			"total_population": 17360,
			"latitude": 39.7131,
			"longitude": -87.7763
		},
		{
			"County": "Edwards",
			"confirmed_cases": 446,
			"confirmed_rate_per_10k": 697.747183979975,
			"confirmed_rate_per_100k": 6977.47183979975,
			"deaths": 7,
			"deaths_rate_per_10k": 10.951188986233,
			"deaths_rate_per_100k": 109.51188986233,
			"total_tested": 2865,
			"test_rate_per_10k": 4482.165206508135,
			"test_rate_per_100k": 44821.65206508135,
			"total_population": 6392,
			"latitude": 38.4268,
			"longitude": -88.051
		},
		{
			"County": "Effingham",
			"confirmed_cases": 4199,
			"confirmed_rate_per_10k": 1227.49064546305,
			"confirmed_rate_per_100k": 12274.9064546305,
			"deaths": 55,
			"deaths_rate_per_10k": 16.078110383536,
			"deaths_rate_per_100k": 160.78110383536,
			"total_tested": 30334,
			"test_rate_per_10k": 8867.516370439664,
			"test_rate_per_100k": 88675.16370439663,
			"total_population": 34208,
			"latitude": 39.0622,
			"longitude": -88.5565
		},
		{
			"County": "Fayette",
			"confirmed_cases": 2829,
			"confirmed_rate_per_10k": 1320.974971983564,
			"confirmed_rate_per_100k": 13209.74971983564,
			"deaths": 49,
			"deaths_rate_per_10k": 22.880089652596,
			"deaths_rate_per_100k": 228.80089652596,
			"total_tested": 19750,
			"test_rate_per_10k": 9222.07695181173,
			"test_rate_per_100k": 92220.7695181173,
			"total_population": 21416,
			"latitude": 39.067,
			"longitude": -89.0179
		},
		{
			"County": "Ford",
			"confirmed_cases": 1331,
			"confirmed_rate_per_10k": 1003.468033775633,
			"confirmed_rate_per_100k": 10034.68033775633,
			"deaths": 39,
			"deaths_rate_per_10k": 29.402895054282,
			"deaths_rate_per_100k": 294.02895054282,
			"total_tested": 19199,
			"test_rate_per_10k": 14474.517490952954,
			"test_rate_per_100k": 144745.17490952954,
			"total_population": 13264,
			"latitude": 40.4989,
			"longitude": -88.2072
		},
		{
			"County": "Franklin",
			"confirmed_cases": 3685,
			"confirmed_rate_per_10k": 952.171778507015,
			"confirmed_rate_per_100k": 9521.71778507015,
			"deaths": 54,
			"deaths_rate_per_10k": 13.953127826154,
			"deaths_rate_per_100k": 139.53127826154,
			"total_tested": 34152,
			"test_rate_per_10k": 8824.578176274515,
			"test_rate_per_100k": 88245.78176274514,
			"total_population": 38701,
			"latitude": 38.0157,
			"longitude": -88.9031
		},
		{
			"County": "Fulton",
			"confirmed_cases": 2484,
			"confirmed_rate_per_10k": 712.89174606819,
			"confirmed_rate_per_100k": 7128.9174606819,
			"deaths": 39,
			"deaths_rate_per_10k": 11.192744805418,
			"deaths_rate_per_100k": 111.92744805418,
			"total_tested": 46410,
			"test_rate_per_10k": 13319.36631844794,
			"test_rate_per_100k": 133193.6631844794,
			"total_population": 34844,
			"latitude": 40.5532,
			"longitude": -90.2245
		},
		{
			"County": "Gallatin",
			"confirmed_cases": 374,
			"confirmed_rate_per_10k": 739.42269671807,
			"confirmed_rate_per_100k": 7394.2269671807,
			"deaths": 3,
			"deaths_rate_per_10k": 5.931198102017,
			"deaths_rate_per_100k": 59.31198102017,
			"total_tested": 2810,
			"test_rate_per_10k": 5555.555555555556,
			"test_rate_per_100k": 55555.55555555556,
			"total_population": 5058,
			"latitude": 37.7108,
			"longitude": -88.2461
		},
		{
			"County": "Greene",
			"confirmed_cases": 1218,
			"confirmed_rate_per_10k": 933.76264949402,
			"confirmed_rate_per_100k": 9337.6264949402,
			"deaths": 30,
			"deaths_rate_per_10k": 22.999080036799,
			"deaths_rate_per_100k": 229.99080036799,
			"total_tested": 10034,
			"test_rate_per_10k": 7692.425636307881,
			"test_rate_per_100k": 76924.2563630788,
			"total_population": 13044,
			"latitude": 39.403,
			"longitude": -90.3748
		},
		{
			"County": "Grundy",
			"confirmed_cases": 4184,
			"confirmed_rate_per_10k": 820.842815663502,
			"confirmed_rate_per_100k": 8208.42815663502,
			"deaths": 50,
			"deaths_rate_per_10k": 9.809307070549,
			"deaths_rate_per_100k": 98.09307070549,
			"total_tested": 33740,
			"test_rate_per_10k": 6619.320411206152,
			"test_rate_per_100k": 66193.20411206152,
			"total_population": 50972,
			"latitude": 41.3501,
			"longitude": -88.4016
		},
		{
			"County": "Hamilton",
			"confirmed_cases": 667,
			"confirmed_rate_per_10k": 817.101555800564,
			"confirmed_rate_per_100k": 8171.01555800564,
			"deaths": 12,
			"deaths_rate_per_10k": 14.700477765527,
			"deaths_rate_per_100k": 147.00477765527,
			"total_tested": 4781,
			"test_rate_per_10k": 5856.915349748867,
			"test_rate_per_100k": 58569.15349748867,
			"total_population": 8163,
			"latitude": 38.0543,
			"longitude": -88.5565
		},
		{
			"County": "Hancock",
			"confirmed_cases": 1430,
			"confirmed_rate_per_10k": 801.389822909662,
			"confirmed_rate_per_100k": 8013.89822909662,
			"deaths": 22,
			"deaths_rate_per_10k": 12.32907419861,
			"deaths_rate_per_100k": 123.2907419861,
			"total_tested": 13084,
			"test_rate_per_10k": 7332.436673391616,
			"test_rate_per_100k": 73324.36673391616,
			"total_population": 17844,
			"latitude": 40.3849,
			"longitude": -91.1353
		},
		{
			"County": "Hardin",
			"confirmed_cases": 283,
			"confirmed_rate_per_10k": 723.785166240409,
			"confirmed_rate_per_100k": 7237.85166240409,
			"deaths": 8,
			"deaths_rate_per_10k": 20.460358056266,
			"deaths_rate_per_100k": 204.60358056266,
			"total_tested": 3511,
			"test_rate_per_10k": 8979.539641943735,
			"test_rate_per_100k": 89795.39641943734,
			"total_population": 3910,
			"latitude": 37.4995,
			"longitude": -88.3628
		},
		{
			"County": "Henderson",
			"confirmed_cases": 430,
			"confirmed_rate_per_10k": 640.930093903711,
			"confirmed_rate_per_100k": 6409.30093903711,
			"deaths": 4,
			"deaths_rate_per_10k": 5.962140408407,
			"deaths_rate_per_100k": 59.62140408407,
			"total_tested": 4752,
			"test_rate_per_10k": 7083.022805187062,
			"test_rate_per_100k": 70830.22805187062,
			"total_population": 6709,
			"latitude": 40.8336,
			"longitude": -90.9438
		},
		{
			"County": "Henry",
			"confirmed_cases": 3906,
			"confirmed_rate_per_10k": 795.681401507435,
			"confirmed_rate_per_100k": 7956.81401507435,
			"deaths": 44,
			"deaths_rate_per_10k": 8.963128946832,
			"deaths_rate_per_100k": 89.63128946832,
			"total_tested": 46633,
			"test_rate_per_10k": 9499.49073130984,
			"test_rate_per_100k": 94994.90731309839,
			"total_population": 49090,
			"latitude": 41.3611,
			"longitude": -90.0747
		},
		{
			"County": "Illinois",
			"confirmed_cases": 1033526,
			"confirmed_rate_per_10k": 811.176132635538,
			"confirmed_rate_per_100k": 8111.76132635538,
			"deaths": 17627,
			"deaths_rate_per_10k": 13.834776957683,
			"deaths_rate_per_100k": 138.34776957683,
			"total_tested": 14169986,
			"test_rate_per_10k": 11121.495195069807,
			"test_rate_per_100k": 111214.95195069806,
			"total_population": 12741080,
			"latitude": 39.839888,
			"longitude": -89.510168
		},
		{
			"County": "Iroquois",
			"confirmed_cases": 2511,
			"confirmed_rate_per_10k": 909.650775249964,
			"confirmed_rate_per_100k": 9096.50775249964,
			"deaths": 51,
			"deaths_rate_per_10k": 18.475583248805,
			"deaths_rate_per_100k": 184.75583248805,
			"total_tested": 32313,
			"test_rate_per_10k": 11705.912186639616,
			"test_rate_per_100k": 117059.12186639618,
			"total_population": 27604,
			"latitude": 40.774,
			"longitude": -87.6976
		},
		{
			"County": "Jackson",
			"confirmed_cases": 3969,
			"confirmed_rate_per_10k": 691.2346087532,
			"confirmed_rate_per_100k": 6912.346087532,
			"deaths": 57,
			"deaths_rate_per_10k": 9.927027638935,
			"deaths_rate_per_100k": 99.27027638935,
			"total_tested": 48352,
			"test_rate_per_10k": 8420.905971890837,
			"test_rate_per_100k": 84209.05971890838,
			"total_population": 57419,
			"latitude": 37.7218,
			"longitude": -89.3227
		},
		{
			"County": "Jasper",
			"confirmed_cases": 989,
			"confirmed_rate_per_10k": 1029.029237332223,
			"confirmed_rate_per_100k": 10290.29237332223,
			"deaths": 14,
			"deaths_rate_per_10k": 14.566642388929,
			"deaths_rate_per_100k": 145.66642388929,
			"total_tested": 7990,
			"test_rate_per_10k": 8313.390906253251,
			"test_rate_per_100k": 83133.9090625325,
			"total_population": 9611,
			"latitude": 39.0555,
			"longitude": -88.0901
		},
		{
			"County": "Jefferson",
			"confirmed_cases": 3243,
			"confirmed_rate_per_10k": 857.482813326282,
			"confirmed_rate_per_100k": 8574.82813326282,
			"deaths": 95,
			"deaths_rate_per_10k": 25.118984664199,
			"deaths_rate_per_100k": 251.18984664199,
			"total_tested": 27348,
			"test_rate_per_10k": 7231.094658910629,
			"test_rate_per_100k": 72310.94658910629,
			"total_population": 37820,
			"latitude": 38.2267,
			"longitude": -88.8647
		},
		{
			"County": "Jersey",
			"confirmed_cases": 2110,
			"confirmed_rate_per_10k": 965.807662379274,
			"confirmed_rate_per_100k": 9658.07662379274,
			"deaths": 32,
			"deaths_rate_per_10k": 14.647319998169,
			"deaths_rate_per_100k": 146.47319998169,
			"total_tested": 20501,
			"test_rate_per_10k": 9383.897102577013,
			"test_rate_per_100k": 93838.97102577014,
			"total_population": 21847,
			"latitude": 39.0705,
			"longitude": -90.3748
		},
		{
			"County": "Jo Daviess",
			"confirmed_cases": 1432,
			"confirmed_rate_per_10k": 670.223719928859,
			"confirmed_rate_per_100k": 6702.23719928859,
			"deaths": 21,
			"deaths_rate_per_10k": 9.828699803426,
			"deaths_rate_per_100k": 98.28699803426,
			"total_tested": 15571,
			"test_rate_per_10k": 7287.746887578396,
			"test_rate_per_100k": 72877.46887578396,
			"total_population": 21366,
			"latitude": 42.3149,
			"longitude": -90.2245
		},
		{
			"County": "Johnson",
			"confirmed_cases": 1170,
			"confirmed_rate_per_10k": 939.306358381503,
			"confirmed_rate_per_100k": 9393.06358381503,
			"deaths": 9,
			"deaths_rate_per_10k": 7.225433526012,
			"deaths_rate_per_100k": 72.25433526012,
			"total_tested": 14641,
			"test_rate_per_10k": 11754.17469492614,
			"test_rate_per_100k": 117541.7469492614,
			"total_population": 12456,
			"latitude": 37.4204,
			"longitude": -88.9031
		},
		{
			"County": "Kane",
			"confirmed_cases": 44266,
			"confirmed_rate_per_10k": 828.616140287824,
			"confirmed_rate_per_100k": 8286.16140287824,
			"deaths": 609,
			"deaths_rate_per_10k": 11.399883193315,
			"deaths_rate_per_100k": 113.99883193315,
			"total_tested": 431762,
			"test_rate_per_10k": 8082.161522679965,
			"test_rate_per_100k": 80821.61522679965,
			"total_population": 534216,
			"latitude": 41.9879,
			"longitude": -88.4016
		},
		{
			"County": "Kankakee",
			"confirmed_cases": 11181,
			"confirmed_rate_per_10k": 1016.232821929761,
			"confirmed_rate_per_100k": 10162.32821929761,
			"deaths": 163,
			"deaths_rate_per_10k": 14.814949465571,
			"deaths_rate_per_100k": 148.14949465571,
			"total_tested": 146342,
			"test_rate_per_10k": 13300.916163746091,
			"test_rate_per_100k": 133009.16163746093,
			"total_population": 110024,
			"latitude": 41.1791,
			"longitude": -87.7763
		},
		{
			"County": "Kendall",
			"confirmed_cases": 9223,
			"confirmed_rate_per_10k": 721.025681116366,
			"confirmed_rate_per_100k": 7210.25681116366,
			"deaths": 69,
			"deaths_rate_per_10k": 5.394207090646,
			"deaths_rate_per_100k": 53.94207090646,
			"total_tested": 86486,
			"test_rate_per_10k": 6761.208615095962,
			"test_rate_per_100k": 67612.08615095961,
			"total_population": 127915,
			"latitude": 41.5507,
			"longitude": -88.4404
		},
		{
			"County": "Knox",
			"confirmed_cases": 4374,
			"confirmed_rate_per_10k": 872.844827586207,
			"confirmed_rate_per_100k": 8728.44827586207,
			"deaths": 110,
			"deaths_rate_per_10k": 21.950830140485,
			"deaths_rate_per_100k": 219.50830140485,
			"total_tested": 54282,
			"test_rate_per_10k": 10832.13601532567,
			"test_rate_per_100k": 108321.3601532567,
			"total_population": 50112,
			"latitude": 40.8776,
			"longitude": -90.2245
		},
		{
			"County": "Lake",
			"confirmed_cases": 51253,
			"confirmed_rate_per_10k": 731.316492397607,
			"confirmed_rate_per_100k": 7313.16492397607,
			"deaths": 796,
			"deaths_rate_per_10k": 11.357928861696,
			"deaths_rate_per_100k": 113.57928861696,
			"total_tested": 625093,
			"test_rate_per_10k": 8919.298776311583,
			"test_rate_per_100k": 89192.98776311585,
			"total_population": 700832,
			"latitude": 42.3689,
			"longitude": -87.8272
		},
		{
			"County": "LaSalle",
			"confirmed_cases": 8991,
			"confirmed_rate_per_10k": 821.621127661519,
			"confirmed_rate_per_100k": 8216.21127661519,
			"deaths": 193,
			"deaths_rate_per_10k": 17.636845471991,
			"deaths_rate_per_100k": 176.36845471991,
			"total_tested": 101545,
			"test_rate_per_10k": 9279.448048981085,
			"test_rate_per_100k": 92794.48048981084,
			"total_population": 109430,
			"latitude": 41.4364,
			"longitude": -88.9414
		},
		{
			"County": "Lawrence",
			"confirmed_cases": 2107,
			"confirmed_rate_per_10k": 1336.504915953061,
			"confirmed_rate_per_100k": 13365.04915953061,
			"deaths": 20,
			"deaths_rate_per_10k": 12.686330478909,
			"deaths_rate_per_100k": 126.86330478909,
			"total_tested": 19517,
			"test_rate_per_10k": 12379.955597843324,
			"test_rate_per_100k": 123799.55597843324,
			"total_population": 15765,
			"latitude": 38.7158,
			"longitude": -87.7763
		},
		{
			"County": "Lee",
			"confirmed_cases": 2909,
			"confirmed_rate_per_10k": 850.013149051807,
			"confirmed_rate_per_100k": 8500.13149051807,
			"deaths": 34,
			"deaths_rate_per_10k": 9.934839143266,
			"deaths_rate_per_100k": 99.34839143266,
			"total_tested": 36158,
			"test_rate_per_10k": 10565.409227712356,
			"test_rate_per_100k": 105654.09227712356,
			"total_population": 34223,
			"latitude": 41.679,
			"longitude": -89.3227
		},
		{
			"County": "Livingston",
			"confirmed_cases": 3403,
			"confirmed_rate_per_10k": 951.595313330164,
			"confirmed_rate_per_100k": 9515.95313330164,
			"deaths": 57,
			"deaths_rate_per_10k": 15.939151589721,
			"deaths_rate_per_100k": 159.39151589721,
			"total_tested": 51783,
			"test_rate_per_10k": 14480.299767903582,
			"test_rate_per_100k": 144802.99767903582,
			"total_population": 35761,
			"latitude": 40.8689,
			"longitude": -88.5565
		},
		{
			"County": "Logan",
			"confirmed_cases": 2953,
			"confirmed_rate_per_10k": 1020.916162489196,
			"confirmed_rate_per_100k": 10209.16162489196,
			"deaths": 42,
			"deaths_rate_per_10k": 14.520311149525,
			"deaths_rate_per_100k": 145.20311149525,
			"total_tested": 48937,
			"test_rate_per_10k": 16918.58254105445,
			"test_rate_per_100k": 169185.82541054452,
			"total_population": 28925,
			"latitude": 40.0613,
			"longitude": -89.3227
		},
		{
			"County": "Macon",
			"confirmed_cases": 8483,
			"confirmed_rate_per_10k": 810.12682405073,
			"confirmed_rate_per_100k": 8101.2682405073,
			"deaths": 165,
			"deaths_rate_per_10k": 15.757506303003,
			"deaths_rate_per_100k": 157.57506303003,
			"total_tested": 107991,
			"test_rate_per_10k": 10313.14462525785,
			"test_rate_per_100k": 103131.4462525785,
			"total_population": 104712,
			"latitude": 39.8949,
			"longitude": -89.0179
		},
		{
			"County": "Macoupin",
			"confirmed_cases": 3606,
			"confirmed_rate_per_10k": 795.798115331141,
			"confirmed_rate_per_100k": 7957.98115331141,
			"deaths": 66,
			"deaths_rate_per_10k": 14.565356520204,
			"deaths_rate_per_100k": 145.65356520204,
			"total_tested": 47967,
			"test_rate_per_10k": 10585.7038818882,
			"test_rate_per_100k": 105857.038818882,
			"total_population": 45313,
			"latitude": 39.2375,
			"longitude": -89.9253
		},
		{
			"County": "Madison",
			"confirmed_cases": 23063,
			"confirmed_rate_per_10k": 872.075655767769,
			"confirmed_rate_per_100k": 8720.75655767769,
			"deaths": 378,
			"deaths_rate_per_10k": 14.293222819244,
			"deaths_rate_per_100k": 142.93222819244,
			"total_tested": 207318,
			"test_rate_per_10k": 7839.265524973437,
			"test_rate_per_100k": 78392.65524973437,
			"total_population": 264461,
			"latitude": 38.9041,
			"longitude": -89.9253
		},
		{
			"County": "Marion",
			"confirmed_cases": 3843,
			"confirmed_rate_per_10k": 1021.531100478469,
			"confirmed_rate_per_100k": 10215.31100478469,
			"deaths": 104,
			"deaths_rate_per_10k": 27.644869750133,
			"deaths_rate_per_100k": 276.44869750133,
			"total_tested": 42312,
			"test_rate_per_10k": 11247.208931419458,
			"test_rate_per_100k": 112472.08931419459,
			"total_population": 37620,
			"latitude": 38.7313,
			"longitude": -88.8647
		},
		{
			"County": "Marshall",
			"confirmed_cases": 631,
			"confirmed_rate_per_10k": 547.078203572048,
			"confirmed_rate_per_100k": 5470.78203572048,
			"deaths": 12,
			"deaths_rate_per_10k": 10.40402288885,
			"deaths_rate_per_100k": 104.0402288885,
			"total_tested": 12426,
			"test_rate_per_10k": 10773.365701404544,
			"test_rate_per_100k": 107733.65701404543,
			"total_population": 11534,
			"latitude": 40.9973,
			"longitude": -89.3606
		},
		{
			"County": "Mason",
			"confirmed_cases": 1129,
			"confirmed_rate_per_10k": 832.288978990048,
			"confirmed_rate_per_100k": 8322.88978990048,
			"deaths": 38,
			"deaths_rate_per_10k": 28.013269443421,
			"deaths_rate_per_100k": 280.13269443421,
			"total_tested": 14181,
			"test_rate_per_10k": 10454.10984150387,
			"test_rate_per_100k": 104541.0984150387,
			"total_population": 13565,
			"latitude": 40.2271,
			"longitude": -89.9253
		},
		{
			"County": "Massac",
			"confirmed_cases": 967,
			"confirmed_rate_per_10k": 686.789772727273,
			"confirmed_rate_per_100k": 6867.89772727273,
			"deaths": 27,
			"deaths_rate_per_10k": 19.176136363636,
			"deaths_rate_per_100k": 191.76136363636,
			"total_tested": 7837,
			"test_rate_per_10k": 5566.051136363636,
			"test_rate_per_100k": 55660.51136363636,
			"total_population": 14080,
			"latitude": 37.2478,
			"longitude": -88.7494
		},
		{
			"County": "McDonough",
			"confirmed_cases": 2067,
			"confirmed_rate_per_10k": 690.035052578868,
			"confirmed_rate_per_100k": 6900.35052578868,
			"deaths": 37,
			"deaths_rate_per_10k": 12.351861125021,
			"deaths_rate_per_100k": 123.51861125021,
			"total_tested": 28669,
			"test_rate_per_10k": 9570.68936738441,
			"test_rate_per_100k": 95706.8936738441,
			"total_population": 29955,
			"latitude": 40.3885,
			"longitude": -90.6773
		},
		{
			"County": "McHenry",
			"confirmed_cases": 20747,
			"confirmed_rate_per_10k": 672.359594257381,
			"confirmed_rate_per_100k": 6723.59594257381,
			"deaths": 216,
			"deaths_rate_per_10k": 7.000032407557,
			"deaths_rate_per_100k": 70.00032407557,
			"total_tested": 209131,
			"test_rate_per_10k": 6777.424895485627,
			"test_rate_per_100k": 67774.24895485627,
			"total_population": 308570,
			"latitude": 42.304,
			"longitude": -88.4016
		},
		{
			"County": "McLean",
			"confirmed_cases": 12671,
			"confirmed_rate_per_10k": 733.156664429375,
			"confirmed_rate_per_100k": 7331.56664429375,
			"deaths": 120,
			"deaths_rate_per_10k": 6.943319369547,
			"deaths_rate_per_100k": 69.43319369547,
			"total_tested": 197807,
			"test_rate_per_10k": 11445.309787765871,
			"test_rate_per_100k": 114453.09787765871,
			"total_population": 172828,
			"latitude": 40.5478,
			"longitude": -88.8647
		},
		{
			"County": "Menard",
			"confirmed_cases": 822,
			"confirmed_rate_per_10k": 668.9453125,
			"confirmed_rate_per_100k": 6689.453125,
			"deaths": 6,
			"deaths_rate_per_10k": 4.8828125,
			"deaths_rate_per_100k": 48.828125,
			"total_tested": 12752,
			"test_rate_per_10k": 10377.604166666668,
			"test_rate_per_100k": 103776.04166666667,
			"total_population": 12288,
			"latitude": 40.0221,
			"longitude": -89.813
		},
		{
			"County": "Mercer",
			"confirmed_cases": 1144,
			"confirmed_rate_per_10k": 733.2863277995,
			"confirmed_rate_per_100k": 7332.863277995,
			"deaths": 26,
			"deaths_rate_per_10k": 16.66559835908,
			"deaths_rate_per_100k": 166.6559835908,
			"total_tested": 12412,
			"test_rate_per_10k": 7955.900262803666,
			"test_rate_per_100k": 79559.00262803666,
			"total_population": 15601,
			"latitude": 41.1985,
			"longitude": -90.6773
		},
		{
			"County": "Monroe",
			"confirmed_cases": 3430,
			"confirmed_rate_per_10k": 998.980632008155,
			"confirmed_rate_per_100k": 9989.80632008155,
			"deaths": 62,
			"deaths_rate_per_10k": 18.057375855541,
			"deaths_rate_per_100k": 180.57375855541,
			"total_tested": 27571,
			"test_rate_per_10k": 8029.998543760012,
			"test_rate_per_100k": 80299.98543760012,
			"total_population": 34335,
			"latitude": 38.2743,
			"longitude": -90.187
		},
		{
			"County": "Montgomery",
			"confirmed_cases": 2754,
			"confirmed_rate_per_10k": 962.903394986189,
			"confirmed_rate_per_100k": 9629.03394986189,
			"deaths": 31,
			"deaths_rate_per_10k": 10.838781860774,
			"deaths_rate_per_100k": 108.38781860774,
			"total_tested": 38570,
			"test_rate_per_10k": 13485.542463550226,
			"test_rate_per_100k": 134855.42463550225,
			"total_population": 28601,
			"latitude": 39.2364,
			"longitude": -89.4742
		},
		{
			"County": "Morgan",
			"confirmed_cases": 3166,
			"confirmed_rate_per_10k": 931.834235931246,
			"confirmed_rate_per_100k": 9318.34235931246,
			"deaths": 69,
			"deaths_rate_per_10k": 20.308453025665,
			"deaths_rate_per_100k": 203.08453025665,
			"total_tested": 36892,
			"test_rate_per_10k": 10858.25288438898,
			"test_rate_per_100k": 108582.5288438898,
			"total_population": 33976,
			"latitude": 39.7341,
			"longitude": -90.2245
		},
		{
			"County": "Moultrie",
			"confirmed_cases": 1325,
			"confirmed_rate_per_10k": 900.319358564925,
			"confirmed_rate_per_100k": 9003.19358564925,
			"deaths": 19,
			"deaths_rate_per_10k": 12.910239858667,
			"deaths_rate_per_100k": 129.10239858667,
			"total_tested": 15608,
			"test_rate_per_10k": 10605.42230074064,
			"test_rate_per_100k": 106054.2230074064,
			"total_population": 14717,
			"latitude": 39.6021,
			"longitude": -88.5952
		},
		{
			"County": "Ogle",
			"confirmed_cases": 4467,
			"confirmed_rate_per_10k": 877.20676315221,
			"confirmed_rate_per_100k": 8772.0676315221,
			"deaths": 59,
			"deaths_rate_per_10k": 11.586120220725,
			"deaths_rate_per_100k": 115.86120220725,
			"total_tested": 40620,
			"test_rate_per_10k": 7976.749209590951,
			"test_rate_per_100k": 79767.4920959095,
			"total_population": 50923,
			"latitude": 41.997,
			"longitude": -89.3227
		},
		{
			"County": "Peoria",
			"confirmed_cases": 14337,
			"confirmed_rate_per_10k": 793.761522746524,
			"confirmed_rate_per_100k": 7937.61522746524,
			"deaths": 212,
			"deaths_rate_per_10k": 11.737284147469,
			"deaths_rate_per_100k": 117.37284147469,
			"total_tested": 205247,
			"test_rate_per_10k": 11363.407355733829,
			"test_rate_per_100k": 113634.07355733828,
			"total_population": 180621,
			"latitude": 40.7156,
			"longitude": -89.7755
		},
		{
			"County": "Perry",
			"confirmed_cases": 2503,
			"confirmed_rate_per_10k": 1182.110135071314,
			"confirmed_rate_per_100k": 11821.10135071314,
			"deaths": 52,
			"deaths_rate_per_10k": 24.558420704638,
			"deaths_rate_per_100k": 245.58420704638,
			"total_tested": 22329,
			"test_rate_per_10k": 10545.480306035704,
			"test_rate_per_100k": 105454.80306035704,
			"total_population": 21174,
			"latitude": 38.0612,
			"longitude": -89.3227
		},
		{
			"County": "Piatt",
			"confirmed_cases": 1126,
			"confirmed_rate_per_10k": 686.752866552818,
			"confirmed_rate_per_100k": 6867.52866552818,
			"deaths": 10,
			"deaths_rate_per_10k": 6.099048548426,
			"deaths_rate_per_100k": 60.99048548426,
			"total_tested": 21414,
			"test_rate_per_10k": 13060.50256160039,
			"test_rate_per_100k": 130605.0256160039,
			"total_population": 16396,
			"latitude": 40.02861312,
			"longitude": -88.57328
		},
		{
			"County": "Pike",
			"confirmed_cases": 1506,
			"confirmed_rate_per_10k": 964.704375120108,
			"confirmed_rate_per_100k": 9647.04375120108,
			"deaths": 40,
			"deaths_rate_per_10k": 25.622958170521,
			"deaths_rate_per_100k": 256.22958170521,
			"total_tested": 12444,
			"test_rate_per_10k": 7971.302286849017,
			"test_rate_per_100k": 79713.02286849017,
			"total_population": 15611,
			"latitude": 39.5662,
			"longitude": -90.8294
		},
		{
			"County": "Pope",
			"confirmed_cases": 227,
			"confirmed_rate_per_10k": 538.936372269706,
			"confirmed_rate_per_100k": 5389.36372269706,
			"deaths": 1,
			"deaths_rate_per_10k": 2.374169040836,
			"deaths_rate_per_100k": 23.74169040836,
			"total_tested": 1928,
			"test_rate_per_10k": 4577.397910731244,
			"test_rate_per_100k": 45773.97910731244,
			"total_population": 4212,
			"latitude": 37.4171,
			"longitude": -88.5952
		},
		{
			"County": "Pulaski",
			"confirmed_cases": 585,
			"confirmed_rate_per_10k": 1070.840197693575,
			"confirmed_rate_per_100k": 10708.40197693575,
			"deaths": 3,
			"deaths_rate_per_10k": 5.4914881933,
			"deaths_rate_per_100k": 54.914881933,
			"total_tested": 4095,
			"test_rate_per_10k": 7495.881383855025,
			"test_rate_per_100k": 74958.81383855025,
			"total_population": 5463,
			"latitude": 37.2512,
			"longitude": -89.1325
		},
		{
			"County": "Putnam",
			"confirmed_cases": 342,
			"confirmed_rate_per_10k": 595.81881533101,
			"confirmed_rate_per_100k": 5958.1881533101,
			"deaths": 1,
			"deaths_rate_per_10k": 1.742160278746,
			"deaths_rate_per_100k": 17.42160278746,
			"total_tested": 3772,
			"test_rate_per_10k": 6571.428571428571,
			"test_rate_per_100k": 65714.28571428571,
			"total_population": 5740,
			"latitude": 41.2385,
			"longitude": -89.2847
		},
		{
			"County": "Randolph",
			"confirmed_cases": 3585,
			"confirmed_rate_per_10k": 1116.613717062231,
			"confirmed_rate_per_100k": 11166.13717062231,
			"deaths": 56,
			"deaths_rate_per_10k": 17.442222637513,
			"deaths_rate_per_100k": 174.42222637513,
			"total_tested": 34223,
			"test_rate_per_10k": 10659.378309350277,
			"test_rate_per_100k": 106593.78309350277,
			"total_population": 32106,
			"latitude": 38.0629,
			"longitude": -89.7755
		},
		{
			"County": "Richland",
			"confirmed_cases": 1479,
			"confirmed_rate_per_10k": 938.273171350631,
			"confirmed_rate_per_100k": 9382.73171350631,
			"deaths": 32,
			"deaths_rate_per_10k": 20.300704180676,
			"deaths_rate_per_100k": 203.00704180676,
			"total_tested": 17037,
			"test_rate_per_10k": 10808.221785193175,
			"test_rate_per_100k": 108082.21785193174,
			"total_population": 15763,
			"latitude": 38.7213,
			"longitude": -88.0901
		},
		{
			"County": "Rock Island",
			"confirmed_cases": 11548,
			"confirmed_rate_per_10k": 804.867679140211,
			"confirmed_rate_per_100k": 8048.67679140211,
			"deaths": 250,
			"deaths_rate_per_10k": 17.424395547718,
			"deaths_rate_per_100k": 174.24395547718,
			"total_tested": 127519,
			"test_rate_per_10k": 8887.765983398036,
			"test_rate_per_100k": 88877.65983398036,
			"total_population": 143477,
			"latitude": 41.5095,
			"longitude": -90.5787
		},
		{
			"County": "Saline",
			"confirmed_cases": 1955,
			"confirmed_rate_per_10k": 817.786329791684,
			"confirmed_rate_per_100k": 8177.86329791684,
			"deaths": 37,
			"deaths_rate_per_10k": 15.477286036978,
			"deaths_rate_per_100k": 154.77286036978,
			"total_tested": 20938,
			"test_rate_per_10k": 8758.470676817535,
			"test_rate_per_100k": 87584.70676817535,
			"total_population": 23906,
			"latitude": 37.715,
			"longitude": -88.5565
		},
		{
			"County": "Sangamon",
			"confirmed_cases": 14022,
			"confirmed_rate_per_10k": 717.795933411143,
			"confirmed_rate_per_100k": 7177.95933411143,
			"deaths": 193,
			"deaths_rate_per_10k": 9.87980424678,
			"deaths_rate_per_100k": 98.7980424678,
			"total_tested": 248160,
			"test_rate_per_10k": 12703.483014927207,
			"test_rate_per_100k": 127034.83014927206,
			"total_population": 195348,
			"latitude": 39.7337,
			"longitude": -89.6252
		},
		{
			"County": "Schuyler",
			"confirmed_cases": 587,
			"confirmed_rate_per_10k": 849.862458375561,
			"confirmed_rate_per_100k": 8498.62458375561,
			"deaths": 3,
			"deaths_rate_per_10k": 4.343419719126,
			"deaths_rate_per_100k": 43.43419719126,
			"total_tested": 7757,
			"test_rate_per_10k": 11230.635587085564,
			"test_rate_per_100k": 112306.35587085565,
			"total_population": 6907,
			"latitude": 40.1845,
			"longitude": -90.6394
		},
		{
			"County": "Scott",
			"confirmed_cases": 354,
			"confirmed_rate_per_10k": 718.63580998782,
			"confirmed_rate_per_100k": 7186.3580998782,
			"deaths": 1,
			"deaths_rate_per_10k": 2.030044660983,
			"deaths_rate_per_100k": 20.30044660983,
			"total_tested": 5735,
			"test_rate_per_10k": 11642.306130734876,
			"test_rate_per_100k": 116423.06130734876,
			"total_population": 4926,
			"latitude": 39.6095,
			"longitude": -90.488
		},
		{
			"County": "Shelby",
			"confirmed_cases": 1903,
			"confirmed_rate_per_10k": 875.304723793754,
			"confirmed_rate_per_100k": 8753.04723793754,
			"deaths": 31,
			"deaths_rate_per_10k": 14.258773745458,
			"deaths_rate_per_100k": 142.58773745458,
			"total_tested": 16644,
			"test_rate_per_10k": 7655.581619980682,
			"test_rate_per_100k": 76555.81619980682,
			"total_population": 21741,
			"latitude": 39.3981,
			"longitude": -88.8647
		},
		{
			"County": "St. Clair",
			"confirmed_cases": 21117,
			"confirmed_rate_per_10k": 808.897605522123,
			"confirmed_rate_per_100k": 8088.97605522123,
			"deaths": 359,
			"deaths_rate_per_10k": 13.751680654565,
			"deaths_rate_per_100k": 137.51680654565,
			"total_tested": 215218,
			"test_rate_per_10k": 8244.036788618665,
			"test_rate_per_100k": 82440.36788618665,
			"total_population": 261059,
			"latitude": 38.4008,
			"longitude": -89.9253
		},
		{
			"County": "Stark",
			"confirmed_cases": 490,
			"confirmed_rate_per_10k": 902.892942693938,
			"confirmed_rate_per_100k": 9028.92942693938,
			"deaths": 20,
			"deaths_rate_per_10k": 36.852773171181,
			"deaths_rate_per_100k": 368.52773171181,
			"total_tested": 6205,
			"test_rate_per_10k": 11433.572876358947,
			"test_rate_per_100k": 114335.72876358946,
			"total_population": 5427,
			"latitude": 41.0796,
			"longitude": -89.813
		},
		{
			"County": "Stephenson",
			"confirmed_cases": 3418,
			"confirmed_rate_per_10k": 763.747681719661,
			"confirmed_rate_per_100k": 7637.47681719661,
			"deaths": 52,
			"deaths_rate_per_10k": 11.61933278216,
			"deaths_rate_per_100k": 116.1933278216,
			"total_tested": 36642,
			"test_rate_per_10k": 8187.607534690412,
			"test_rate_per_100k": 81876.07534690412,
			"total_population": 44753,
			"latitude": 42.3145,
			"longitude": -89.6252
		},
		{
			"County": "Tazewell",
			"confirmed_cases": 11424,
			"confirmed_rate_per_10k": 863.309352517986,
			"confirmed_rate_per_100k": 8633.09352517986,
			"deaths": 202,
			"deaths_rate_per_10k": 15.265098845294,
			"deaths_rate_per_100k": 152.65098845294,
			"total_tested": 145839,
			"test_rate_per_10k": 11021.023517320597,
			"test_rate_per_100k": 110210.23517320598,
			"total_population": 132328,
			"latitude": 40.5522,
			"longitude": -89.4742
		},
		{
			"County": "Union",
			"confirmed_cases": 1889,
			"confirmed_rate_per_10k": 1121.667359420462,
			"confirmed_rate_per_100k": 11216.67359420462,
			"deaths": 30,
			"deaths_rate_per_10k": 17.81366902203,
			"deaths_rate_per_100k": 178.1366902203,
			"total_tested": 21628,
			"test_rate_per_10k": 12842.467786948519,
			"test_rate_per_100k": 128424.67786948518,
			"total_population": 16841,
			"latitude": 37.5087,
			"longitude": -89.2847
		},
		{
			"County": "Vermilion",
			"confirmed_cases": 7079,
			"confirmed_rate_per_10k": 921.672785980262,
			"confirmed_rate_per_100k": 9216.72785980262,
			"deaths": 81,
			"deaths_rate_per_10k": 10.546051089759,
			"deaths_rate_per_100k": 105.46051089759,
			"total_tested": 82794,
			"test_rate_per_10k": 10779.626591672526,
			"test_rate_per_100k": 107796.26591672526,
			"total_population": 76806,
			"latitude": 40.1225,
			"longitude": -87.6976
		},
		{
			"County": "Wabash",
			"confirmed_cases": 1128,
			"confirmed_rate_per_10k": 976.707940081392,
			"confirmed_rate_per_100k": 9767.07940081392,
			"deaths": 11,
			"deaths_rate_per_10k": 9.52463416746,
			"deaths_rate_per_100k": 95.2463416746,
			"total_tested": 9545,
			"test_rate_per_10k": 8264.784829855398,
			"test_rate_per_100k": 82647.84829855399,
			"total_population": 11549,
			"latitude": 38.4226,
			"longitude": -87.8157
		},
		{
			"County": "Warren",
			"confirmed_cases": 1560,
			"confirmed_rate_per_10k": 915.922968529826,
			"confirmed_rate_per_100k": 9159.22968529826,
			"deaths": 39,
			"deaths_rate_per_10k": 22.898074213246,
			"deaths_rate_per_100k": 228.98074213246,
			"total_tested": 11483,
			"test_rate_per_10k": 6742.015030530766,
			"test_rate_per_100k": 67420.15030530766,
			"total_population": 17032,
			"latitude": 40.8759,
			"longitude": -90.6773
		},
		{
			"County": "Washington",
			"confirmed_cases": 1377,
			"confirmed_rate_per_10k": 983.922829581994,
			"confirmed_rate_per_100k": 9839.22829581994,
			"deaths": 19,
			"deaths_rate_per_10k": 13.576277241872,
			"deaths_rate_per_100k": 135.76277241872,
			"total_tested": 8856,
			"test_rate_per_10k": 6327.974276527331,
			"test_rate_per_100k": 63279.74276527331,
			"total_population": 13995,
			"latitude": 38.3989,
			"longitude": -89.3227
		},
		{
			"County": "Wayne",
			"confirmed_cases": 1450,
			"confirmed_rate_per_10k": 887.82757776145,
			"confirmed_rate_per_100k": 8878.2757776145,
			"deaths": 41,
			"deaths_rate_per_10k": 25.104090129807,
			"deaths_rate_per_100k": 251.04090129807,
			"total_tested": 11245,
			"test_rate_per_10k": 6885.255939260348,
			"test_rate_per_100k": 68852.55939260348,
			"total_population": 16332,
			"latitude": 38.39,
			"longitude": -88.4016
		},
		{
			"County": "White",
			"confirmed_cases": 1275,
			"confirmed_rate_per_10k": 933.040614709111,
			"confirmed_rate_per_100k": 9330.40614709111,
			"deaths": 22,
			"deaths_rate_per_10k": 16.099524332236,
			"deaths_rate_per_100k": 160.99524332236,
			"total_tested": 16227,
			"test_rate_per_10k": 11874.862788144896,
			"test_rate_per_100k": 118748.62788144896,
			"total_population": 13665,
			"latitude": 38.0501,
			"longitude": -88.2461
		},
		{
			"County": "Whiteside",
			"confirmed_cases": 5086,
			"confirmed_rate_per_10k": 914.320641426671,
			"confirmed_rate_per_100k": 9143.20641426671,
			"deaths": 133,
			"deaths_rate_per_10k": 23.909682522561,
			"deaths_rate_per_100k": 239.09682522561,
			"total_tested": 44189,
			"test_rate_per_10k": 7943.947075108762,
			"test_rate_per_100k": 79439.47075108762,
			"total_population": 55626,
			"latitude": 41.7606,
			"longitude": -89.8505
		},
		{
			"County": "Will",
			"confirmed_cases": 56145,
			"confirmed_rate_per_10k": 810.980630064566,
			"confirmed_rate_per_100k": 8109.80630064566,
			"deaths": 771,
			"deaths_rate_per_10k": 11.136629544568,
			"deaths_rate_per_100k": 111.36629544568,
			"total_tested": 552391,
			"test_rate_per_10k": 7978.954514596062,
			"test_rate_per_100k": 79789.54514596063,
			"total_population": 692310,
			"latitude": 41.5055,
			"longitude": -88.0901
		},
		{
			"County": "Williamson",
			"confirmed_cases": 5925,
			"confirmed_rate_per_10k": 883.589835361489,
			"confirmed_rate_per_100k": 8835.89835361489,
			"deaths": 102,
			"deaths_rate_per_10k": 15.21116678597,
			"deaths_rate_per_100k": 152.1116678597,
			"total_tested": 67507,
			"test_rate_per_10k": 10067.25721784777,
			"test_rate_per_100k": 100672.57217847768,
			"total_population": 67056,
			"latitude": 37.7183,
			"longitude": -88.8647
		},
		{
			"County": "Winnebago",
			"confirmed_cases": 25527,
			"confirmed_rate_per_10k": 898.581742531179,
			"confirmed_rate_per_100k": 8985.81742531179,
			"deaths": 362,
			"deaths_rate_per_10k": 12.742844470415,
			"deaths_rate_per_100k": 127.42844470415,
			"total_tested": 258834,
			"test_rate_per_10k": 9111.274601258092,
			"test_rate_per_100k": 91112.74601258092,
			"total_population": 284081,
			"latitude": 42.3121,
			"longitude": -89.1706
		},
		{
			"County": "Woodford",
			"confirmed_cases": 3042,
			"confirmed_rate_per_10k": 790.889946182045,
			"confirmed_rate_per_100k": 7908.89946182045,
			"deaths": 51,
			"deaths_rate_per_10k": 13.259496139147,
			"deaths_rate_per_100k": 132.59496139147,
			"total_tested": 42672,
			"test_rate_per_10k": 11094.298416660167,
			"test_rate_per_100k": 110942.98416660167,
			"total_population": 38463,
			"latitude": 40.7129,
			"longitude": -89.1706
		}
	]
}