{
	"lastUpdatedDate": {
		"year": 2021,
		"month": 1,
		"day": 1
	},
	"county_rates": [
		{
			"County": "Adams",
			"confirmed_cases": 6592,
			"confirmed_rate_per_10k": 1003.48601787155,
			"confirmed_rate_per_100k": 10034.8601787155,
			"deaths": 74,
			"deaths_rate_per_10k": 11.26486124431,
			"deaths_rate_per_100k": 112.6486124431,
			"total_tested": 91212,
			"test_rate_per_10k": 13885.007078595241,
			"test_rate_per_100k": 138850.0707859524,
			"total_population": 65691,
			"latitude": 40.0578,
			"longitude": -91.1353
		},
		{
			"County": "Alexander",
			"confirmed_cases": 343,
			"confirmed_rate_per_10k": 566.006600660066,
			"confirmed_rate_per_100k": 5660.06600660066,
			"deaths": 7,
			"deaths_rate_per_10k": 11.551155115512,
			"deaths_rate_per_100k": 115.51155115512,
			"total_tested": 3850,
			"test_rate_per_10k": 6353.135313531353,
			"test_rate_per_100k": 63531.35313531353,
			"total_population": 6060,
			"latitude": 37.167,
			"longitude": -89.3606
		},
		{
			"County": "Bond",
			"confirmed_cases": 1555,
			"confirmed_rate_per_10k": 935.057125676488,
			"confirmed_rate_per_100k": 9350.57125676488,
			"deaths": 15,
			"deaths_rate_per_10k": 9.019843656043,
			"deaths_rate_per_100k": 90.19843656043,
			"total_tested": 16138,
			"test_rate_per_10k": 9704.14912808178,
			"test_rate_per_100k": 97041.4912808178,
			"total_population": 16630,
			"latitude": 38.903,
			"longitude": -89.4742
		},
		{
			"County": "Boone",
			"confirmed_cases": 5095,
			"confirmed_rate_per_10k": 950.967766019001,
			"confirmed_rate_per_100k": 9509.67766019001,
			"deaths": 61,
			"deaths_rate_per_10k": 11.385482576479,
			"deaths_rate_per_100k": 113.85482576479,
			"total_tested": 40839,
			"test_rate_per_10k": 7622.487261324822,
			"test_rate_per_100k": 76224.87261324823,
			"total_population": 53577,
			"latitude": 42.3485,
			"longitude": -88.8263
		},
		{
			"County": "Brown",
			"confirmed_cases": 454,
			"confirmed_rate_per_10k": 692.495424039048,
			"confirmed_rate_per_100k": 6924.95424039048,
			"deaths": 5,
			"deaths_rate_per_10k": 7.626601586333,
			"deaths_rate_per_100k": 76.26601586333,
			"total_tested": 5869,
			"test_rate_per_10k": 8952.104942037828,
			"test_rate_per_100k": 89521.04942037827,
			"total_population": 6556,
			"latitude": 39.938,
			"longitude": -90.7153
		},
		{
			"County": "Bureau",
			"confirmed_cases": 2834,
			"confirmed_rate_per_10k": 858.970084563392,
			"confirmed_rate_per_100k": 8589.70084563392,
			"deaths": 66,
			"deaths_rate_per_10k": 20.004243324342,
			"deaths_rate_per_100k": 200.04243324342,
			"total_tested": 27073,
			"test_rate_per_10k": 8205.67999272573,
			"test_rate_per_100k": 82056.7999272573,
			"total_population": 32993,
			"latitude": 41.3599,
			"longitude": -89.4742
		},
		{
			"County": "Calhoun",
			"confirmed_cases": 382,
			"confirmed_rate_per_10k": 795.501874219075,
			"confirmed_rate_per_100k": 7955.01874219075,
			"deaths": 1,
			"deaths_rate_per_10k": 2.082465639317,
			"deaths_rate_per_100k": 20.82465639317,
			"total_tested": 3804,
			"test_rate_per_10k": 7921.699291961683,
			"test_rate_per_100k": 79216.99291961682,
			"total_population": 4802,
			"latitude": 39.1733,
			"longitude": -90.6583
		},
		{
			"County": "Carroll",
			"confirmed_cases": 1338,
			"confirmed_rate_per_10k": 934.879821129122,
			"confirmed_rate_per_100k": 9348.79821129122,
			"deaths": 31,
			"deaths_rate_per_10k": 21.660145332588,
			"deaths_rate_per_100k": 216.60145332588,
			"total_tested": 13718,
			"test_rate_per_10k": 9584.96366685299,
			"test_rate_per_100k": 95849.6366685299,
			"total_population": 14312,
			"latitude": 42.0386,
			"longitude": -89.9627
		},
		{
			"County": "Cass",
			"confirmed_cases": 1596,
			"confirmed_rate_per_10k": 1301.794453507341,
			"confirmed_rate_per_100k": 13017.94453507341,
			"deaths": 20,
			"deaths_rate_per_10k": 16.3132137031,
			"deaths_rate_per_100k": 163.132137031,
			"total_tested": 12349,
			"test_rate_per_10k": 10072.593800978793,
			"test_rate_per_100k": 100725.93800978793,
			"total_population": 12260,
			"latitude": 39.9399,
			"longitude": -90.262
		},
		{
			"County": "Champaign",
			"confirmed_cases": 13946,
			"confirmed_rate_per_10k": 664.149002538301,
			"confirmed_rate_per_100k": 6641.49002538301,
			"deaths": 84,
			"deaths_rate_per_10k": 4.000323835739,
			"deaths_rate_per_100k": 40.00323835739,
			"total_tested": 1262769,
			"test_rate_per_10k": 60136.72535395723,
			"test_rate_per_100k": 601367.2535395722,
			"total_population": 209983,
			"latitude": 40.2139,
			"longitude": -88.2461
		},
		{
			"County": "Chicago",
			"confirmed_cases": 206186,
			"confirmed_rate_per_10k": 761.960299985883,
			"confirmed_rate_per_100k": 7619.60299985883,
			"deaths": 4181,
			"deaths_rate_per_10k": 15.450884222212,
			"deaths_rate_per_100k": 154.50884222212,
			"total_tested": 2572618,
			"test_rate_per_10k": 9507.109032762082,
			"test_rate_per_100k": 95071.09032762083,
			"total_population": 2705994,
			"latitude": 41.789896,
			"longitude": -87.627734
		},
		{
			"County": "Christian",
			"confirmed_cases": 2631,
			"confirmed_rate_per_10k": 805.547901166529,
			"confirmed_rate_per_100k": 8055.47901166529,
			"deaths": 49,
			"deaths_rate_per_10k": 15.002602492269,
			"deaths_rate_per_100k": 150.02602492269,
			"total_tested": 27010,
			"test_rate_per_10k": 8269.80190441199,
			"test_rate_per_100k": 82698.0190441199,
			"total_population": 32661,
			"latitude": 39.5672,
			"longitude": -89.3227
		},
		{
			"County": "Clark",
			"confirmed_cases": 1223,
			"confirmed_rate_per_10k": 784.175429597333,
			"confirmed_rate_per_100k": 7841.75429597333,
			"deaths": 24,
			"deaths_rate_per_10k": 15.388561169531,
			"deaths_rate_per_100k": 153.88561169531,
			"total_tested": 9604,
			"test_rate_per_10k": 6157.989228007181,
			"test_rate_per_100k": 61579.89228007181,
			"total_population": 15596,
			"latitude": 39.3824,
			"longitude": -87.7763
		},
		{
			"County": "Clay",
			"confirmed_cases": 1221,
			"confirmed_rate_per_10k": 921.300837546216,
			"confirmed_rate_per_100k": 9213.00837546216,
			"deaths": 32,
			"deaths_rate_per_10k": 24.145476495888,
			"deaths_rate_per_100k": 241.45476495888,
			"total_tested": 10098,
			"test_rate_per_10k": 7619.40692673357,
			"test_rate_per_100k": 76194.0692673357,
			"total_population": 13253,
			"latitude": 38.7279,
			"longitude": -88.5565
		},
		{
			"County": "Clinton",
			"confirmed_cases": 4511,
			"confirmed_rate_per_10k": 1198.490926964053,
			"confirmed_rate_per_100k": 11984.90926964053,
			"deaths": 75,
			"deaths_rate_per_10k": 19.926140439438,
			"deaths_rate_per_100k": 199.26140439438,
			"total_tested": 37768,
			"test_rate_per_10k": 10034.272961555833,
			"test_rate_per_100k": 100342.72961555833,
			"total_population": 37639,
			"latitude": 38.5684,
			"longitude": -89.6252
		},
		{
			"County": "Coles",
			"confirmed_cases": 4324,
			"confirmed_rate_per_10k": 849.759261078903,
			"confirmed_rate_per_100k": 8497.59261078903,
			"deaths": 74,
			"deaths_rate_per_10k": 14.542596049916,
			"deaths_rate_per_100k": 145.42596049916,
			"total_tested": 47546,
			"test_rate_per_10k": 9343.814483639579,
			"test_rate_per_100k": 93438.14483639579,
			"total_population": 50885,
			"latitude": 39.556,
			"longitude": -88.2461
		},
		{
			"County": "Cook",
			"confirmed_cases": 190018,
			"confirmed_rate_per_10k": 767.904937524727,
			"confirmed_rate_per_100k": 7679.04937524727,
			"deaths": 3737,
			"deaths_rate_per_10k": 15.102046919397,
			"deaths_rate_per_100k": 151.02046919397,
			"total_tested": 2311512,
			"test_rate_per_10k": 9341.333336566311,
			"test_rate_per_100k": 93413.33336566311,
			"total_population": 2474499,
			"latitude": 42.050784,
			"longitude": -87.963759
		},
		{
			"County": "Crawford",
			"confirmed_cases": 1587,
			"confirmed_rate_per_10k": 843.834742383155,
			"confirmed_rate_per_100k": 8438.34742383155,
			"deaths": 20,
			"deaths_rate_per_10k": 10.634338278301,
			"deaths_rate_per_100k": 106.34338278301,
			"total_tested": 19738,
			"test_rate_per_10k": 10495.028446854894,
			"test_rate_per_100k": 104950.28446854894,
			"total_population": 18807,
			"latitude": 39.05,
			"longitude": -87.7763
		},
		{
			"County": "Cumberland",
			"confirmed_cases": 942,
			"confirmed_rate_per_10k": 871.576609918579,
			"confirmed_rate_per_100k": 8715.76609918579,
			"deaths": 13,
			"deaths_rate_per_10k": 12.028127313101,
			"deaths_rate_per_100k": 120.28127313101,
			"total_tested": 7841,
			"test_rate_per_10k": 7254.811250925241,
			"test_rate_per_100k": 72548.11250925242,
			"total_population": 10808,
			"latitude": 39.2654,
			"longitude": -88.2072
		},
		{
			"County": "De Witt",
			"confirmed_cases": 923,
			"confirmed_rate_per_10k": 585.325638911789,
			"confirmed_rate_per_100k": 5853.25638911789,
			"deaths": 18,
			"deaths_rate_per_10k": 11.414801192213,
			"deaths_rate_per_100k": 114.14801192213,
			"total_tested": 12108,
			"test_rate_per_10k": 7678.356268628321,
			"test_rate_per_100k": 76783.56268628321,
			"total_population": 15769,
			"latitude": 40.181,
			"longitude": -88.9031
		},
		{
			"County": "DeKalb",
			"confirmed_cases": 6687,
			"confirmed_rate_per_10k": 642.09788463939,
			"confirmed_rate_per_100k": 6420.9788463939,
			"deaths": 79,
			"deaths_rate_per_10k": 7.585723476374,
			"deaths_rate_per_100k": 75.85723476374,
			"total_tested": 82019,
			"test_rate_per_10k": 7875.6133393507,
			"test_rate_per_100k": 78756.133393507,
			"total_population": 104143,
			"latitude": 41.833,
			"longitude": -88.7109
		},
		{
			"County": "Douglas",
			"confirmed_cases": 1864,
			"confirmed_rate_per_10k": 956.927973715283,
			"confirmed_rate_per_100k": 9569.27973715283,
			"deaths": 22,
			"deaths_rate_per_10k": 11.294214282047,
			"deaths_rate_per_100k": 112.94214282047,
			"total_tested": 20012,
			"test_rate_per_10k": 10273.628009651418,
			"test_rate_per_100k": 102736.2800965142,
			"total_population": 19479,
			"latitude": 39.7618,
			"longitude": -88.2072
		},
		{
			"County": "DuPage",
			"confirmed_cases": 62300,
			"confirmed_rate_per_10k": 670.910381234324,
			"confirmed_rate_per_100k": 6709.10381234324,
			"deaths": 974,
			"deaths_rate_per_10k": 10.489032284466,
			"deaths_rate_per_100k": 104.89032284466,
			"total_tested": 787903,
			"test_rate_per_10k": 8484.948669432872,
			"test_rate_per_100k": 84849.4866943287,
			"total_population": 928589,
			"latitude": 41.8244,
			"longitude": -88.0901
		},
		{
			"County": "Edgar",
			"confirmed_cases": 1347,
			"confirmed_rate_per_10k": 775.921658986175,
			"confirmed_rate_per_100k": 7759.21658986175,
			"deaths": 27,
			"deaths_rate_per_10k": 15.552995391705,
			"deaths_rate_per_100k": 155.52995391705,
			"total_tested": 9482,
			"test_rate_per_10k": 5461.981566820276,
			"test_rate_per_100k": 54619.81566820276,
			"total_population": 17360,
			"latitude": 39.7131,
			"longitude": -87.7763
		},
		{
			"County": "Edwards",
			"confirmed_cases": 401,
			"confirmed_rate_per_10k": 627.346683354193,
			"confirmed_rate_per_100k": 6273.46683354193,
			"deaths": 5,
			"deaths_rate_per_10k": 7.822277847309,
			"deaths_rate_per_100k": 78.22277847309,
			"total_tested": 2615,
			"test_rate_per_10k": 4091.051314142678,
			"test_rate_per_100k": 40910.51314142678,
			"total_population": 6392,
			"latitude": 38.4268,
			"longitude": -88.051
		},
		{
			"County": "Effingham",
			"confirmed_cases": 3906,
			"confirmed_rate_per_10k": 1141.838166510758,
			"confirmed_rate_per_100k": 11418.38166510758,
			"deaths": 52,
			"deaths_rate_per_10k": 15.201122544434,
			"deaths_rate_per_100k": 152.01122544434,
			"total_tested": 28240,
			"test_rate_per_10k": 8255.378858746491,
			"test_rate_per_100k": 82553.78858746492,
			"total_population": 34208,
			"latitude": 39.0622,
			"longitude": -88.5565
		},
		{
			"County": "Fayette",
			"confirmed_cases": 2671,
			"confirmed_rate_per_10k": 1247.19835636907,
			"confirmed_rate_per_100k": 12471.9835636907,
			"deaths": 46,
			"deaths_rate_per_10k": 21.479267837131,
			"deaths_rate_per_100k": 214.79267837131,
			"total_tested": 18182,
			"test_rate_per_10k": 8489.914082928652,
			"test_rate_per_100k": 84899.14082928651,
			"total_population": 21416,
			"latitude": 39.067,
			"longitude": -89.0179
		},
		{
			"County": "Ford",
			"confirmed_cases": 1253,
			"confirmed_rate_per_10k": 944.662243667069,
			"confirmed_rate_per_100k": 9446.62243667069,
			"deaths": 37,
			"deaths_rate_per_10k": 27.895054282268,
			"deaths_rate_per_100k": 278.95054282268,
			"total_tested": 18063,
			"test_rate_per_10k": 13618.063932448733,
			"test_rate_per_100k": 136180.63932448733,
			"total_population": 13264,
			"latitude": 40.4989,
			"longitude": -88.2072
		},
		{
			"County": "Franklin",
			"confirmed_cases": 3391,
			"confirmed_rate_per_10k": 876.204749231286,
			"confirmed_rate_per_100k": 8762.04749231286,
			"deaths": 49,
			"deaths_rate_per_10k": 12.661171545955,
			"deaths_rate_per_100k": 126.61171545955,
			"total_tested": 31925,
			"test_rate_per_10k": 8249.140849073667,
			"test_rate_per_100k": 82491.40849073666,
			"total_population": 38701,
			"latitude": 38.0157,
			"longitude": -88.9031
		},
		{
			"County": "Fulton",
			"confirmed_cases": 2352,
			"confirmed_rate_per_10k": 675.008609803696,
			"confirmed_rate_per_100k": 6750.08609803696,
			"deaths": 28,
			"deaths_rate_per_10k": 8.035816783377,
			"deaths_rate_per_100k": 80.35816783377,
			"total_tested": 39983,
			"test_rate_per_10k": 11474.859373206291,
			"test_rate_per_100k": 114748.59373206292,
			"total_population": 34844,
			"latitude": 40.5532,
			"longitude": -90.2245
		},
		{
			"County": "Gallatin",
			"confirmed_cases": 333,
			"confirmed_rate_per_10k": 658.362989323843,
			"confirmed_rate_per_100k": 6583.62989323843,
			"deaths": 3,
			"deaths_rate_per_10k": 5.931198102017,
			"deaths_rate_per_100k": 59.31198102017,
			"total_tested": 2550,
			"test_rate_per_10k": 5041.518386714116,
			"test_rate_per_100k": 50415.18386714116,
			"total_population": 5058,
			"latitude": 37.7108,
			"longitude": -88.2461
		},
		{
			"County": "Greene",
			"confirmed_cases": 1129,
			"confirmed_rate_per_10k": 865.532045384851,
			"confirmed_rate_per_100k": 8655.32045384851,
			"deaths": 30,
			"deaths_rate_per_10k": 22.999080036799,
			"deaths_rate_per_100k": 229.99080036799,
			"total_tested": 9388,
			"test_rate_per_10k": 7197.178779515486,
			"test_rate_per_100k": 71971.78779515486,
			"total_population": 13044,
			"latitude": 39.403,
			"longitude": -90.3748
		},
		{
			"County": "Grundy",
			"confirmed_cases": 3912,
			"confirmed_rate_per_10k": 767.480185199717,
			"confirmed_rate_per_100k": 7674.80185199717,
			"deaths": 45,
			"deaths_rate_per_10k": 8.828376363494,
			"deaths_rate_per_100k": 88.28376363494,
			"total_tested": 31423,
			"test_rate_per_10k": 6164.757121556933,
			"test_rate_per_100k": 61647.57121556933,
			"total_population": 50972,
			"latitude": 41.3501,
			"longitude": -88.4016
		},
		{
			"County": "Hamilton",
			"confirmed_cases": 602,
			"confirmed_rate_per_10k": 737.473967903957,
			"confirmed_rate_per_100k": 7374.73967903957,
			"deaths": 10,
			"deaths_rate_per_10k": 12.250398137939,
			"deaths_rate_per_100k": 122.50398137939,
			"total_tested": 4441,
			"test_rate_per_10k": 5440.401813058924,
			"test_rate_per_100k": 54404.01813058924,
			"total_population": 8163,
			"latitude": 38.0543,
			"longitude": -88.5565
		},
		{
			"County": "Hancock",
			"confirmed_cases": 1324,
			"confirmed_rate_per_10k": 741.986101770903,
			"confirmed_rate_per_100k": 7419.86101770903,
			"deaths": 20,
			"deaths_rate_per_10k": 11.208249271464,
			"deaths_rate_per_100k": 112.08249271464,
			"total_tested": 12433,
			"test_rate_per_10k": 6967.60815960547,
			"test_rate_per_100k": 69676.0815960547,
			"total_population": 17844,
			"latitude": 40.3849,
			"longitude": -91.1353
		},
		{
			"County": "Hardin",
			"confirmed_cases": 219,
			"confirmed_rate_per_10k": 560.102301790281,
			"confirmed_rate_per_100k": 5601.02301790281,
			"deaths": 7,
			"deaths_rate_per_10k": 17.902813299233,
			"deaths_rate_per_100k": 179.02813299233,
			"total_tested": 3033,
			"test_rate_per_10k": 7757.033248081841,
			"test_rate_per_100k": 77570.33248081841,
			"total_population": 3910,
			"latitude": 37.4995,
			"longitude": -88.3628
		},
		{
			"County": "Henderson",
			"confirmed_cases": 399,
			"confirmed_rate_per_10k": 594.72350573856,
			"confirmed_rate_per_100k": 5947.2350573856,
			"deaths": 4,
			"deaths_rate_per_10k": 5.962140408407,
			"deaths_rate_per_100k": 59.62140408407,
			"total_tested": 4446,
			"test_rate_per_10k": 6626.919063943956,
			"test_rate_per_100k": 66269.19063943956,
			"total_population": 6709,
			"latitude": 40.8336,
			"longitude": -90.9438
		},
		{
			"County": "Henry",
			"confirmed_cases": 3704,
			"confirmed_rate_per_10k": 754.532491342432,
			"confirmed_rate_per_100k": 7545.32491342432,
			"deaths": 40,
			"deaths_rate_per_10k": 8.148299042575,
			"deaths_rate_per_100k": 81.48299042575,
			"total_tested": 43922,
			"test_rate_per_10k": 8947.239763699328,
			"test_rate_per_100k": 89472.39763699328,
			"total_population": 49090,
			"latitude": 41.3611,
			"longitude": -90.0747
		},
		{
			"County": "Illinois",
			"confirmed_cases": 970590,
			"confirmed_rate_per_10k": 761.780006090535,
			"confirmed_rate_per_100k": 7617.80006090535,
			"deaths": 16647,
			"deaths_rate_per_10k": 13.065611392441,
			"deaths_rate_per_100k": 130.65611392441,
			"total_tested": 13374665,
			"test_rate_per_10k": 10497.277310871606,
			"test_rate_per_100k": 104972.77310871606,
			"total_population": 12741080,
			"latitude": 39.839888,
			"longitude": -89.510168
		},
		{
			"County": "Iroquois",
			"confirmed_cases": 2347,
			"confirmed_rate_per_10k": 850.23909578322,
			"confirmed_rate_per_100k": 8502.3909578322,
			"deaths": 49,
			"deaths_rate_per_10k": 17.751050572381,
			"deaths_rate_per_100k": 177.51050572381,
			"total_tested": 30124,
			"test_rate_per_10k": 10912.91117229387,
			"test_rate_per_100k": 109129.1117229387,
			"total_population": 27604,
			"latitude": 40.774,
			"longitude": -87.6976
		},
		{
			"County": "Jackson",
			"confirmed_cases": 3666,
			"confirmed_rate_per_10k": 638.464619725178,
			"confirmed_rate_per_100k": 6384.64619725178,
			"deaths": 52,
			"deaths_rate_per_10k": 9.056235740783,
			"deaths_rate_per_100k": 90.56235740783,
			"total_tested": 44776,
			"test_rate_per_10k": 7798.115606332399,
			"test_rate_per_100k": 77981.15606332399,
			"total_population": 57419,
			"latitude": 37.7218,
			"longitude": -89.3227
		},
		{
			"County": "Jasper",
			"confirmed_cases": 899,
			"confirmed_rate_per_10k": 935.386536260535,
			"confirmed_rate_per_100k": 9353.86536260535,
			"deaths": 13,
			"deaths_rate_per_10k": 13.526167932577,
			"deaths_rate_per_100k": 135.26167932577,
			"total_tested": 7447,
			"test_rate_per_10k": 7748.413276454063,
			"test_rate_per_100k": 77484.13276454063,
			"total_population": 9611,
			"latitude": 39.0555,
			"longitude": -88.0901
		},
		{
			"County": "Jefferson",
			"confirmed_cases": 2960,
			"confirmed_rate_per_10k": 782.654680063458,
			"confirmed_rate_per_100k": 7826.54680063458,
			"deaths": 84,
			"deaths_rate_per_10k": 22.210470650449,
			"deaths_rate_per_100k": 222.10470650449,
			"total_tested": 24700,
			"test_rate_per_10k": 6530.936012691698,
			"test_rate_per_100k": 65309.36012691698,
			"total_population": 37820,
			"latitude": 38.2267,
			"longitude": -88.8647
		},
		{
			"County": "Jersey",
			"confirmed_cases": 1993,
			"confirmed_rate_per_10k": 912.253398635968,
			"confirmed_rate_per_100k": 9122.53398635968,
			"deaths": 30,
			"deaths_rate_per_10k": 13.731862498284,
			"deaths_rate_per_100k": 137.31862498284,
			"total_tested": 19073,
			"test_rate_per_10k": 8730.260447658717,
			"test_rate_per_100k": 87302.60447658716,
			"total_population": 21847,
			"latitude": 39.0705,
			"longitude": -90.3748
		},
		{
			"County": "Jo Daviess",
			"confirmed_cases": 1388,
			"confirmed_rate_per_10k": 649.630253674062,
			"confirmed_rate_per_100k": 6496.30253674062,
			"deaths": 21,
			"deaths_rate_per_10k": 9.828699803426,
			"deaths_rate_per_100k": 98.28699803426,
			"total_tested": 15085,
			"test_rate_per_10k": 7060.282692127679,
			"test_rate_per_100k": 70602.82692127679,
			"total_population": 21366,
			"latitude": 42.3149,
			"longitude": -90.2245
		},
		{
			"County": "Johnson",
			"confirmed_cases": 1005,
			"confirmed_rate_per_10k": 806.840077071291,
			"confirmed_rate_per_100k": 8068.40077071291,
			"deaths": 9,
			"deaths_rate_per_10k": 7.225433526012,
			"deaths_rate_per_100k": 72.25433526012,
			"total_tested": 9953,
			"test_rate_per_10k": 7990.526653821452,
			"test_rate_per_100k": 79905.26653821452,
			"total_population": 12456,
			"latitude": 37.4204,
			"longitude": -88.9031
		},
		{
			"County": "Kane",
			"confirmed_cases": 41786,
			"confirmed_rate_per_10k": 782.192970633601,
			"confirmed_rate_per_100k": 7821.92970633601,
			"deaths": 576,
			"deaths_rate_per_10k": 10.782155532594,
			"deaths_rate_per_100k": 107.82155532594,
			"total_tested": 408902,
			"test_rate_per_10k": 7654.244724980158,
			"test_rate_per_100k": 76542.44724980158,
			"total_population": 534216,
			"latitude": 41.9879,
			"longitude": -88.4016
		},
		{
			"County": "Kankakee",
			"confirmed_cases": 10737,
			"confirmed_rate_per_10k": 975.877990256671,
			"confirmed_rate_per_100k": 9758.77990256671,
			"deaths": 154,
			"deaths_rate_per_10k": 13.996946120846,
			"deaths_rate_per_100k": 139.96946120846,
			"total_tested": 137844,
			"test_rate_per_10k": 12528.539227804844,
			"test_rate_per_100k": 125285.39227804843,
			"total_population": 110024,
			"latitude": 41.1791,
			"longitude": -87.7763
		},
		{
			"County": "Kendall",
			"confirmed_cases": 8527,
			"confirmed_rate_per_10k": 666.614548723762,
			"confirmed_rate_per_100k": 6666.14548723762,
			"deaths": 69,
			"deaths_rate_per_10k": 5.394207090646,
			"deaths_rate_per_100k": 53.94207090646,
			"total_tested": 81720,
			"test_rate_per_10k": 6388.617441269593,
			"test_rate_per_100k": 63886.17441269593,
			"total_population": 127915,
			"latitude": 41.5507,
			"longitude": -88.4404
		},
		{
			"County": "Knox",
			"confirmed_cases": 4086,
			"confirmed_rate_per_10k": 815.373563218391,
			"confirmed_rate_per_100k": 8153.73563218391,
			"deaths": 105,
			"deaths_rate_per_10k": 20.9530651341,
			"deaths_rate_per_100k": 209.530651341,
			"total_tested": 47576,
			"test_rate_per_10k": 9493.933588761174,
			"test_rate_per_100k": 94939.33588761176,
			"total_population": 50112,
			"latitude": 40.8776,
			"longitude": -90.2245
		},
		{
			"County": "Lake",
			"confirmed_cases": 48576,
			"confirmed_rate_per_10k": 693.119035660472,
			"confirmed_rate_per_100k": 6931.19035660472,
			"deaths": 767,
			"deaths_rate_per_10k": 10.944134971006,
			"deaths_rate_per_100k": 109.44134971006,
			"total_tested": 591312,
			"test_rate_per_10k": 8437.28596867723,
			"test_rate_per_100k": 84372.8596867723,
			"total_population": 700832,
			"latitude": 42.3689,
			"longitude": -87.8272
		},
		{
			"County": "LaSalle",
			"confirmed_cases": 8423,
			"confirmed_rate_per_10k": 769.71580005483,
			"confirmed_rate_per_100k": 7697.1580005483,
			"deaths": 186,
			"deaths_rate_per_10k": 16.99716713881,
			"deaths_rate_per_100k": 169.9716713881,
			"total_tested": 92827,
			"test_rate_per_10k": 8482.774376313626,
			"test_rate_per_100k": 84827.74376313626,
			"total_population": 109430,
			"latitude": 41.4364,
			"longitude": -88.9414
		},
		{
			"County": "Lawrence",
			"confirmed_cases": 1989,
			"confirmed_rate_per_10k": 1261.655566127498,
			"confirmed_rate_per_100k": 12616.55566127498,
			"deaths": 20,
			"deaths_rate_per_10k": 12.686330478909,
			"deaths_rate_per_100k": 126.86330478909,
			"total_tested": 18129,
			"test_rate_per_10k": 11499.524262607041,
			"test_rate_per_100k": 114995.24262607041,
			"total_population": 15765,
			"latitude": 38.7158,
			"longitude": -87.7763
		},
		{
			"County": "Lee",
			"confirmed_cases": 2729,
			"confirmed_rate_per_10k": 797.416941822751,
			"confirmed_rate_per_100k": 7974.16941822751,
			"deaths": 30,
			"deaths_rate_per_10k": 8.766034538176,
			"deaths_rate_per_100k": 87.66034538176,
			"total_tested": 31909,
			"test_rate_per_10k": 9323.846535955352,
			"test_rate_per_100k": 93238.46535955352,
			"total_population": 34223,
			"latitude": 41.679,
			"longitude": -89.3227
		},
		{
			"County": "Livingston",
			"confirmed_cases": 3160,
			"confirmed_rate_per_10k": 883.644193395039,
			"confirmed_rate_per_100k": 8836.44193395039,
			"deaths": 52,
			"deaths_rate_per_10k": 14.54098039764,
			"deaths_rate_per_100k": 145.4098039764,
			"total_tested": 46700,
			"test_rate_per_10k": 13058.918934034284,
			"test_rate_per_100k": 130589.18934034283,
			"total_population": 35761,
			"latitude": 40.8689,
			"longitude": -88.5565
		},
		{
			"County": "Logan",
			"confirmed_cases": 2720,
			"confirmed_rate_per_10k": 940.363007778738,
			"confirmed_rate_per_100k": 9403.63007778738,
			"deaths": 40,
			"deaths_rate_per_10k": 13.828867761452,
			"deaths_rate_per_100k": 138.28867761452,
			"total_tested": 43768,
			"test_rate_per_10k": 15131.547104580812,
			"test_rate_per_100k": 151315.4710458081,
			"total_population": 28925,
			"latitude": 40.0613,
			"longitude": -89.3227
		},
		{
			"County": "Macon",
			"confirmed_cases": 8004,
			"confirmed_rate_per_10k": 764.382305752922,
			"confirmed_rate_per_100k": 7643.82305752922,
			"deaths": 163,
			"deaths_rate_per_10k": 15.566506226602,
			"deaths_rate_per_100k": 155.66506226602,
			"total_tested": 101433,
			"test_rate_per_10k": 9686.85537474215,
			"test_rate_per_100k": 96868.5537474215,
			"total_population": 104712,
			"latitude": 39.8949,
			"longitude": -89.0179
		},
		{
			"County": "Macoupin",
			"confirmed_cases": 3297,
			"confirmed_rate_per_10k": 727.605764350186,
			"confirmed_rate_per_100k": 7276.05764350186,
			"deaths": 60,
			"deaths_rate_per_10k": 13.241233200185,
			"deaths_rate_per_100k": 132.41233200185,
			"total_tested": 45318,
			"test_rate_per_10k": 10001.103436100015,
			"test_rate_per_100k": 100011.03436100014,
			"total_population": 45313,
			"latitude": 39.2375,
			"longitude": -89.9253
		},
		{
			"County": "Madison",
			"confirmed_cases": 21241,
			"confirmed_rate_per_10k": 803.180809268663,
			"confirmed_rate_per_100k": 8031.80809268663,
			"deaths": 346,
			"deaths_rate_per_10k": 13.083214538249,
			"deaths_rate_per_100k": 130.83214538249,
			"total_tested": 193573,
			"test_rate_per_10k": 7319.529155527658,
			"test_rate_per_100k": 73195.29155527658,
			"total_population": 264461,
			"latitude": 38.9041,
			"longitude": -89.9253
		},
		{
			"County": "Marion",
			"confirmed_cases": 3566,
			"confirmed_rate_per_10k": 947.900053163211,
			"confirmed_rate_per_100k": 9479.00053163211,
			"deaths": 97,
			"deaths_rate_per_10k": 25.784157363105,
			"deaths_rate_per_100k": 257.84157363105,
			"total_tested": 38768,
			"test_rate_per_10k": 10305.156831472621,
			"test_rate_per_100k": 103051.56831472622,
			"total_population": 37620,
			"latitude": 38.7313,
			"longitude": -88.8647
		},
		{
			"County": "Marshall",
			"confirmed_cases": 583,
			"confirmed_rate_per_10k": 505.462112016646,
			"confirmed_rate_per_100k": 5054.62112016646,
			"deaths": 9,
			"deaths_rate_per_10k": 7.803017166638,
			"deaths_rate_per_100k": 78.03017166638,
			"total_tested": 11601,
			"test_rate_per_10k": 10058.089127796082,
			"test_rate_per_100k": 100580.8912779608,
			"total_population": 11534,
			"latitude": 40.9973,
			"longitude": -89.3606
		},
		{
			"County": "Mason",
			"confirmed_cases": 1037,
			"confirmed_rate_per_10k": 764.467379284924,
			"confirmed_rate_per_100k": 7644.67379284924,
			"deaths": 38,
			"deaths_rate_per_10k": 28.013269443421,
			"deaths_rate_per_100k": 280.13269443421,
			"total_tested": 13282,
			"test_rate_per_10k": 9791.37486177663,
			"test_rate_per_100k": 97913.74861776631,
			"total_population": 13565,
			"latitude": 40.2271,
			"longitude": -89.9253
		},
		{
			"County": "Massac",
			"confirmed_cases": 908,
			"confirmed_rate_per_10k": 644.886363636364,
			"confirmed_rate_per_100k": 6448.86363636364,
			"deaths": 26,
			"deaths_rate_per_10k": 18.465909090909,
			"deaths_rate_per_100k": 184.65909090909,
			"total_tested": 7277,
			"test_rate_per_10k": 5168.323863636364,
			"test_rate_per_100k": 51683.23863636364,
			"total_population": 14080,
			"latitude": 37.2478,
			"longitude": -88.7494
		},
		{
			"County": "McDonough",
			"confirmed_cases": 1996,
			"confirmed_rate_per_10k": 666.332832582207,
			"confirmed_rate_per_100k": 6663.32832582207,
			"deaths": 35,
			"deaths_rate_per_10k": 11.684192956101,
			"deaths_rate_per_100k": 116.84192956101,
			"total_tested": 26870,
			"test_rate_per_10k": 8970.121849440828,
			"test_rate_per_100k": 89701.21849440828,
			"total_population": 29955,
			"latitude": 40.3885,
			"longitude": -90.6773
		},
		{
			"County": "McHenry",
			"confirmed_cases": 19297,
			"confirmed_rate_per_10k": 625.368635965907,
			"confirmed_rate_per_100k": 6253.68635965907,
			"deaths": 206,
			"deaths_rate_per_10k": 6.675956833133,
			"deaths_rate_per_100k": 66.75956833133,
			"total_tested": 196714,
			"test_rate_per_10k": 6375.020254723401,
			"test_rate_per_100k": 63750.20254723401,
			"total_population": 308570,
			"latitude": 42.304,
			"longitude": -88.4016
		},
		{
			"County": "McLean",
			"confirmed_cases": 11751,
			"confirmed_rate_per_10k": 679.924549262851,
			"confirmed_rate_per_100k": 6799.24549262851,
			"deaths": 102,
			"deaths_rate_per_10k": 5.901821464115,
			"deaths_rate_per_100k": 59.01821464115,
			"total_tested": 187982,
			"test_rate_per_10k": 10876.825514384243,
			"test_rate_per_100k": 108768.25514384243,
			"total_population": 172828,
			"latitude": 40.5478,
			"longitude": -88.8647
		},
		{
			"County": "Menard",
			"confirmed_cases": 738,
			"confirmed_rate_per_10k": 600.5859375,
			"confirmed_rate_per_100k": 6005.859375,
			"deaths": 6,
			"deaths_rate_per_10k": 4.8828125,
			"deaths_rate_per_100k": 48.828125,
			"total_tested": 11954,
			"test_rate_per_10k": 9728.190104166668,
			"test_rate_per_100k": 97281.90104166667,
			"total_population": 12288,
			"latitude": 40.0221,
			"longitude": -89.813
		},
		{
			"County": "Mercer",
			"confirmed_cases": 1075,
			"confirmed_rate_per_10k": 689.058393692712,
			"confirmed_rate_per_100k": 6890.58393692712,
			"deaths": 25,
			"deaths_rate_per_10k": 16.024613806807,
			"deaths_rate_per_100k": 160.24613806807,
			"total_tested": 11873,
			"test_rate_per_10k": 7610.409589128902,
			"test_rate_per_100k": 76104.09589128902,
			"total_population": 15601,
			"latitude": 41.1985,
			"longitude": -90.6773
		},
		{
			"County": "Monroe",
			"confirmed_cases": 3176,
			"confirmed_rate_per_10k": 925.003640599971,
			"confirmed_rate_per_100k": 9250.03640599971,
			"deaths": 59,
			"deaths_rate_per_10k": 17.183631862531,
			"deaths_rate_per_100k": 171.83631862531,
			"total_tested": 25418,
			"test_rate_per_10k": 7402.941604776467,
			"test_rate_per_100k": 74029.41604776467,
			"total_population": 34335,
			"latitude": 38.2743,
			"longitude": -90.187
		},
		{
			"County": "Montgomery",
			"confirmed_cases": 2191,
			"confirmed_rate_per_10k": 766.05713086955,
			"confirmed_rate_per_100k": 7660.5713086955,
			"deaths": 23,
			"deaths_rate_per_10k": 8.041676864445,
			"deaths_rate_per_100k": 80.41676864445,
			"total_tested": 34538,
			"test_rate_per_10k": 12075.80154540051,
			"test_rate_per_100k": 120758.0154540051,
			"total_population": 28601,
			"latitude": 39.2364,
			"longitude": -89.4742
		},
		{
			"County": "Morgan",
			"confirmed_cases": 3032,
			"confirmed_rate_per_10k": 892.394631504591,
			"confirmed_rate_per_100k": 8923.94631504591,
			"deaths": 65,
			"deaths_rate_per_10k": 19.131151400989,
			"deaths_rate_per_100k": 191.31151400989,
			"total_tested": 34280,
			"test_rate_per_10k": 10089.474923475394,
			"test_rate_per_100k": 100894.74923475394,
			"total_population": 33976,
			"latitude": 39.7341,
			"longitude": -90.2245
		},
		{
			"County": "Moultrie",
			"confirmed_cases": 1268,
			"confirmed_rate_per_10k": 861.588638988924,
			"confirmed_rate_per_100k": 8615.88638988924,
			"deaths": 18,
			"deaths_rate_per_10k": 12.230753550316,
			"deaths_rate_per_100k": 122.30753550316,
			"total_tested": 14759,
			"test_rate_per_10k": 10028.538424950737,
			"test_rate_per_100k": 100285.38424950738,
			"total_population": 14717,
			"latitude": 39.6021,
			"longitude": -88.5952
		},
		{
			"County": "Ogle",
			"confirmed_cases": 4130,
			"confirmed_rate_per_10k": 811.028415450779,
			"confirmed_rate_per_100k": 8110.28415450779,
			"deaths": 59,
			"deaths_rate_per_10k": 11.586120220725,
			"deaths_rate_per_100k": 115.86120220725,
			"total_tested": 38396,
			"test_rate_per_10k": 7540.011389745302,
			"test_rate_per_100k": 75400.11389745302,
			"total_population": 50923,
			"latitude": 41.997,
			"longitude": -89.3227
		},
		{
			"County": "Peoria",
			"confirmed_cases": 13315,
			"confirmed_rate_per_10k": 737.178954828065,
			"confirmed_rate_per_100k": 7371.78954828065,
			"deaths": 197,
			"deaths_rate_per_10k": 10.906815929488,
			"deaths_rate_per_100k": 109.06815929488,
			"total_tested": 195039,
			"test_rate_per_10k": 10798.246051123622,
			"test_rate_per_100k": 107982.46051123623,
			"total_population": 180621,
			"latitude": 40.7156,
			"longitude": -89.7755
		},
		{
			"County": "Perry",
			"confirmed_cases": 2218,
			"confirmed_rate_per_10k": 1047.511098517049,
			"confirmed_rate_per_100k": 10475.11098517049,
			"deaths": 45,
			"deaths_rate_per_10k": 21.252479455937,
			"deaths_rate_per_100k": 212.52479455937,
			"total_tested": 18348,
			"test_rate_per_10k": 8665.344290167186,
			"test_rate_per_100k": 86653.44290167186,
			"total_population": 21174,
			"latitude": 38.0612,
			"longitude": -89.3227
		},
		{
			"County": "Piatt",
			"confirmed_cases": 1058,
			"confirmed_rate_per_10k": 645.279336423518,
			"confirmed_rate_per_100k": 6452.79336423518,
			"deaths": 7,
			"deaths_rate_per_10k": 4.269333983899,
			"deaths_rate_per_100k": 42.69333983899,
			"total_tested": 20209,
			"test_rate_per_10k": 12325.567211515005,
			"test_rate_per_100k": 123255.67211515004,
			"total_population": 16396,
			"latitude": 40.0544,
			"longitude": -88.85565
		},
		{
			"County": "Pike",
			"confirmed_cases": 1402,
			"confirmed_rate_per_10k": 898.084683876754,
			"confirmed_rate_per_100k": 8980.84683876754,
			"deaths": 39,
			"deaths_rate_per_10k": 24.982384216258,
			"deaths_rate_per_100k": 249.82384216258,
			"total_tested": 11687,
			"test_rate_per_10k": 7486.387803471911,
			"test_rate_per_100k": 74863.8780347191,
			"total_population": 15611,
			"latitude": 39.5662,
			"longitude": -90.8294
		},
		{
			"County": "Pope",
			"confirmed_cases": 200,
			"confirmed_rate_per_10k": 474.833808167142,
			"confirmed_rate_per_100k": 4748.33808167142,
			"deaths": 1,
			"deaths_rate_per_10k": 2.374169040836,
			"deaths_rate_per_100k": 23.74169040836,
			"total_tested": 1764,
			"test_rate_per_10k": 4188.034188034188,
			"test_rate_per_100k": 41880.34188034188,
			"total_population": 4212,
			"latitude": 37.4171,
			"longitude": -88.5952
		},
		{
			"County": "Pulaski",
			"confirmed_cases": 563,
			"confirmed_rate_per_10k": 1030.569284276039,
			"confirmed_rate_per_100k": 10305.69284276039,
			"deaths": 3,
			"deaths_rate_per_10k": 5.4914881933,
			"deaths_rate_per_100k": 54.914881933,
			"total_tested": 3858,
			"test_rate_per_10k": 7062.053816584294,
			"test_rate_per_100k": 70620.53816584294,
			"total_population": 5463,
			"latitude": 37.2512,
			"longitude": -89.1325
		},
		{
			"County": "Putnam",
			"confirmed_cases": 321,
			"confirmed_rate_per_10k": 559.233449477352,
			"confirmed_rate_per_100k": 5592.33449477352,
			"deaths": 0,
			"deaths_rate_per_10k": 0.0,
			"deaths_rate_per_100k": 0.0,
			"total_tested": 3503,
			"test_rate_per_10k": 6102.787456445993,
			"test_rate_per_100k": 61027.87456445993,
			"total_population": 5740,
			"latitude": 41.2385,
			"longitude": -89.2847
		},
		{
			"County": "Randolph",
			"confirmed_cases": 3346,
			"confirmed_rate_per_10k": 1042.172802591416,
			"confirmed_rate_per_100k": 10421.72802591416,
			"deaths": 44,
			"deaths_rate_per_10k": 13.704603500903,
			"deaths_rate_per_100k": 137.04603500903,
			"total_tested": 31755,
			"test_rate_per_10k": 9890.674640254158,
			"test_rate_per_100k": 98906.74640254158,
			"total_population": 32106,
			"latitude": 38.0629,
			"longitude": -89.7755
		},
		{
			"County": "Richland",
			"confirmed_cases": 1328,
			"confirmed_rate_per_10k": 842.479223498065,
			"confirmed_rate_per_100k": 8424.79223498065,
			"deaths": 31,
			"deaths_rate_per_10k": 19.66630717503,
			"deaths_rate_per_100k": 196.6630717503,
			"total_tested": 15841,
			"test_rate_per_10k": 10049.482966440399,
			"test_rate_per_100k": 100494.82966440398,
			"total_population": 15763,
			"latitude": 38.7213,
			"longitude": -88.0901
		},
		{
			"County": "Rock Island",
			"confirmed_cases": 11067,
			"confirmed_rate_per_10k": 771.3431421064,
			"confirmed_rate_per_100k": 7713.431421064,
			"deaths": 225,
			"deaths_rate_per_10k": 15.681955992947,
			"deaths_rate_per_100k": 156.81955992947,
			"total_tested": 121180,
			"test_rate_per_10k": 8445.953009890087,
			"test_rate_per_100k": 84459.53009890087,
			"total_population": 143477,
			"latitude": 41.5095,
			"longitude": -90.5787
		},
		{
			"County": "Saline",
			"confirmed_cases": 1790,
			"confirmed_rate_per_10k": 748.766000167322,
			"confirmed_rate_per_100k": 7487.66000167322,
			"deaths": 32,
			"deaths_rate_per_10k": 13.385760896846,
			"deaths_rate_per_100k": 133.85760896846,
			"total_tested": 19304,
			"test_rate_per_10k": 8074.960261022337,
			"test_rate_per_100k": 80749.60261022337,
			"total_population": 23906,
			"latitude": 37.715,
			"longitude": -88.5565
		},
		{
			"County": "Sangamon",
			"confirmed_cases": 13322,
			"confirmed_rate_per_10k": 681.962446505723,
			"confirmed_rate_per_100k": 6819.62446505723,
			"deaths": 179,
			"deaths_rate_per_10k": 9.163134508672,
			"deaths_rate_per_100k": 91.63134508672,
			"total_tested": 236963,
			"test_rate_per_10k": 12130.300796527223,
			"test_rate_per_100k": 121303.00796527223,
			"total_population": 195348,
			"latitude": 39.7337,
			"longitude": -89.6252
		},
		{
			"County": "Schuyler",
			"confirmed_cases": 552,
			"confirmed_rate_per_10k": 799.189228319097,
			"confirmed_rate_per_100k": 7991.89228319097,
			"deaths": 3,
			"deaths_rate_per_10k": 4.343419719126,
			"deaths_rate_per_100k": 43.43419719126,
			"total_tested": 7185,
			"test_rate_per_10k": 10402.490227305632,
			"test_rate_per_100k": 104024.90227305632,
			"total_population": 6907,
			"latitude": 40.1845,
			"longitude": -90.6394
		},
		{
			"County": "Scott",
			"confirmed_cases": 332,
			"confirmed_rate_per_10k": 673.974827446204,
			"confirmed_rate_per_100k": 6739.74827446204,
			"deaths": 1,
			"deaths_rate_per_10k": 2.030044660983,
			"deaths_rate_per_100k": 20.30044660983,
			"total_tested": 5429,
			"test_rate_per_10k": 11021.112464474218,
			"test_rate_per_100k": 110211.12464474219,
			"total_population": 4926,
			"latitude": 39.6095,
			"longitude": -90.488
		},
		{
			"County": "Shelby",
			"confirmed_cases": 1798,
			"confirmed_rate_per_10k": 827.008877236558,
			"confirmed_rate_per_100k": 8270.08877236558,
			"deaths": 31,
			"deaths_rate_per_10k": 14.258773745458,
			"deaths_rate_per_100k": 142.58773745458,
			"total_tested": 15746,
			"test_rate_per_10k": 7242.537141805805,
			"test_rate_per_100k": 72425.37141805804,
			"total_population": 21741,
			"latitude": 39.3981,
			"longitude": -88.8647
		},
		{
			"County": "St. Clair",
			"confirmed_cases": 19325,
			"confirmed_rate_per_10k": 740.254118800731,
			"confirmed_rate_per_100k": 7402.54118800731,
			"deaths": 332,
			"deaths_rate_per_10k": 12.717431691687,
			"deaths_rate_per_100k": 127.17431691687,
			"total_tested": 198980,
			"test_rate_per_10k": 7622.031801240333,
			"test_rate_per_100k": 76220.31801240332,
			"total_population": 261059,
			"latitude": 38.4008,
			"longitude": -89.9253
		},
		{
			"County": "Stark",
			"confirmed_cases": 454,
			"confirmed_rate_per_10k": 836.557950985812,
			"confirmed_rate_per_100k": 8365.57950985812,
			"deaths": 19,
			"deaths_rate_per_10k": 35.010134512622,
			"deaths_rate_per_100k": 350.10134512622,
			"total_tested": 5836,
			"test_rate_per_10k": 10753.639211350654,
			"test_rate_per_100k": 107536.39211350655,
			"total_population": 5427,
			"latitude": 41.0796,
			"longitude": -89.813
		},
		{
			"County": "Stephenson",
			"confirmed_cases": 3259,
			"confirmed_rate_per_10k": 728.219337251134,
			"confirmed_rate_per_100k": 7282.19337251134,
			"deaths": 48,
			"deaths_rate_per_10k": 10.725537952763,
			"deaths_rate_per_100k": 107.25537952763,
			"total_tested": 34087,
			"test_rate_per_10k": 7616.696087413134,
			"test_rate_per_100k": 76166.96087413134,
			"total_population": 44753,
			"latitude": 42.3145,
			"longitude": -89.6252
		},
		{
			"County": "Tazewell",
			"confirmed_cases": 10553,
			"confirmed_rate_per_10k": 797.48805997219,
			"confirmed_rate_per_100k": 7974.8805997219,
			"deaths": 174,
			"deaths_rate_per_10k": 13.149144549906,
			"deaths_rate_per_100k": 131.49144549906,
			"total_tested": 138047,
			"test_rate_per_10k": 10432.18366483284,
			"test_rate_per_100k": 104321.8366483284,
			"total_population": 132328,
			"latitude": 40.5522,
			"longitude": -89.4742
		},
		{
			"County": "Union",
			"confirmed_cases": 1713,
			"confirmed_rate_per_10k": 1017.160501157888,
			"confirmed_rate_per_100k": 10171.60501157888,
			"deaths": 29,
			"deaths_rate_per_10k": 17.219880054629,
			"deaths_rate_per_100k": 172.19880054629,
			"total_tested": 19969,
			"test_rate_per_10k": 11857.371890030283,
			"test_rate_per_100k": 118573.71890030283,
			"total_population": 16841,
			"latitude": 37.5087,
			"longitude": -89.2847
		},
		{
			"County": "Vermilion",
			"confirmed_cases": 6519,
			"confirmed_rate_per_10k": 848.761815483165,
			"confirmed_rate_per_100k": 8487.61815483165,
			"deaths": 76,
			"deaths_rate_per_10k": 9.895060281749,
			"deaths_rate_per_100k": 98.95060281749,
			"total_tested": 76895,
			"test_rate_per_10k": 10011.587636382574,
			"test_rate_per_100k": 100115.87636382574,
			"total_population": 76806,
			"latitude": 40.1225,
			"longitude": -87.6976
		},
		{
			"County": "Wabash",
			"confirmed_cases": 1054,
			"confirmed_rate_per_10k": 912.633128409386,
			"confirmed_rate_per_100k": 9126.33128409386,
			"deaths": 11,
			"deaths_rate_per_10k": 9.52463416746,
			"deaths_rate_per_100k": 95.2463416746,
			"total_tested": 8722,
			"test_rate_per_10k": 7552.169018962681,
			"test_rate_per_100k": 75521.69018962681,
			"total_population": 11549,
			"latitude": 38.4226,
			"longitude": -87.8157
		},
		{
			"County": "Warren",
			"confirmed_cases": 1504,
			"confirmed_rate_per_10k": 883.043682480038,
			"confirmed_rate_per_100k": 8830.43682480038,
			"deaths": 36,
			"deaths_rate_per_10k": 21.13668388915,
			"deaths_rate_per_100k": 211.3668388915,
			"total_tested": 10891,
			"test_rate_per_10k": 6394.434006575857,
			"test_rate_per_100k": 63944.34006575857,
			"total_population": 17032,
			"latitude": 40.8759,
			"longitude": -90.6773
		},
		{
			"County": "Washington",
			"confirmed_cases": 1241,
			"confirmed_rate_per_10k": 886.745266166488,
			"confirmed_rate_per_100k": 8867.45266166488,
			"deaths": 19,
			"deaths_rate_per_10k": 13.576277241872,
			"deaths_rate_per_100k": 135.76277241872,
			"total_tested": 8246,
			"test_rate_per_10k": 5892.10432297249,
			"test_rate_per_100k": 58921.0432297249,
			"total_population": 13995,
			"latitude": 38.3989,
			"longitude": -89.3227
		},
		{
			"County": "Wayne",
			"confirmed_cases": 1349,
			"confirmed_rate_per_10k": 825.985794758756,
			"confirmed_rate_per_100k": 8259.85794758756,
			"deaths": 40,
			"deaths_rate_per_10k": 24.491795248592,
			"deaths_rate_per_100k": 244.91795248592,
			"total_tested": 10516,
			"test_rate_per_10k": 6438.892970854764,
			"test_rate_per_100k": 64388.92970854764,
			"total_population": 16332,
			"latitude": 38.39,
			"longitude": -88.4016
		},
		{
			"County": "White",
			"confirmed_cases": 1134,
			"confirmed_rate_per_10k": 829.857299670692,
			"confirmed_rate_per_100k": 8298.57299670692,
			"deaths": 22,
			"deaths_rate_per_10k": 16.099524332236,
			"deaths_rate_per_100k": 160.99524332236,
			"total_tested": 14895,
			"test_rate_per_10k": 10900.109769484083,
			"test_rate_per_100k": 109001.09769484084,
			"total_population": 13665,
			"latitude": 38.0501,
			"longitude": -88.2461
		},
		{
			"County": "Whiteside",
			"confirmed_cases": 4882,
			"confirmed_rate_per_10k": 877.647143422141,
			"confirmed_rate_per_100k": 8776.47143422141,
			"deaths": 125,
			"deaths_rate_per_10k": 22.471506130227,
			"deaths_rate_per_100k": 224.71506130227,
			"total_tested": 41781,
			"test_rate_per_10k": 7511.055981016072,
			"test_rate_per_100k": 75110.55981016072,
			"total_population": 55626,
			"latitude": 41.7606,
			"longitude": -89.8505
		},
		{
			"County": "Will",
			"confirmed_cases": 52662,
			"confirmed_rate_per_10k": 760.670797764007,
			"confirmed_rate_per_100k": 7606.70797764007,
			"deaths": 727,
			"deaths_rate_per_10k": 10.501076107524,
			"deaths_rate_per_100k": 105.01076107524,
			"total_tested": 520142,
			"test_rate_per_10k": 7513.137178431627,
			"test_rate_per_100k": 75131.37178431627,
			"total_population": 692310,
			"latitude": 41.5055,
			"longitude": -88.0901
		},
		{
			"County": "Williamson",
			"confirmed_cases": 5370,
			"confirmed_rate_per_10k": 800.823192555476,
			"confirmed_rate_per_100k": 8008.23192555476,
			"deaths": 98,
			"deaths_rate_per_10k": 14.614650441422,
			"deaths_rate_per_100k": 146.14650441422,
			"total_tested": 62776,
			"test_rate_per_10k": 9361.727511333811,
			"test_rate_per_100k": 93617.27511333811,
			"total_population": 67056,
			"latitude": 37.7183,
			"longitude": -88.8647
		},
		{
			"County": "Winnebago",
			"confirmed_cases": 24182,
			"confirmed_rate_per_10k": 851.236091114858,
			"confirmed_rate_per_100k": 8512.36091114858,
			"deaths": 346,
			"deaths_rate_per_10k": 12.179624825314,
			"deaths_rate_per_100k": 121.79624825314,
			"total_tested": 245197,
			"test_rate_per_10k": 8631.235457492758,
			"test_rate_per_100k": 86312.35457492757,
			"total_population": 284081,
			"latitude": 42.3121,
			"longitude": -89.1706
		},
		{
			"County": "Woodford",
			"confirmed_cases": 2828,
			"confirmed_rate_per_10k": 735.252060421704,
			"confirmed_rate_per_100k": 7352.52060421704,
			"deaths": 48,
			"deaths_rate_per_10k": 12.47952577802,
			"deaths_rate_per_100k": 124.7952577802,
			"total_tested": 39719,
			"test_rate_per_10k": 10326.547591191535,
			"test_rate_per_100k": 103265.47591191535,
			"total_population": 38463,
			"latitude": 40.7129,
			"longitude": -89.1706
		}
	]
}