{
	"lastUpdatedDate": {
		"year": 2021,
		"month": 3,
		"day": 13
	},
	"characteristics_by_county": [
		{
			"CountyName": "Illinois",
			"tested": 19066070,
			"confirmed_cases": 1207847,
			"deaths": 20924,
			"latitude": 39.839888,
			"longitude": -89.510168
		},
		{
			"CountyName": "Adams",
			"tested": 132026,
			"confirmed_cases": 8051,
			"deaths": 115,
			"latitude": 40.0578,
			"longitude": -91.1353
		},
		{
			"CountyName": "Alexander",
			"tested": 5135,
			"confirmed_cases": 453,
			"deaths": 10,
			"latitude": 37.167,
			"longitude": -89.3606
		},
		{
			"CountyName": "Bond",
			"tested": 27983,
			"confirmed_cases": 1919,
			"deaths": 24,
			"latitude": 38.903,
			"longitude": -89.4742
		},
		{
			"CountyName": "Boone",
			"tested": 52782,
			"confirmed_cases": 5982,
			"deaths": 70,
			"latitude": 42.3485,
			"longitude": -88.8263
		},
		{
			"CountyName": "Brown",
			"tested": 21936,
			"confirmed_cases": 675,
			"deaths": 6,
			"latitude": 39.938,
			"longitude": -90.7153
		},
		{
			"CountyName": "Bureau",
			"tested": 38706,
			"confirmed_cases": 3370,
			"deaths": 78,
			"latitude": 41.3599,
			"longitude": -89.4742
		},
		{
			"CountyName": "Calhoun",
			"tested": 5206,
			"confirmed_cases": 485,
			"deaths": 2,
			"latitude": 39.1733,
			"longitude": -90.6583
		},
		{
			"CountyName": "Carroll",
			"tested": 18328,
			"confirmed_cases": 1589,
			"deaths": 35,
			"latitude": 42.0386,
			"longitude": -89.9627
		},
		{
			"CountyName": "Cass",
			"tested": 18376,
			"confirmed_cases": 1897,
			"deaths": 24,
			"latitude": 39.9399,
			"longitude": -90.262
		},
		{
			"CountyName": "Champaign",
			"tested": 1892248,
			"confirmed_cases": 18434,
			"deaths": 132,
			"latitude": 40.2139,
			"longitude": -88.2461
		},
		{
			"CountyName": "Chicago",
			"tested": 3518096,
			"confirmed_cases": 248971,
			"deaths": 4950,
			"latitude": 41.789896,
			"longitude": -87.627734
		},
		{
			"CountyName": "Christian",
			"tested": 45995,
			"confirmed_cases": 3355,
			"deaths": 71,
			"latitude": 39.5672,
			"longitude": -89.3227
		},
		{
			"CountyName": "Clark",
			"tested": 14833,
			"confirmed_cases": 1694,
			"deaths": 32,
			"latitude": 39.3824,
			"longitude": -87.7763
		},
		{
			"CountyName": "Clay",
			"tested": 14286,
			"confirmed_cases": 1444,
			"deaths": 42,
			"latitude": 38.7279,
			"longitude": -88.5565
		},
		{
			"CountyName": "Clinton",
			"tested": 57005,
			"confirmed_cases": 5604,
			"deaths": 89,
			"latitude": 38.5684,
			"longitude": -89.6252
		},
		{
			"CountyName": "Coles",
			"tested": 70528,
			"confirmed_cases": 5306,
			"deaths": 93,
			"latitude": 39.556,
			"longitude": -88.2461
		},
		{
			"CountyName": "Cook",
			"tested": 3200762,
			"confirmed_cases": 233453,
			"deaths": 4559,
			"latitude": 42.050784,
			"longitude": -87.963759
		},
		{
			"CountyName": "Crawford",
			"tested": 30803,
			"confirmed_cases": 2017,
			"deaths": 24,
			"latitude": 39.05,
			"longitude": -87.7763
		},
		{
			"CountyName": "Cumberland",
			"tested": 10970,
			"confirmed_cases": 1223,
			"deaths": 18,
			"latitude": 39.2654,
			"longitude": -88.2072
		},
		{
			"CountyName": "De Witt",
			"tested": 18895,
			"confirmed_cases": 1294,
			"deaths": 22,
			"latitude": 40.181,
			"longitude": -88.9031
		},
		{
			"CountyName": "DeKalb",
			"tested": 115941,
			"confirmed_cases": 8437,
			"deaths": 115,
			"latitude": 41.833,
			"longitude": -88.7109
		},
		{
			"CountyName": "Douglas",
			"tested": 29221,
			"confirmed_cases": 2493,
			"deaths": 33,
			"latitude": 39.7618,
			"longitude": -88.2072
		},
		{
			"CountyName": "DuPage",
			"tested": 1092926,
			"confirmed_cases": 78589,
			"deaths": 1212,
			"latitude": 41.8244,
			"longitude": -88.0901
		},
		{
			"CountyName": "Edgar",
			"tested": 13399,
			"confirmed_cases": 1592,
			"deaths": 39,
			"latitude": 39.7131,
			"longitude": -87.7763
		},
		{
			"CountyName": "Edwards",
			"tested": 3871,
			"confirmed_cases": 534,
			"deaths": 12,
			"latitude": 38.4268,
			"longitude": -88.051
		},
		{
			"CountyName": "Effingham",
			"tested": 39348,
			"confirmed_cases": 4508,
			"deaths": 69,
			"latitude": 39.0622,
			"longitude": -88.5565
		},
		{
			"CountyName": "Fayette",
			"tested": 27246,
			"confirmed_cases": 3069,
			"deaths": 54,
			"latitude": 39.067,
			"longitude": -89.0179
		},
		{
			"CountyName": "Ford",
			"tested": 25592,
			"confirmed_cases": 1620,
			"deaths": 46,
			"latitude": 40.4989,
			"longitude": -88.2072
		},
		{
			"CountyName": "Franklin",
			"tested": 44638,
			"confirmed_cases": 4184,
			"deaths": 66,
			"latitude": 38.0157,
			"longitude": -88.9031
		},
		{
			"CountyName": "Fulton",
			"tested": 68516,
			"confirmed_cases": 2967,
			"deaths": 47,
			"latitude": 40.5532,
			"longitude": -90.2245
		},
		{
			"CountyName": "Gallatin",
			"tested": 3806,
			"confirmed_cases": 443,
			"deaths": 4,
			"latitude": 37.7108,
			"longitude": -88.2461
		},
		{
			"CountyName": "Greene",
			"tested": 12999,
			"confirmed_cases": 1390,
			"deaths": 32,
			"latitude": 39.403,
			"longitude": -90.3748
		},
		{
			"CountyName": "Grundy",
			"tested": 48824,
			"confirmed_cases": 5276,
			"deaths": 66,
			"latitude": 41.3501,
			"longitude": -88.4016
		},
		{
			"CountyName": "Hamilton",
			"tested": 6669,
			"confirmed_cases": 797,
			"deaths": 15,
			"latitude": 38.0543,
			"longitude": -88.5565
		},
		{
			"CountyName": "Hancock",
			"tested": 16944,
			"confirmed_cases": 1687,
			"deaths": 30,
			"latitude": 40.3849,
			"longitude": -91.1353
		},
		{
			"CountyName": "Hardin",
			"tested": 4802,
			"confirmed_cases": 352,
			"deaths": 12,
			"latitude": 37.4995,
			"longitude": -88.3628
		},
		{
			"CountyName": "Henderson",
			"tested": 6460,
			"confirmed_cases": 507,
			"deaths": 14,
			"latitude": 40.8336,
			"longitude": -90.9438
		},
		{
			"CountyName": "Henry",
			"tested": 59604,
			"confirmed_cases": 4384,
			"deaths": 58,
			"latitude": 41.3611,
			"longitude": -90.0747
		},
		{
			"CountyName": "Iroquois",
			"tested": 42432,
			"confirmed_cases": 2801,
			"deaths": 63,
			"latitude": 40.774,
			"longitude": -87.6976
		},
		{
			"CountyName": "Jackson",
			"tested": 68228,
			"confirmed_cases": 4646,
			"deaths": 61,
			"latitude": 37.7218,
			"longitude": -89.3227
		},
		{
			"CountyName": "Jasper",
			"tested": 10759,
			"confirmed_cases": 1114,
			"deaths": 17,
			"latitude": 39.0555,
			"longitude": -88.0901
		},
		{
			"CountyName": "Jefferson",
			"tested": 47480,
			"confirmed_cases": 4012,
			"deaths": 118,
			"latitude": 38.2267,
			"longitude": -88.8647
		},
		{
			"CountyName": "Jersey",
			"tested": 27868,
			"confirmed_cases": 2517,
			"deaths": 47,
			"latitude": 39.0705,
			"longitude": -90.3748
		},
		{
			"CountyName": "Jo Daviess",
			"tested": 19019,
			"confirmed_cases": 1627,
			"deaths": 22,
			"latitude": 42.3149,
			"longitude": -90.2245
		},
		{
			"CountyName": "Johnson",
			"tested": 37273,
			"confirmed_cases": 1361,
			"deaths": 12,
			"latitude": 37.4204,
			"longitude": -88.9031
		},
		{
			"CountyName": "Kane",
			"tested": 565088,
			"confirmed_cases": 51613,
			"deaths": 730,
			"latitude": 41.9879,
			"longitude": -88.4016
		},
		{
			"CountyName": "Kankakee",
			"tested": 194866,
			"confirmed_cases": 12729,
			"deaths": 190,
			"latitude": 41.1791,
			"longitude": -87.7763
		},
		{
			"CountyName": "Kendall",
			"tested": 115434,
			"confirmed_cases": 11306,
			"deaths": 88,
			"latitude": 41.5507,
			"longitude": -88.4404
		},
		{
			"CountyName": "Knox",
			"tested": 88312,
			"confirmed_cases": 5032,
			"deaths": 133,
			"latitude": 40.8776,
			"longitude": -90.2245
		},
		{
			"CountyName": "Lake",
			"tested": 840081,
			"confirmed_cases": 60716,
			"deaths": 941,
			"latitude": 42.3689,
			"longitude": -87.8272
		},
		{
			"CountyName": "LaSalle",
			"tested": 153277,
			"confirmed_cases": 11010,
			"deaths": 223,
			"latitude": 41.4364,
			"longitude": -88.9414
		},
		{
			"CountyName": "Lawrence",
			"tested": 38100,
			"confirmed_cases": 2338,
			"deaths": 24,
			"latitude": 38.7158,
			"longitude": -87.7763
		},
		{
			"CountyName": "Lee",
			"tested": 68258,
			"confirmed_cases": 3459,
			"deaths": 44,
			"latitude": 41.679,
			"longitude": -89.3227
		},
		{
			"CountyName": "Livingston",
			"tested": 85593,
			"confirmed_cases": 4308,
			"deaths": 79,
			"latitude": 40.8689,
			"longitude": -88.5565
		},
		{
			"CountyName": "Logan",
			"tested": 71052,
			"confirmed_cases": 3329,
			"deaths": 54,
			"latitude": 40.0613,
			"longitude": -89.3227
		},
		{
			"CountyName": "Macon",
			"tested": 151128,
			"confirmed_cases": 9655,
			"deaths": 186,
			"latitude": 39.8949,
			"longitude": -89.0179
		},
		{
			"CountyName": "Macoupin",
			"tested": 63643,
			"confirmed_cases": 4416,
			"deaths": 80,
			"latitude": 39.2375,
			"longitude": -89.9253
		},
		{
			"CountyName": "Madison",
			"tested": 272597,
			"confirmed_cases": 28499,
			"deaths": 475,
			"latitude": 38.9041,
			"longitude": -89.9253
		},
		{
			"CountyName": "Marion",
			"tested": 72187,
			"confirmed_cases": 4296,
			"deaths": 113,
			"latitude": 38.7313,
			"longitude": -88.8647
		},
		{
			"CountyName": "Marshall",
			"tested": 17052,
			"confirmed_cases": 865,
			"deaths": 15,
			"latitude": 40.9973,
			"longitude": -89.3606
		},
		{
			"CountyName": "Mason",
			"tested": 19629,
			"confirmed_cases": 1296,
			"deaths": 41,
			"latitude": 40.2271,
			"longitude": -89.9253
		},
		{
			"CountyName": "Massac",
			"tested": 10694,
			"confirmed_cases": 1299,
			"deaths": 36,
			"latitude": 37.2478,
			"longitude": -88.7494
		},
		{
			"CountyName": "McDonough",
			"tested": 42784,
			"confirmed_cases": 2347,
			"deaths": 41,
			"latitude": 40.3885,
			"longitude": -90.6773
		},
		{
			"CountyName": "McHenry",
			"tested": 281608,
			"confirmed_cases": 24865,
			"deaths": 268,
			"latitude": 42.304,
			"longitude": -88.4016
		},
		{
			"CountyName": "McLean",
			"tested": 268760,
			"confirmed_cases": 14896,
			"deaths": 162,
			"latitude": 40.5478,
			"longitude": -88.8647
		},
		{
			"CountyName": "Menard",
			"tested": 16656,
			"confirmed_cases": 1056,
			"deaths": 8,
			"latitude": 40.0221,
			"longitude": -89.813
		},
		{
			"CountyName": "Mercer",
			"tested": 15489,
			"confirmed_cases": 1295,
			"deaths": 33,
			"latitude": 41.1985,
			"longitude": -90.6773
		},
		{
			"CountyName": "Monroe",
			"tested": 37652,
			"confirmed_cases": 4116,
			"deaths": 89,
			"latitude": 38.2743,
			"longitude": -90.187
		},
		{
			"CountyName": "Montgomery",
			"tested": 59796,
			"confirmed_cases": 3560,
			"deaths": 71,
			"latitude": 39.2364,
			"longitude": -89.4742
		},
		{
			"CountyName": "Morgan",
			"tested": 51102,
			"confirmed_cases": 3642,
			"deaths": 78,
			"latitude": 39.7341,
			"longitude": -90.2245
		},
		{
			"CountyName": "Moultrie",
			"tested": 21271,
			"confirmed_cases": 1510,
			"deaths": 24,
			"latitude": 39.6021,
			"longitude": -88.5952
		},
		{
			"CountyName": "Ogle",
			"tested": 53249,
			"confirmed_cases": 5156,
			"deaths": 76,
			"latitude": 41.997,
			"longitude": -89.3227
		},
		{
			"CountyName": "Out Of State",
			"tested": 121707,
			"confirmed_cases": 2,
			"deaths": 0,
			"latitude": 0.0,
			"longitude": 0.0
		},
		{
			"CountyName": "Peoria",
			"tested": 264875,
			"confirmed_cases": 17200,
			"deaths": 268,
			"latitude": 40.7156,
			"longitude": -89.7755
		},
		{
			"CountyName": "Perry",
			"tested": 39403,
			"confirmed_cases": 3090,
			"deaths": 59,
			"latitude": 38.0612,
			"longitude": -89.3227
		},
		{
			"CountyName": "Piatt",
			"tested": 27376,
			"confirmed_cases": 1364,
			"deaths": 14,
			"latitude": 40.02861312,
			"longitude": -88.57328
		},
		{
			"CountyName": "Pike",
			"tested": 16435,
			"confirmed_cases": 1714,
			"deaths": 50,
			"latitude": 39.5662,
			"longitude": -90.8294
		},
		{
			"CountyName": "Pope",
			"tested": 2723,
			"confirmed_cases": 288,
			"deaths": 3,
			"latitude": 37.4171,
			"longitude": -88.5952
		},
		{
			"CountyName": "Pulaski",
			"tested": 5620,
			"confirmed_cases": 672,
			"deaths": 6,
			"latitude": 37.2512,
			"longitude": -89.1325
		},
		{
			"CountyName": "Putnam",
			"tested": 5509,
			"confirmed_cases": 427,
			"deaths": 3,
			"latitude": 41.2385,
			"longitude": -89.2847
		},
		{
			"CountyName": "Randolph",
			"tested": 48058,
			"confirmed_cases": 3999,
			"deaths": 80,
			"latitude": 38.0629,
			"longitude": -89.7755
		},
		{
			"CountyName": "Richland",
			"tested": 22199,
			"confirmed_cases": 1645,
			"deaths": 39,
			"latitude": 38.7213,
			"longitude": -88.0901
		},
		{
			"CountyName": "Rock Island",
			"tested": 169822,
			"confirmed_cases": 13312,
			"deaths": 289,
			"latitude": 41.5095,
			"longitude": -90.5787
		},
		{
			"CountyName": "Saline",
			"tested": 30451,
			"confirmed_cases": 2369,
			"deaths": 49,
			"latitude": 37.715,
			"longitude": -88.5565
		},
		{
			"CountyName": "Sangamon",
			"tested": 316769,
			"confirmed_cases": 16397,
			"deaths": 225,
			"latitude": 39.7337,
			"longitude": -89.6252
		},
		{
			"CountyName": "Schuyler",
			"tested": 10905,
			"confirmed_cases": 683,
			"deaths": 5,
			"latitude": 40.1845,
			"longitude": -90.6394
		},
		{
			"CountyName": "Scott",
			"tested": 7668,
			"confirmed_cases": 451,
			"deaths": 1,
			"latitude": 39.6095,
			"longitude": -90.488
		},
		{
			"CountyName": "Shelby",
			"tested": 23047,
			"confirmed_cases": 2177,
			"deaths": 35,
			"latitude": 39.3981,
			"longitude": -88.8647
		},
		{
			"CountyName": "St. Clair",
			"tested": 324910,
			"confirmed_cases": 26049,
			"deaths": 480,
			"latitude": 38.4008,
			"longitude": -89.9253
		},
		{
			"CountyName": "Stark",
			"tested": 7795,
			"confirmed_cases": 546,
			"deaths": 23,
			"latitude": 41.0796,
			"longitude": -89.813
		},
		{
			"CountyName": "Stephenson",
			"tested": 49550,
			"confirmed_cases": 4165,
			"deaths": 78,
			"latitude": 42.3145,
			"longitude": -89.6252
		},
		{
			"CountyName": "Tazewell",
			"tested": 186078,
			"confirmed_cases": 13845,
			"deaths": 242,
			"latitude": 40.5522,
			"longitude": -89.4742
		},
		{
			"CountyName": "Unassigned",
			"tested": 107532,
			"confirmed_cases": 90,
			"deaths": 0,
			"latitude": -89.510168,
			"longitude": 39.839888
		},
		{
			"CountyName": "Union",
			"tested": 30876,
			"confirmed_cases": 2213,
			"deaths": 39,
			"latitude": 37.5087,
			"longitude": -89.2847
		},
		{
			"CountyName": "Vermilion",
			"tested": 116635,
			"confirmed_cases": 8718,
			"deaths": 119,
			"latitude": 40.1225,
			"longitude": -87.6976
		},
		{
			"CountyName": "Wabash",
			"tested": 12491,
			"confirmed_cases": 1308,
			"deaths": 12,
			"latitude": 38.4226,
			"longitude": -87.8157
		},
		{
			"CountyName": "Warren",
			"tested": 16044,
			"confirmed_cases": 1667,
			"deaths": 44,
			"latitude": 40.8759,
			"longitude": -90.6773
		},
		{
			"CountyName": "Washington",
			"tested": 11690,
			"confirmed_cases": 1595,
			"deaths": 25,
			"latitude": 38.3989,
			"longitude": -89.3227
		},
		{
			"CountyName": "Wayne",
			"tested": 14887,
			"confirmed_cases": 1695,
			"deaths": 49,
			"latitude": 38.39,
			"longitude": -88.4016
		},
		{
			"CountyName": "White",
			"tested": 21316,
			"confirmed_cases": 1634,
			"deaths": 25,
			"latitude": 38.0501,
			"longitude": -88.2461
		},
		{
			"CountyName": "Whiteside",
			"tested": 59896,
			"confirmed_cases": 6010,
			"deaths": 150,
			"latitude": 41.7606,
			"longitude": -89.8505
		},
		{
			"CountyName": "Will",
			"tested": 763209,
			"confirmed_cases": 66517,
			"deaths": 921,
			"latitude": 41.5055,
			"longitude": -88.0901
		},
		{
			"CountyName": "Williamson",
			"tested": 88816,
			"confirmed_cases": 6926,
			"deaths": 123,
			"latitude": 37.7183,
			"longitude": -88.8647
		},
		{
			"CountyName": "Winnebago",
			"tested": 337604,
			"confirmed_cases": 28579,
			"deaths": 446,
			"latitude": 42.3121,
			"longitude": -89.1706
		},
		{
			"CountyName": "Woodford",
			"tested": 58266,
			"confirmed_cases": 3768,
			"deaths": 60,
			"latitude": 40.7129,
			"longitude": -89.1706
		}
	]
}