{
  "LastUpdateDate": {
    "year": 2020,
    "month": 11,
    "day": 9
  },
  "county_rates": [
    {
      "County": "Adams",
      "confirmed_cases": 2888,
      "confirmed_rate_per_10k": 439.634,
      "confirmed_rate_per_100k": 4396.34,
      "deaths": 29,
      "deaths_rate_per_10k": 4.41461,
      "deaths_rate_per_100k": 44.1461,
      "total_tested": 44301,
      "test_rate_per_10k": 6743.85,
      "test_rate_per_100k": 67438.5,
      "total_population": 65691,
      "latitude": 40.057800,
      "longitude": -91.135300
    },
    {
      "County": "Alexander",
      "confirmed_cases": 182,
      "confirmed_rate_per_10k": 300.33,
      "confirmed_rate_per_100k": 3003.3,
      "deaths": 2,
      "deaths_rate_per_10k": 3.30033,
      "deaths_rate_per_100k": 33.0033,
      "total_tested": 2662,
      "test_rate_per_10k": 4392.74,
      "test_rate_per_100k": 43927.4,
      "total_population": 6060,
      "latitude": 37.167000,
      "longitude": -89.360600
    },
    {
      "County": "Bond",
      "confirmed_cases": 687,
      "confirmed_rate_per_10k": 413.109,
      "confirmed_rate_per_100k": 4131.09,
      "deaths": 9,
      "deaths_rate_per_10k": 5.41191,
      "deaths_rate_per_100k": 54.1191,
      "total_tested": 9041,
      "test_rate_per_10k": 5436.56,
      "test_rate_per_100k": 54365.6,
      "total_population": 16630,
      "latitude": 38.903000,
      "longitude": -89.474200
    },
    {
      "County": "Boone",
      "confirmed_cases": 2637,
      "confirmed_rate_per_10k": 492.189,
      "confirmed_rate_per_100k": 4921.89,
      "deaths": 26,
      "deaths_rate_per_10k": 4.85283,
      "deaths_rate_per_100k": 48.5283,
      "total_tested": 26044,
      "test_rate_per_10k": 4861.04,
      "test_rate_per_100k": 48610.4,
      "total_population": 53577,
      "latitude": 42.348500,
      "longitude": -88.826300
    },
    {
      "County": "Brown",
      "confirmed_cases": 188,
      "confirmed_rate_per_10k": 286.76,
      "confirmed_rate_per_100k": 2867.6,
      "deaths": 0,
      "deaths_rate_per_10k": 0,
      "deaths_rate_per_100k": 0,
      "total_tested": 2618,
      "test_rate_per_10k": 3993.29,
      "test_rate_per_100k": 39932.9,
      "total_population": 6556,
      "latitude": 39.938000,
      "longitude": -90.715300
    },
    {
      "County": "Bureau",
      "confirmed_cases": 1328,
      "confirmed_rate_per_10k": 402.51,
      "confirmed_rate_per_100k": 4025.1,
      "deaths": 19,
      "deaths_rate_per_10k": 5.7588,
      "deaths_rate_per_100k": 57.588,
      "total_tested": 15338,
      "test_rate_per_10k": 4648.86,
      "test_rate_per_100k": 46488.6,
      "total_population": 32993,
      "latitude": 41.359900,
      "longitude": -89.474200
    },
    {
      "County": "Calhoun",
      "confirmed_cases": 125,
      "confirmed_rate_per_10k": 260.308,
      "confirmed_rate_per_100k": 2603.08,
      "deaths": 0,
      "deaths_rate_per_10k": 0,
      "deaths_rate_per_100k": 0,
      "total_tested": 2030,
      "test_rate_per_10k": 4227.41,
      "test_rate_per_100k": 42274.1,
      "total_population": 4802,
      "latitude": 39.173300,
      "longitude": -90.658300
    },
    {
      "County": "Carroll",
      "confirmed_cases": 723,
      "confirmed_rate_per_10k": 505.17,
      "confirmed_rate_per_100k": 5051.7,
      "deaths": 18,
      "deaths_rate_per_10k": 12.5769,
      "deaths_rate_per_100k": 125.769,
      "total_tested": 8495,
      "test_rate_per_10k": 5935.58,
      "test_rate_per_100k": 59355.8,
      "total_population": 14312,
      "latitude": 42.038600,
      "longitude": -89.962700
    },
    {
      "County": "Cass",
      "confirmed_cases": 572,
      "confirmed_rate_per_10k": 466.558,
      "confirmed_rate_per_100k": 4665.58,
      "deaths": 11,
      "deaths_rate_per_10k": 8.97227,
      "deaths_rate_per_100k": 89.7227,
      "total_tested": 6394,
      "test_rate_per_10k": 5215.33,
      "test_rate_per_100k": 52153.3,
      "total_population": 12260,
      "latitude": 39.939900,
      "longitude": -90.262000
    },
    {
      "County": "Champaign",
      "confirmed_cases": 8003,
      "confirmed_rate_per_10k": 381.126,
      "confirmed_rate_per_100k": 3811.26,
      "deaths": 33,
      "deaths_rate_per_10k": 1.57156,
      "deaths_rate_per_100k": 15.7156,
      "total_tested": 894291,
      "test_rate_per_10k": 42588.7,
      "test_rate_per_100k": 425887,
      "total_population": 209983,
      "latitude": 40.213900,
      "longitude": -88.246100
    },
    {
      "County": "Chicago",
      "confirmed_cases": 119960,
      "confirmed_rate_per_10k": 443.312,
      "confirmed_rate_per_100k": 4433.12,
      "deaths": 3138,
      "deaths_rate_per_10k": 11.5965,
      "deaths_rate_per_100k": 115.965,
      "total_tested": 1683482,
      "test_rate_per_10k": 6221.31,
      "test_rate_per_100k": 62213.1,
      "total_population": 2705994,
      "latitude": 41.789896,
      "longitude": -87.627734
    },
    {
      "County": "Christian",
      "confirmed_cases": 1224,
      "confirmed_rate_per_10k": 374.759,
      "confirmed_rate_per_100k": 3747.59,
      "deaths": 31,
      "deaths_rate_per_10k": 9.49144,
      "deaths_rate_per_100k": 94.9144,
      "total_tested": 16025,
      "test_rate_per_10k": 4906.46,
      "test_rate_per_100k": 49064.6,
      "total_population": 32661,
      "latitude": 39.567200,
      "longitude": -89.322700
    },
    {
      "County": "Clark",
      "confirmed_cases": 502,
      "confirmed_rate_per_10k": 321.877,
      "confirmed_rate_per_100k": 3218.77,
      "deaths": 19,
      "deaths_rate_per_10k": 12.1826,
      "deaths_rate_per_100k": 121.826,
      "total_tested": 6086,
      "test_rate_per_10k": 3902.28,
      "test_rate_per_100k": 39022.8,
      "total_population": 15596,
      "latitude": 39.382400,
      "longitude": -87.776300
    },
    {
      "County": "Clay",
      "confirmed_cases": 436,
      "confirmed_rate_per_10k": 328.982,
      "confirmed_rate_per_100k": 3289.82,
      "deaths": 16,
      "deaths_rate_per_10k": 12.0727,
      "deaths_rate_per_100k": 120.727,
      "total_tested": 5047,
      "test_rate_per_10k": 3808.19,
      "test_rate_per_100k": 38081.9,
      "total_population": 13253,
      "latitude": 38.727900,
      "longitude": -88.556500
    },
    {
      "County": "Clinton",
      "confirmed_cases": 2207,
      "confirmed_rate_per_10k": 586.36,
      "confirmed_rate_per_100k": 5863.6,
      "deaths": 35,
      "deaths_rate_per_10k": 9.29887,
      "deaths_rate_per_100k": 92.9887,
      "total_tested": 20663,
      "test_rate_per_10k": 5489.78,
      "test_rate_per_100k": 54897.8,
      "total_population": 37639,
      "latitude": 38.568400,
      "longitude": -89.625200
    },
    {
      "County": "Coles",
      "confirmed_cases": 2503,
      "confirmed_rate_per_10k": 491.893,
      "confirmed_rate_per_100k": 4918.93,
      "deaths": 49,
      "deaths_rate_per_10k": 9.62956,
      "deaths_rate_per_100k": 96.2956,
      "total_tested": 29858,
      "test_rate_per_10k": 5867.74,
      "test_rate_per_100k": 58677.4,
      "total_population": 50885,
      "latitude": 39.556000,
      "longitude": -88.246100
    },
    {
      "County": "Cook",
      "confirmed_cases": 103150,
      "confirmed_rate_per_10k": 416.852,
      "confirmed_rate_per_100k": 4168.52,
      "deaths": 2507,
      "deaths_rate_per_10k": 10.1313,
      "deaths_rate_per_100k": 101.313,
      "total_tested": 1476783,
      "test_rate_per_10k": 5968.01,
      "test_rate_per_100k": 59680.1,
      "total_population": 2474499,
      "latitude": 42.050784,
      "longitude": -87.963759
    },
    {
      "County": "Crawford",
      "confirmed_cases": 748,
      "confirmed_rate_per_10k": 397.724,
      "confirmed_rate_per_100k": 3977.24,
      "deaths": 6,
      "deaths_rate_per_10k": 3.1903,
      "deaths_rate_per_100k": 31.903,
      "total_tested": 6623,
      "test_rate_per_10k": 3521.56,
      "test_rate_per_100k": 35215.6,
      "total_population": 18807,
      "latitude": 39.050000,
      "longitude": -87.776300
    },
    {
      "County": "Cumberland",
      "confirmed_cases": 418,
      "confirmed_rate_per_10k": 386.751,
      "confirmed_rate_per_100k": 3867.51,
      "deaths": 6,
      "deaths_rate_per_10k": 5.55144,
      "deaths_rate_per_100k": 55.5144,
      "total_tested": 5050,
      "test_rate_per_10k": 4672.46,
      "test_rate_per_100k": 46724.6,
      "total_population": 10808,
      "latitude": 39.265400,
      "longitude": -88.207200
    },
    {
      "County": "De Witt",
      "confirmed_cases": 432,
      "confirmed_rate_per_10k": 273.955,
      "confirmed_rate_per_100k": 2739.55,
      "deaths": 7,
      "deaths_rate_per_10k": 4.43909,
      "deaths_rate_per_100k": 44.3909,
      "total_tested": 6989,
      "test_rate_per_10k": 4432.11,
      "test_rate_per_100k": 44321.1,
      "total_population": 15769,
      "latitude": 40.181000,
      "longitude": -88.903100
    },
    {
      "County": "DeKalb",
      "confirmed_cases": 3433,
      "confirmed_rate_per_10k": 329.643,
      "confirmed_rate_per_100k": 3296.43,
      "deaths": 43,
      "deaths_rate_per_10k": 4.12894,
      "deaths_rate_per_100k": 41.2894,
      "total_tested": 53503,
      "test_rate_per_10k": 5137.46,
      "test_rate_per_100k": 51374.6,
      "total_population": 104143,
      "latitude": 41.833000,
      "longitude": -88.710900
    },
    {
      "County": "Douglas",
      "confirmed_cases": 995,
      "confirmed_rate_per_10k": 510.807,
      "confirmed_rate_per_100k": 5108.07,
      "deaths": 10,
      "deaths_rate_per_10k": 5.13373,
      "deaths_rate_per_100k": 51.3373,
      "total_tested": 12816,
      "test_rate_per_10k": 6579.39,
      "test_rate_per_100k": 65793.9,
      "total_population": 19479,
      "latitude": 39.761800,
      "longitude": -88.207200
    },
    {
      "County": "DuPage",
      "confirmed_cases": 30977,
      "confirmed_rate_per_10k": 333.592,
      "confirmed_rate_per_100k": 3335.92,
      "deaths": 642,
      "deaths_rate_per_10k": 6.91372,
      "deaths_rate_per_100k": 69.1372,
      "total_tested": 485341,
      "test_rate_per_10k": 5226.65,
      "test_rate_per_100k": 52266.5,
      "total_population": 928589,
      "latitude": 41.824400,
      "longitude": -88.090100
    },
    {
      "County": "Edgar",
      "confirmed_cases": 497,
      "confirmed_rate_per_10k": 286.29,
      "confirmed_rate_per_100k": 2862.9,
      "deaths": 12,
      "deaths_rate_per_10k": 6.91244,
      "deaths_rate_per_100k": 69.1244,
      "total_tested": 5458,
      "test_rate_per_10k": 3144.01,
      "test_rate_per_100k": 31440.1,
      "total_population": 17360,
      "latitude": 39.713100,
      "longitude": -87.776300
    },
    {
      "County": "Edwards",
      "confirmed_cases": 135,
      "confirmed_rate_per_10k": 211.202,
      "confirmed_rate_per_100k": 2112.02,
      "deaths": 0,
      "deaths_rate_per_10k": 0,
      "deaths_rate_per_100k": 0,
      "total_tested": 1286,
      "test_rate_per_10k": 2011.89,
      "test_rate_per_100k": 20118.9,
      "total_population": 6392,
      "latitude": 38.426800,
      "longitude": -88.051000
    },
    {
      "County": "Effingham",
      "confirmed_cases": 1717,
      "confirmed_rate_per_10k": 501.929,
      "confirmed_rate_per_100k": 5019.29,
      "deaths": 5,
      "deaths_rate_per_10k": 1.46165,
      "deaths_rate_per_100k": 14.6165,
      "total_tested": 16712,
      "test_rate_per_10k": 4885.41,
      "test_rate_per_100k": 48854.1,
      "total_population": 34208,
      "latitude": 39.062200,
      "longitude": -88.556500
    },
    {
      "County": "Fayette",
      "confirmed_cases": 974,
      "confirmed_rate_per_10k": 454.8,
      "confirmed_rate_per_100k": 4548,
      "deaths": 26,
      "deaths_rate_per_10k": 12.1405,
      "deaths_rate_per_100k": 121.405,
      "total_tested": 8967,
      "test_rate_per_10k": 4187.06,
      "test_rate_per_100k": 41870.6,
      "total_population": 21416,
      "latitude": 39.067000,
      "longitude": -89.017900
    },
    {
      "County": "Ford",
      "confirmed_cases": 405,
      "confirmed_rate_per_10k": 305.338,
      "confirmed_rate_per_100k": 3053.38,
      "deaths": 17,
      "deaths_rate_per_10k": 12.8166,
      "deaths_rate_per_100k": 128.166,
      "total_tested": 8928,
      "test_rate_per_10k": 6731,
      "test_rate_per_100k": 67310,
      "total_population": 13264,
      "latitude": 40.498900,
      "longitude": -88.207200
    },
    {
      "County": "Franklin",
      "confirmed_cases": 1324,
      "confirmed_rate_per_10k": 342.11,
      "confirmed_rate_per_100k": 3421.1,
      "deaths": 13,
      "deaths_rate_per_10k": 3.35909,
      "deaths_rate_per_100k": 33.5909,
      "total_tested": 18769,
      "test_rate_per_10k": 4849.75,
      "test_rate_per_100k": 48497.5,
      "total_population": 38701,
      "latitude": 38.015700,
      "longitude": -88.903100
    },
    {
      "County": "Fulton",
      "confirmed_cases": 856,
      "confirmed_rate_per_10k": 245.666,
      "confirmed_rate_per_100k": 2456.66,
      "deaths": 4,
      "deaths_rate_per_10k": 1.14797,
      "deaths_rate_per_100k": 11.4797,
      "total_tested": 18927,
      "test_rate_per_10k": 5431.93,
      "test_rate_per_100k": 54319.3,
      "total_population": 34844,
      "latitude": 40.553200,
      "longitude": -90.224500
    },
    {
      "County": "Gallatin",
      "confirmed_cases": 137,
      "confirmed_rate_per_10k": 270.858,
      "confirmed_rate_per_100k": 2708.58,
      "deaths": 2,
      "deaths_rate_per_10k": 3.95413,
      "deaths_rate_per_100k": 39.5413,
      "total_tested": 1278,
      "test_rate_per_10k": 2526.69,
      "test_rate_per_100k": 25266.9,
      "total_population": 5058,
      "latitude": 37.710800,
      "longitude": -88.246100
    },
    {
      "County": "Greene",
      "confirmed_cases": 510,
      "confirmed_rate_per_10k": 390.984,
      "confirmed_rate_per_100k": 3909.84,
      "deaths": 18,
      "deaths_rate_per_10k": 13.7994,
      "deaths_rate_per_100k": 137.994,
      "total_tested": 5632,
      "test_rate_per_10k": 4317.69,
      "test_rate_per_100k": 43176.9,
      "total_population": 13044,
      "latitude": 39.403000,
      "longitude": -90.374800
    },
    {
      "County": "Grundy",
      "confirmed_cases": 1557,
      "confirmed_rate_per_10k": 305.462,
      "confirmed_rate_per_100k": 3054.62,
      "deaths": 8,
      "deaths_rate_per_10k": 1.56949,
      "deaths_rate_per_100k": 15.6949,
      "total_tested": 17414,
      "test_rate_per_10k": 3416.39,
      "test_rate_per_100k": 34163.9,
      "total_population": 50972,
      "latitude": 41.350100,
      "longitude": -88.401600
    },
    {
      "County": "Hamilton",
      "confirmed_cases": 204,
      "confirmed_rate_per_10k": 249.908,
      "confirmed_rate_per_100k": 2499.08,
      "deaths": 2,
      "deaths_rate_per_10k": 2.45008,
      "deaths_rate_per_100k": 24.5008,
      "total_tested": 2427,
      "test_rate_per_10k": 2973.17,
      "test_rate_per_100k": 29731.7,
      "total_population": 8163,
      "latitude": 38.054300,
      "longitude": -88.556500
    },
    {
      "County": "Hancock",
      "confirmed_cases": 571,
      "confirmed_rate_per_10k": 319.996,
      "confirmed_rate_per_100k": 3199.96,
      "deaths": 5,
      "deaths_rate_per_10k": 2.80206,
      "deaths_rate_per_100k": 28.0206,
      "total_tested": 7993,
      "test_rate_per_10k": 4479.38,
      "test_rate_per_100k": 44793.8,
      "total_population": 17844,
      "latitude": 40.384900,
      "longitude": -91.135300
    },
    {
      "County": "Hardin",
      "confirmed_cases": 71,
      "confirmed_rate_per_10k": 181.586,
      "confirmed_rate_per_100k": 1815.86,
      "deaths": 0,
      "deaths_rate_per_10k": 0,
      "deaths_rate_per_100k": 0,
      "total_tested": 1548,
      "test_rate_per_10k": 3959.08,
      "test_rate_per_100k": 39590.8,
      "total_population": 3910,
      "latitude": 37.499500,
      "longitude": -88.362800
    },
    {
      "County": "Henderson",
      "confirmed_cases": 175,
      "confirmed_rate_per_10k": 260.844,
      "confirmed_rate_per_100k": 2608.44,
      "deaths": 0,
      "deaths_rate_per_10k": 0,
      "deaths_rate_per_100k": 0,
      "total_tested": 2415,
      "test_rate_per_10k": 3599.64,
      "test_rate_per_100k": 35996.4,
      "total_population": 6709,
      "latitude": 40.833600,
      "longitude": -90.943800
    },
    {
      "County": "Henry",
      "confirmed_cases": 1381,
      "confirmed_rate_per_10k": 281.32,
      "confirmed_rate_per_100k": 2813.2,
      "deaths": 9,
      "deaths_rate_per_10k": 1.83337,
      "deaths_rate_per_100k": 18.3337,
      "total_tested": 24674,
      "test_rate_per_10k": 5026.28,
      "test_rate_per_100k": 50262.8,
      "total_population": 49090,
      "latitude": 41.361100,
      "longitude": -90.074700
    },
    {
      "County": "Iroquois",
      "confirmed_cases": 895,
      "confirmed_rate_per_10k": 324.228,
      "confirmed_rate_per_100k": 3242.28,
      "deaths": 20,
      "deaths_rate_per_10k": 7.24533,
      "deaths_rate_per_100k": 72.4533,
      "total_tested": 16350,
      "test_rate_per_10k": 5923.05,
      "test_rate_per_100k": 59230.5,
      "total_population": 27604,
      "latitude": 40.774000,
      "longitude": -87.697600
    },
    {
      "County": "Jackson",
      "confirmed_cases": 1877,
      "confirmed_rate_per_10k": 326.895,
      "confirmed_rate_per_100k": 3268.95,
      "deaths": 27,
      "deaths_rate_per_10k": 4.70228,
      "deaths_rate_per_100k": 47.0228,
      "total_tested": 26143,
      "test_rate_per_10k": 4553.02,
      "test_rate_per_100k": 45530.2,
      "total_population": 57419,
      "latitude": 37.721800,
      "longitude": -89.322700
    },
    {
      "County": "Jasper",
      "confirmed_cases": 421,
      "confirmed_rate_per_10k": 438.04,
      "confirmed_rate_per_100k": 4380.4,
      "deaths": 10,
      "deaths_rate_per_10k": 10.4047,
      "deaths_rate_per_100k": 104.047,
      "total_tested": 3870,
      "test_rate_per_10k": 4026.64,
      "test_rate_per_100k": 40266.4,
      "total_population": 9611,
      "latitude": 39.055500,
      "longitude": -88.090100
    },
    {
      "County": "Jefferson",
      "confirmed_cases": 1239,
      "confirmed_rate_per_10k": 327.604,
      "confirmed_rate_per_100k": 3276.04,
      "deaths": 55,
      "deaths_rate_per_10k": 14.5426,
      "deaths_rate_per_100k": 145.426,
      "total_tested": 15671,
      "test_rate_per_10k": 4143.57,
      "test_rate_per_100k": 41435.7,
      "total_population": 37820,
      "latitude": 38.226700,
      "longitude": -88.864700
    },
    {
      "County": "Jersey",
      "confirmed_cases": 764,
      "confirmed_rate_per_10k": 349.705,
      "confirmed_rate_per_100k": 3497.05,
      "deaths": 21,
      "deaths_rate_per_10k": 9.6123,
      "deaths_rate_per_100k": 96.123,
      "total_tested": 9593,
      "test_rate_per_10k": 4390.99,
      "test_rate_per_100k": 43909.9,
      "total_population": 21847,
      "latitude": 39.070500,
      "longitude": -90.374800
    },
    {
      "County": "Jo Daviess",
      "confirmed_cases": 701,
      "confirmed_rate_per_10k": 328.091,
      "confirmed_rate_per_100k": 3280.91,
      "deaths": 11,
      "deaths_rate_per_10k": 5.14837,
      "deaths_rate_per_100k": 51.4837,
      "total_tested": 8746,
      "test_rate_per_10k": 4093.42,
      "test_rate_per_100k": 40934.2,
      "total_population": 21366,
      "latitude": 42.314900,
      "longitude": -90.224500
    },
    {
      "County": "Johnson",
      "confirmed_cases": 497,
      "confirmed_rate_per_10k": 399.004,
      "confirmed_rate_per_100k": 3990.04,
      "deaths": 0,
      "deaths_rate_per_10k": 0,
      "deaths_rate_per_100k": 0,
      "total_tested": 4810,
      "test_rate_per_10k": 3861.59,
      "test_rate_per_100k": 38615.9,
      "total_population": 12456,
      "latitude": 37.420400,
      "longitude": -88.903100
    },
    {
      "County": "Kane",
      "confirmed_cases": 22579,
      "confirmed_rate_per_10k": 422.657,
      "confirmed_rate_per_100k": 4226.57,
      "deaths": 363,
      "deaths_rate_per_10k": 6.795,
      "deaths_rate_per_100k": 67.95,
      "total_tested": 260557,
      "test_rate_per_10k": 4877.37,
      "test_rate_per_100k": 48773.7,
      "total_population": 534216,
      "latitude": 41.987900,
      "longitude": -88.401600
    },
    {
      "County": "Kankakee",
      "confirmed_cases": 5066,
      "confirmed_rate_per_10k": 460.445,
      "confirmed_rate_per_100k": 4604.45,
      "deaths": 86,
      "deaths_rate_per_10k": 7.81648,
      "deaths_rate_per_100k": 78.1648,
      "total_tested": 78502,
      "test_rate_per_10k": 7134.99,
      "test_rate_per_100k": 71349.9,
      "total_population": 110024,
      "latitude": 41.179100,
      "longitude": -87.776300
    },
    {
      "County": "Kendall",
      "confirmed_cases": 3999,
      "confirmed_rate_per_10k": 312.629,
      "confirmed_rate_per_100k": 3126.29,
      "deaths": 31,
      "deaths_rate_per_10k": 2.42348,
      "deaths_rate_per_100k": 24.2348,
      "total_tested": 51847,
      "test_rate_per_10k": 4053.24,
      "test_rate_per_100k": 40532.4,
      "total_population": 127915,
      "latitude": 41.550700,
      "longitude": -88.440400
    },
    {
      "County": "Knox",
      "confirmed_cases": 1781,
      "confirmed_rate_per_10k": 355.404,
      "confirmed_rate_per_100k": 3554.04,
      "deaths": 29,
      "deaths_rate_per_10k": 5.78704,
      "deaths_rate_per_100k": 57.8704,
      "total_tested": 27768,
      "test_rate_per_10k": 5541.19,
      "test_rate_per_100k": 55411.9,
      "total_population": 50112,
      "latitude": 40.877600,
      "longitude": -90.224500
    },
    {
      "County": "Lake",
      "confirmed_cases": 26541,
      "confirmed_rate_per_10k": 378.707,
      "confirmed_rate_per_100k": 3787.07,
      "deaths": 531,
      "deaths_rate_per_10k": 7.57671,
      "deaths_rate_per_100k": 75.7671,
      "total_tested": 371725,
      "test_rate_per_10k": 5304.05,
      "test_rate_per_100k": 53040.5,
      "total_population": 700832,
      "latitude": 42.368900,
      "longitude": -87.827200
    },
    {
      "County": "LaSalle",
      "confirmed_cases": 3763,
      "confirmed_rate_per_10k": 343.873,
      "confirmed_rate_per_100k": 3438.73,
      "deaths": 76,
      "deaths_rate_per_10k": 6.94508,
      "deaths_rate_per_100k": 69.4508,
      "total_tested": 46800,
      "test_rate_per_10k": 4276.71,
      "test_rate_per_100k": 42767.1,
      "total_population": 109430,
      "latitude": 41.436400,
      "longitude": -88.941400
    },
    {
      "County": "Lawrence",
      "confirmed_cases": 458,
      "confirmed_rate_per_10k": 290.517,
      "confirmed_rate_per_100k": 2905.17,
      "deaths": 8,
      "deaths_rate_per_10k": 5.07453,
      "deaths_rate_per_100k": 50.7453,
      "total_tested": 7881,
      "test_rate_per_10k": 4999.05,
      "test_rate_per_100k": 49990.5,
      "total_population": 15765,
      "latitude": 38.715800,
      "longitude": -87.776300
    },
    {
      "County": "Lee",
      "confirmed_cases": 1201,
      "confirmed_rate_per_10k": 350.934,
      "confirmed_rate_per_100k": 3509.34,
      "deaths": 4,
      "deaths_rate_per_10k": 1.1688,
      "deaths_rate_per_100k": 11.688,
      "total_tested": 13218,
      "test_rate_per_10k": 3862.31,
      "test_rate_per_100k": 38623.1,
      "total_population": 34223,
      "latitude": 41.679000,
      "longitude": -89.322700
    },
    {
      "County": "Livingston",
      "confirmed_cases": 1153,
      "confirmed_rate_per_10k": 322.418,
      "confirmed_rate_per_100k": 3224.18,
      "deaths": 12,
      "deaths_rate_per_10k": 3.35561,
      "deaths_rate_per_100k": 33.5561,
      "total_tested": 21611,
      "test_rate_per_10k": 6043.18,
      "test_rate_per_100k": 60431.8,
      "total_population": 35761,
      "latitude": 40.868900,
      "longitude": -88.556500
    },
    {
      "County": "Logan",
      "confirmed_cases": 909,
      "confirmed_rate_per_10k": 314.261,
      "confirmed_rate_per_100k": 3142.61,
      "deaths": 5,
      "deaths_rate_per_10k": 1.72861,
      "deaths_rate_per_100k": 17.2861,
      "total_tested": 21239,
      "test_rate_per_10k": 7342.78,
      "test_rate_per_100k": 73427.8,
      "total_population": 28925,
      "latitude": 40.061300,
      "longitude": -89.322700
    },
    {
      "County": "Macon",
      "confirmed_cases": 4546,
      "confirmed_rate_per_10k": 434.143,
      "confirmed_rate_per_100k": 4341.43,
      "deaths": 73,
      "deaths_rate_per_10k": 6.9715,
      "deaths_rate_per_100k": 69.715,
      "total_tested": 63030,
      "test_rate_per_10k": 6019.37,
      "test_rate_per_100k": 60193.7,
      "total_population": 104712,
      "latitude": 39.894900,
      "longitude": -89.017900
    },
    {
      "County": "Macoupin",
      "confirmed_cases": 1144,
      "confirmed_rate_per_10k": 252.466,
      "confirmed_rate_per_100k": 2524.66,
      "deaths": 13,
      "deaths_rate_per_10k": 2.86893,
      "deaths_rate_per_100k": 28.6893,
      "total_tested": 25151,
      "test_rate_per_10k": 5550.5,
      "test_rate_per_100k": 55505,
      "total_population": 45313,
      "latitude": 39.237500,
      "longitude": -89.925300
    },
    {
      "County": "Madison",
      "confirmed_cases": 9364,
      "confirmed_rate_per_10k": 354.079,
      "confirmed_rate_per_100k": 3540.79,
      "deaths": 168,
      "deaths_rate_per_10k": 6.35254,
      "deaths_rate_per_100k": 63.5254,
      "total_tested": 112810,
      "test_rate_per_10k": 4265.66,
      "test_rate_per_100k": 42656.6,
      "total_population": 264461,
      "latitude": 38.904100,
      "longitude": -89.925300
    },
    {
      "County": "Marion",
      "confirmed_cases": 1428,
      "confirmed_rate_per_10k": 379.585,
      "confirmed_rate_per_100k": 3795.85,
      "deaths": 29,
      "deaths_rate_per_10k": 7.70867,
      "deaths_rate_per_100k": 77.0867,
      "total_tested": 22440,
      "test_rate_per_10k": 5964.91,
      "test_rate_per_100k": 59649.1,
      "total_population": 37620,
      "latitude": 38.731300,
      "longitude": -88.864700
    },
    {
      "County": "Marshall",
      "confirmed_cases": 217,
      "confirmed_rate_per_10k": 188.139,
      "confirmed_rate_per_100k": 1881.39,
      "deaths": 4,
      "deaths_rate_per_10k": 3.46801,
      "deaths_rate_per_100k": 34.6801,
      "total_tested": 6523,
      "test_rate_per_10k": 5655.45,
      "test_rate_per_100k": 56554.5,
      "total_population": 11534,
      "latitude": 40.997300,
      "longitude": -89.360600
    },
    {
      "County": "Mason",
      "confirmed_cases": 412,
      "confirmed_rate_per_10k": 303.723,
      "confirmed_rate_per_100k": 3037.23,
      "deaths": 13,
      "deaths_rate_per_10k": 9.58349,
      "deaths_rate_per_100k": 95.8349,
      "total_tested": 7183,
      "test_rate_per_10k": 5295.25,
      "test_rate_per_100k": 52952.5,
      "total_population": 13565,
      "latitude": 40.227100,
      "longitude": -89.925300
    },
    {
      "County": "Massac",
      "confirmed_cases": 227,
      "confirmed_rate_per_10k": 161.222,
      "confirmed_rate_per_100k": 1612.22,
      "deaths": 2,
      "deaths_rate_per_10k": 1.42045,
      "deaths_rate_per_100k": 14.2045,
      "total_tested": 3820,
      "test_rate_per_10k": 2713.07,
      "test_rate_per_100k": 27130.7,
      "total_population": 14080,
      "latitude": 37.247800,
      "longitude": -88.749400
    },
    {
      "County": "McDonough",
      "confirmed_cases": 1081,
      "confirmed_rate_per_10k": 360.875,
      "confirmed_rate_per_100k": 3608.75,
      "deaths": 24,
      "deaths_rate_per_10k": 8.01202,
      "deaths_rate_per_100k": 80.1202,
      "total_tested": 15596,
      "test_rate_per_10k": 5206.48,
      "test_rate_per_100k": 52064.8,
      "total_population": 29955,
      "latitude": 40.388500,
      "longitude": -90.677300
    },
    {
      "County": "McHenry",
      "confirmed_cases": 9521,
      "confirmed_rate_per_10k": 308.552,
      "confirmed_rate_per_100k": 3085.52,
      "deaths": 121,
      "deaths_rate_per_10k": 3.92131,
      "deaths_rate_per_100k": 39.2131,
      "total_tested": 119300,
      "test_rate_per_10k": 3866.22,
      "test_rate_per_100k": 38662.2,
      "total_population": 308570,
      "latitude": 42.304000,
      "longitude": -88.401600
    },
    {
      "County": "McLean",
      "confirmed_cases": 5686,
      "confirmed_rate_per_10k": 328.998,
      "confirmed_rate_per_100k": 3289.98,
      "deaths": 40,
      "deaths_rate_per_10k": 2.31444,
      "deaths_rate_per_100k": 23.1444,
      "total_tested": 114320,
      "test_rate_per_10k": 6614.67,
      "test_rate_per_100k": 66146.7,
      "total_population": 172828,
      "latitude": 40.547800,
      "longitude": -88.864700
    },
    {
      "County": "Menard",
      "confirmed_cases": 244,
      "confirmed_rate_per_10k": 198.568,
      "confirmed_rate_per_100k": 1985.68,
      "deaths": 1,
      "deaths_rate_per_10k": 0.813802,
      "deaths_rate_per_100k": 8.13802,
      "total_tested": 6848,
      "test_rate_per_10k": 5572.92,
      "test_rate_per_100k": 55729.2,
      "total_population": 12288,
      "latitude": 40.022100,
      "longitude": -89.813000
    },
    {
      "County": "Mercer",
      "confirmed_cases": 455,
      "confirmed_rate_per_10k": 291.648,
      "confirmed_rate_per_100k": 2916.48,
      "deaths": 7,
      "deaths_rate_per_10k": 4.48689,
      "deaths_rate_per_100k": 44.8689,
      "total_tested": 7494,
      "test_rate_per_10k": 4803.54,
      "test_rate_per_100k": 48035.4,
      "total_population": 15601,
      "latitude": 41.198500,
      "longitude": -90.677300
    },
    {
      "County": "Monroe",
      "confirmed_cases": 1304,
      "confirmed_rate_per_10k": 379.787,
      "confirmed_rate_per_100k": 3797.87,
      "deaths": 39,
      "deaths_rate_per_10k": 11.3587,
      "deaths_rate_per_100k": 113.587,
      "total_tested": 13290,
      "test_rate_per_10k": 3870.69,
      "test_rate_per_100k": 38706.9,
      "total_population": 34335,
      "latitude": 38.274300,
      "longitude": -90.187000
    },
    {
      "County": "Montgomery",
      "confirmed_cases": 791,
      "confirmed_rate_per_10k": 276.564,
      "confirmed_rate_per_100k": 2765.64,
      "deaths": 17,
      "deaths_rate_per_10k": 5.94385,
      "deaths_rate_per_100k": 59.4385,
      "total_tested": 19712,
      "test_rate_per_10k": 6892.07,
      "test_rate_per_100k": 68920.7,
      "total_population": 28601,
      "latitude": 39.236400,
      "longitude": -89.474200
    },
    {
      "County": "Morgan",
      "confirmed_cases": 1296,
      "confirmed_rate_per_10k": 381.446,
      "confirmed_rate_per_100k": 3814.46,
      "deaths": 27,
      "deaths_rate_per_10k": 7.94679,
      "deaths_rate_per_100k": 79.4679,
      "total_tested": 18243,
      "test_rate_per_10k": 5369.38,
      "test_rate_per_100k": 53693.8,
      "total_population": 33976,
      "latitude": 39.734100,
      "longitude": -90.224500
    },
    {
      "County": "Moultrie",
      "confirmed_cases": 604,
      "confirmed_rate_per_10k": 410.41,
      "confirmed_rate_per_100k": 4104.1,
      "deaths": 8,
      "deaths_rate_per_10k": 5.43589,
      "deaths_rate_per_100k": 54.3589,
      "total_tested": 8333,
      "test_rate_per_10k": 5662.16,
      "test_rate_per_100k": 56621.6,
      "total_population": 14717,
      "latitude": 39.602100,
      "longitude": -88.595200
    },
    {
      "County": "Ogle",
      "confirmed_cases": 1840,
      "confirmed_rate_per_10k": 361.33,
      "confirmed_rate_per_100k": 3613.3,
      "deaths": 8,
      "deaths_rate_per_10k": 1.571,
      "deaths_rate_per_100k": 15.71,
      "total_tested": 23554,
      "test_rate_per_10k": 4625.41,
      "test_rate_per_100k": 46254.1,
      "total_population": 50923,
      "latitude": 41.997000,
      "longitude": -89.322700
    },
    {
      "County": "Peoria",
      "confirmed_cases": 6027,
      "confirmed_rate_per_10k": 333.682,
      "confirmed_rate_per_100k": 3336.82,
      "deaths": 91,
      "deaths_rate_per_10k": 5.03817,
      "deaths_rate_per_100k": 50.3817,
      "total_tested": 124502,
      "test_rate_per_10k": 6893,
      "test_rate_per_100k": 68930,
      "total_population": 180621,
      "latitude": 40.715600,
      "longitude": -89.775500
    },
    {
      "County": "Perry",
      "confirmed_cases": 641,
      "confirmed_rate_per_10k": 302.73,
      "confirmed_rate_per_100k": 3027.3,
      "deaths": 16,
      "deaths_rate_per_10k": 7.55644,
      "deaths_rate_per_100k": 75.5644,
      "total_tested": 8633,
      "test_rate_per_10k": 4077.17,
      "test_rate_per_100k": 40771.7,
      "total_population": 21174,
      "latitude": 38.061200,
      "longitude": -89.322700
    },
    {
      "County": "Piatt",
      "confirmed_cases": 442,
      "confirmed_rate_per_10k": 269.578,
      "confirmed_rate_per_100k": 2695.78,
      "deaths": 4,
      "deaths_rate_per_10k": 2.43962,
      "deaths_rate_per_100k": 24.3962,
      "total_tested": 12668,
      "test_rate_per_10k": 7726.27,
      "test_rate_per_100k": 77262.7,
      "total_population": 16396,
      "latitude": 40.054400,
      "longitude": -88.855650
    },
    {
      "County": "Pike",
      "confirmed_cases": 649,
      "confirmed_rate_per_10k": 415.732,
      "confirmed_rate_per_100k": 4157.32,
      "deaths": 11,
      "deaths_rate_per_10k": 7.04631,
      "deaths_rate_per_100k": 70.4631,
      "total_tested": 6882,
      "test_rate_per_10k": 4408.43,
      "test_rate_per_100k": 44084.3,
      "total_population": 15611,
      "latitude": 39.566200,
      "longitude": -90.829400
    },
    {
      "County": "Pope",
      "confirmed_cases": 53,
      "confirmed_rate_per_10k": 125.831,
      "confirmed_rate_per_100k": 1258.31,
      "deaths": 1,
      "deaths_rate_per_10k": 2.37417,
      "deaths_rate_per_100k": 23.7417,
      "total_tested": 943,
      "test_rate_per_10k": 2238.84,
      "test_rate_per_100k": 22388.4,
      "total_population": 4212,
      "latitude": 37.417100,
      "longitude": -88.595200
    },
    {
      "County": "Pulaski",
      "confirmed_cases": 283,
      "confirmed_rate_per_10k": 518.03,
      "confirmed_rate_per_100k": 5180.3,
      "deaths": 1,
      "deaths_rate_per_10k": 1.8305,
      "deaths_rate_per_100k": 18.305,
      "total_tested": 2384,
      "test_rate_per_10k": 4363.9,
      "test_rate_per_100k": 43639,
      "total_population": 5463,
      "latitude": 37.251200,
      "longitude": -89.132500
    },
    {
      "County": "Putnam",
      "confirmed_cases": 137,
      "confirmed_rate_per_10k": 238.676,
      "confirmed_rate_per_100k": 2386.76,
      "deaths": 0,
      "deaths_rate_per_10k": 0,
      "deaths_rate_per_100k": 0,
      "total_tested": 1870,
      "test_rate_per_10k": 3257.84,
      "test_rate_per_100k": 32578.4,
      "total_population": 5740,
      "latitude": 41.238500,
      "longitude": -89.284700
    },
    {
      "County": "Randolph",
      "confirmed_cases": 1581,
      "confirmed_rate_per_10k": 492.431,
      "confirmed_rate_per_100k": 4924.31,
      "deaths": 19,
      "deaths_rate_per_10k": 5.9179,
      "deaths_rate_per_100k": 59.179,
      "total_tested": 18033,
      "test_rate_per_10k": 5616.71,
      "test_rate_per_100k": 56167.1,
      "total_population": 32106,
      "latitude": 38.062900,
      "longitude": -89.775500
    },
    {
      "County": "Richland",
      "confirmed_cases": 416,
      "confirmed_rate_per_10k": 263.909,
      "confirmed_rate_per_100k": 2639.09,
      "deaths": 18,
      "deaths_rate_per_10k": 11.4191,
      "deaths_rate_per_100k": 114.191,
      "total_tested": 8722,
      "test_rate_per_10k": 5533.21,
      "test_rate_per_100k": 55332.1,
      "total_population": 15763,
      "latitude": 38.721300,
      "longitude": -88.090100
    },
    {
      "County": "Rock Island",
      "confirmed_cases": 5636,
      "confirmed_rate_per_10k": 392.816,
      "confirmed_rate_per_100k": 3928.16,
      "deaths": 101,
      "deaths_rate_per_10k": 7.03946,
      "deaths_rate_per_100k": 70.3946,
      "total_tested": 82848,
      "test_rate_per_10k": 5774.31,
      "test_rate_per_100k": 57743.1,
      "total_population": 143477,
      "latitude": 41.509500,
      "longitude": -90.578700
    },
    {
      "County": "Saline",
      "confirmed_cases": 770,
      "confirmed_rate_per_10k": 322.095,
      "confirmed_rate_per_100k": 3220.95,
      "deaths": 14,
      "deaths_rate_per_10k": 5.85627,
      "deaths_rate_per_100k": 58.5627,
      "total_tested": 9664,
      "test_rate_per_10k": 4042.5,
      "test_rate_per_100k": 40425,
      "total_population": 23906,
      "latitude": 37.715000,
      "longitude": -88.556500
    },
    {
      "County": "Sangamon",
      "confirmed_cases": 6162,
      "confirmed_rate_per_10k": 315.437,
      "confirmed_rate_per_100k": 3154.37,
      "deaths": 67,
      "deaths_rate_per_10k": 3.42978,
      "deaths_rate_per_100k": 34.2978,
      "total_tested": 152034,
      "test_rate_per_10k": 7782.73,
      "test_rate_per_100k": 77827.3,
      "total_population": 195348,
      "latitude": 39.733700,
      "longitude": -89.625200
    },
    {
      "County": "Schuyler",
      "confirmed_cases": 130,
      "confirmed_rate_per_10k": 188.215,
      "confirmed_rate_per_100k": 1882.15,
      "deaths": 1,
      "deaths_rate_per_10k": 1.44781,
      "deaths_rate_per_100k": 14.4781,
      "total_tested": 2530,
      "test_rate_per_10k": 3662.95,
      "test_rate_per_100k": 36629.5,
      "total_population": 6907,
      "latitude": 40.184500,
      "longitude": -90.639400
    },
    {
      "County": "Scott",
      "confirmed_cases": 151,
      "confirmed_rate_per_10k": 306.537,
      "confirmed_rate_per_100k": 3065.37,
      "deaths": 0,
      "deaths_rate_per_10k": 0,
      "deaths_rate_per_100k": 0,
      "total_tested": 3171,
      "test_rate_per_10k": 6437.27,
      "test_rate_per_100k": 64372.7,
      "total_population": 4926,
      "latitude": 39.609500,
      "longitude": -90.488000
    },
    {
      "County": "Shelby",
      "confirmed_cases": 910,
      "confirmed_rate_per_10k": 418.564,
      "confirmed_rate_per_100k": 4185.64,
      "deaths": 19,
      "deaths_rate_per_10k": 8.73925,
      "deaths_rate_per_100k": 87.3925,
      "total_tested": 9756,
      "test_rate_per_10k": 4487.37,
      "test_rate_per_100k": 44873.7,
      "total_population": 21741,
      "latitude": 39.398100,
      "longitude": -88.864700
    },
    {
      "County": "St. Clair",
      "confirmed_cases": 9409,
      "confirmed_rate_per_10k": 360.417,
      "confirmed_rate_per_100k": 3604.17,
      "deaths": 230,
      "deaths_rate_per_10k": 8.81027,
      "deaths_rate_per_100k": 88.1027,
      "total_tested": 119873,
      "test_rate_per_10k": 4591.8,
      "test_rate_per_100k": 45918,
      "total_population": 261059,
      "latitude": 38.400800,
      "longitude": -89.925300
    },
    {
      "County": "Stark",
      "confirmed_cases": 136,
      "confirmed_rate_per_10k": 250.599,
      "confirmed_rate_per_100k": 2505.99,
      "deaths": 3,
      "deaths_rate_per_10k": 5.52792,
      "deaths_rate_per_100k": 55.2792,
      "total_tested": 3322,
      "test_rate_per_10k": 6121.25,
      "test_rate_per_100k": 61212.5,
      "total_population": 5427,
      "latitude": 41.079600,
      "longitude": -89.813000
    },
    {
      "County": "Stephenson",
      "confirmed_cases": 1654,
      "confirmed_rate_per_10k": 369.584,
      "confirmed_rate_per_100k": 3695.84,
      "deaths": 13,
      "deaths_rate_per_10k": 2.90483,
      "deaths_rate_per_100k": 29.0483,
      "total_tested": 20308,
      "test_rate_per_10k": 4537.8,
      "test_rate_per_100k": 45378,
      "total_population": 44753,
      "latitude": 42.314500,
      "longitude": -89.625200
    },
    {
      "County": "Tazewell",
      "confirmed_cases": 3845,
      "confirmed_rate_per_10k": 290.566,
      "confirmed_rate_per_100k": 2905.66,
      "deaths": 64,
      "deaths_rate_per_10k": 4.83647,
      "deaths_rate_per_100k": 48.3647,
      "total_tested": 84723,
      "test_rate_per_10k": 6402.5,
      "test_rate_per_100k": 64025,
      "total_population": 132328,
      "latitude": 40.552200,
      "longitude": -89.474200
    },
    {
      "County": "Union",
      "confirmed_cases": 880,
      "confirmed_rate_per_10k": 522.534,
      "confirmed_rate_per_100k": 5225.34,
      "deaths": 25,
      "deaths_rate_per_10k": 14.8447,
      "deaths_rate_per_100k": 148.447,
      "total_tested": 10190,
      "test_rate_per_10k": 6050.71,
      "test_rate_per_100k": 60507.1,
      "total_population": 16841,
      "latitude": 37.508700,
      "longitude": -89.284700
    },
    {
      "County": "Vermilion",
      "confirmed_cases": 2397,
      "confirmed_rate_per_10k": 312.085,
      "confirmed_rate_per_100k": 3120.85,
      "deaths": 20,
      "deaths_rate_per_10k": 2.60396,
      "deaths_rate_per_100k": 26.0396,
      "total_tested": 42270,
      "test_rate_per_10k": 5503.48,
      "test_rate_per_100k": 55034.8,
      "total_population": 76806,
      "latitude": 40.122500,
      "longitude": -87.697600
    },
    {
      "County": "Wabash",
      "confirmed_cases": 330,
      "confirmed_rate_per_10k": 285.739,
      "confirmed_rate_per_100k": 2857.39,
      "deaths": 6,
      "deaths_rate_per_10k": 5.19526,
      "deaths_rate_per_100k": 51.9526,
      "total_tested": 3345,
      "test_rate_per_10k": 2896.35,
      "test_rate_per_100k": 28963.5,
      "total_population": 11549,
      "latitude": 38.422600,
      "longitude": -87.815700
    },
    {
      "County": "Warren",
      "confirmed_cases": 704,
      "confirmed_rate_per_10k": 413.34,
      "confirmed_rate_per_100k": 4133.4,
      "deaths": 11,
      "deaths_rate_per_10k": 6.45843,
      "deaths_rate_per_100k": 64.5843,
      "total_tested": 6645,
      "test_rate_per_10k": 3901.48,
      "test_rate_per_100k": 39014.8,
      "total_population": 17032,
      "latitude": 40.875900,
      "longitude": -90.677300
    },
    {
      "County": "Washington",
      "confirmed_cases": 422,
      "confirmed_rate_per_10k": 301.536,
      "confirmed_rate_per_100k": 3015.36,
      "deaths": 2,
      "deaths_rate_per_10k": 1.42908,
      "deaths_rate_per_100k": 14.2908,
      "total_tested": 4751,
      "test_rate_per_10k": 3394.78,
      "test_rate_per_100k": 33947.8,
      "total_population": 13995,
      "latitude": 38.398900,
      "longitude": -89.322700
    },
    {
      "County": "Wayne",
      "confirmed_cases": 642,
      "confirmed_rate_per_10k": 393.093,
      "confirmed_rate_per_100k": 3930.93,
      "deaths": 20,
      "deaths_rate_per_10k": 12.2459,
      "deaths_rate_per_100k": 122.459,
      "total_tested": 6308,
      "test_rate_per_10k": 3862.36,
      "test_rate_per_100k": 38623.6,
      "total_population": 16332,
      "latitude": 38.390000,
      "longitude": -88.401600
    },
    {
      "County": "White",
      "confirmed_cases": 360,
      "confirmed_rate_per_10k": 263.447,
      "confirmed_rate_per_100k": 2634.47,
      "deaths": 5,
      "deaths_rate_per_10k": 3.65898,
      "deaths_rate_per_100k": 36.5898,
      "total_tested": 8523,
      "test_rate_per_10k": 6237.1,
      "test_rate_per_100k": 62371,
      "total_population": 13665,
      "latitude": 38.050100,
      "longitude": -88.246100
    },
    {
      "County": "Whiteside",
      "confirmed_cases": 2392,
      "confirmed_rate_per_10k": 430.015,
      "confirmed_rate_per_100k": 4300.15,
      "deaths": 48,
      "deaths_rate_per_10k": 8.62906,
      "deaths_rate_per_100k": 86.2906,
      "total_tested": 25609,
      "test_rate_per_10k": 4603.78,
      "test_rate_per_100k": 46037.8,
      "total_population": 55626,
      "latitude": 41.760600,
      "longitude": -89.850500
    },
    {
      "County": "Will",
      "confirmed_cases": 25132,
      "confirmed_rate_per_10k": 363.017,
      "confirmed_rate_per_100k": 3630.17,
      "deaths": 458,
      "deaths_rate_per_10k": 6.61553,
      "deaths_rate_per_100k": 66.1553,
      "total_tested": 320025,
      "test_rate_per_10k": 4622.57,
      "test_rate_per_100k": 46225.7,
      "total_population": 692310,
      "latitude": 41.505500,
      "longitude": -88.090100
    },
    {
      "County": "Williamson",
      "confirmed_cases": 2452,
      "confirmed_rate_per_10k": 365.665,
      "confirmed_rate_per_100k": 3656.65,
      "deaths": 65,
      "deaths_rate_per_10k": 9.69339,
      "deaths_rate_per_100k": 96.9339,
      "total_tested": 35946,
      "test_rate_per_10k": 5360.59,
      "test_rate_per_100k": 53605.9,
      "total_population": 67056,
      "latitude": 37.718300,
      "longitude": -88.864700
    },
    {
      "County": "Winnebago",
      "confirmed_cases": 13881,
      "confirmed_rate_per_10k": 488.628,
      "confirmed_rate_per_100k": 4886.28,
      "deaths": 200,
      "deaths_rate_per_10k": 7.04025,
      "deaths_rate_per_100k": 70.4025,
      "total_tested": 158752,
      "test_rate_per_10k": 5588.27,
      "test_rate_per_100k": 55882.7,
      "total_population": 284081,
      "latitude": 42.312100,
      "longitude": -89.170600
    },
    {
      "County": "Woodford",
      "confirmed_cases": 1014,
      "confirmed_rate_per_10k": 263.63,
      "confirmed_rate_per_100k": 2636.3,
      "deaths": 17,
      "deaths_rate_per_10k": 4.41983,
      "deaths_rate_per_100k": 44.1983,
      "total_tested": 20753,
      "test_rate_per_10k": 5395.57,
      "test_rate_per_100k": 53955.7,
      "total_population": 38463,
      "latitude": 40.712900,
      "longitude": -89.170600
    }
  ]
}
