{
	"lastUpdatedDate": {
		"year": 2021,
		"month": 1,
		"day": 25
	},
	"county_rates": [
		{
			"County": "Adams",
			"confirmed_cases": 7564,
			"confirmed_rate_per_10k": 1151.451492594115,
			"confirmed_rate_per_100k": 11514.51492594115,
			"deaths": 101,
			"deaths_rate_per_10k": 15.375013319937,
			"deaths_rate_per_100k": 153.75013319937,
			"total_tested": 108375,
			"test_rate_per_10k": 16497.69374800201,
			"test_rate_per_100k": 164976.9374800201,
			"total_population": 65691,
			"latitude": 40.0578,
			"longitude": -91.1353
		},
		{
			"County": "Alexander",
			"confirmed_cases": 406,
			"confirmed_rate_per_10k": 669.96699669967,
			"confirmed_rate_per_100k": 6699.6699669967,
			"deaths": 7,
			"deaths_rate_per_10k": 11.551155115512,
			"deaths_rate_per_100k": 115.51155115512,
			"total_tested": 4370,
			"test_rate_per_10k": 7211.221122112211,
			"test_rate_per_100k": 72112.21122112211,
			"total_population": 6060,
			"latitude": 37.167,
			"longitude": -89.3606
		},
		{
			"County": "Bond",
			"confirmed_cases": 1785,
			"confirmed_rate_per_10k": 1073.361395069152,
			"confirmed_rate_per_100k": 10733.61395069152,
			"deaths": 19,
			"deaths_rate_per_10k": 11.425135297655,
			"deaths_rate_per_100k": 114.25135297655,
			"total_tested": 18828,
			"test_rate_per_10k": 11321.707757065544,
			"test_rate_per_100k": 113217.07757065544,
			"total_population": 16630,
			"latitude": 38.903,
			"longitude": -89.4742
		},
		{
			"County": "Boone",
			"confirmed_cases": 5665,
			"confirmed_rate_per_10k": 1057.356701569703,
			"confirmed_rate_per_100k": 10573.56701569703,
			"deaths": 68,
			"deaths_rate_per_10k": 12.692013363943,
			"deaths_rate_per_100k": 126.92013363943,
			"total_tested": 45640,
			"test_rate_per_10k": 8518.580734270303,
			"test_rate_per_100k": 85185.80734270303,
			"total_population": 53577,
			"latitude": 42.3485,
			"longitude": -88.8263
		},
		{
			"County": "Brown",
			"confirmed_cases": 626,
			"confirmed_rate_per_10k": 954.850518608908,
			"confirmed_rate_per_100k": 9548.50518608908,
			"deaths": 5,
			"deaths_rate_per_10k": 7.626601586333,
			"deaths_rate_per_100k": 76.26601586333,
			"total_tested": 14215,
			"test_rate_per_10k": 21682.428309945088,
			"test_rate_per_100k": 216824.28309945087,
			"total_population": 6556,
			"latitude": 39.938,
			"longitude": -90.7153
		},
		{
			"County": "Bureau",
			"confirmed_cases": 3059,
			"confirmed_rate_per_10k": 927.166368623647,
			"confirmed_rate_per_100k": 9271.66368623647,
			"deaths": 72,
			"deaths_rate_per_10k": 21.822810899282,
			"deaths_rate_per_100k": 218.22810899282,
			"total_tested": 31036,
			"test_rate_per_10k": 9406.843875973691,
			"test_rate_per_100k": 94068.4387597369,
			"total_population": 32993,
			"latitude": 41.3599,
			"longitude": -89.4742
		},
		{
			"County": "Calhoun",
			"confirmed_cases": 450,
			"confirmed_rate_per_10k": 937.109537692628,
			"confirmed_rate_per_100k": 9371.09537692628,
			"deaths": 1,
			"deaths_rate_per_10k": 2.082465639317,
			"deaths_rate_per_100k": 20.82465639317,
			"total_tested": 4431,
			"test_rate_per_10k": 9227.40524781341,
			"test_rate_per_100k": 92274.05247813411,
			"total_population": 4802,
			"latitude": 39.1733,
			"longitude": -90.6583
		},
		{
			"County": "Carroll",
			"confirmed_cases": 1476,
			"confirmed_rate_per_10k": 1031.302403577418,
			"confirmed_rate_per_100k": 10313.02403577418,
			"deaths": 32,
			"deaths_rate_per_10k": 22.358859698155,
			"deaths_rate_per_100k": 223.58859698155,
			"total_tested": 15501,
			"test_rate_per_10k": 10830.771380659586,
			"test_rate_per_100k": 108307.71380659586,
			"total_population": 14312,
			"latitude": 42.0386,
			"longitude": -89.9627
		},
		{
			"County": "Cass",
			"confirmed_cases": 1795,
			"confirmed_rate_per_10k": 1464.110929853181,
			"confirmed_rate_per_100k": 14641.10929853181,
			"deaths": 21,
			"deaths_rate_per_10k": 17.128874388254,
			"deaths_rate_per_100k": 171.28874388254,
			"total_tested": 14848,
			"test_rate_per_10k": 12110.929853181076,
			"test_rate_per_100k": 121109.29853181077,
			"total_population": 12260,
			"latitude": 39.9399,
			"longitude": -90.262
		},
		{
			"County": "Champaign",
			"confirmed_cases": 15937,
			"confirmed_rate_per_10k": 758.966202025878,
			"confirmed_rate_per_100k": 7589.66202025878,
			"deaths": 99,
			"deaths_rate_per_10k": 4.714667377835,
			"deaths_rate_per_100k": 47.14667377835,
			"total_tested": 1408507,
			"test_rate_per_10k": 67077.19196315893,
			"test_rate_per_100k": 670771.9196315892,
			"total_population": 209983,
			"latitude": 40.2139,
			"longitude": -88.2461
		},
		{
			"County": "Chicago",
			"confirmed_cases": 230932,
			"confirmed_rate_per_10k": 853.409135423065,
			"confirmed_rate_per_100k": 8534.09135423065,
			"deaths": 4566,
			"deaths_rate_per_10k": 16.873651604549,
			"deaths_rate_per_100k": 168.73651604549,
			"total_tested": 2925456,
			"test_rate_per_10k": 10811.0217539285,
			"test_rate_per_100k": 108110.217539285,
			"total_population": 2705994,
			"latitude": 41.789896,
			"longitude": -87.627734
		},
		{
			"County": "Christian",
			"confirmed_cases": 3062,
			"confirmed_rate_per_10k": 937.509567986283,
			"confirmed_rate_per_100k": 9375.09567986283,
			"deaths": 61,
			"deaths_rate_per_10k": 18.67670922507,
			"deaths_rate_per_100k": 186.7670922507,
			"total_tested": 34106,
			"test_rate_per_10k": 10442.423685741403,
			"test_rate_per_100k": 104424.23685741404,
			"total_population": 32661,
			"latitude": 39.5672,
			"longitude": -89.3227
		},
		{
			"County": "Clark",
			"confirmed_cases": 1532,
			"confirmed_rate_per_10k": 982.30315465504,
			"confirmed_rate_per_100k": 9823.0315465504,
			"deaths": 27,
			"deaths_rate_per_10k": 17.312131315722,
			"deaths_rate_per_100k": 173.12131315722,
			"total_tested": 11737,
			"test_rate_per_10k": 7525.647601949218,
			"test_rate_per_100k": 75256.47601949218,
			"total_population": 15596,
			"latitude": 39.3824,
			"longitude": -87.7763
		},
		{
			"County": "Clay",
			"confirmed_cases": 1340,
			"confirmed_rate_per_10k": 1011.091828265298,
			"confirmed_rate_per_100k": 10110.91828265298,
			"deaths": 35,
			"deaths_rate_per_10k": 26.409114917377,
			"deaths_rate_per_100k": 264.09114917377,
			"total_tested": 11730,
			"test_rate_per_10k": 8850.826228023843,
			"test_rate_per_100k": 88508.26228023844,
			"total_population": 13253,
			"latitude": 38.7279,
			"longitude": -88.5565
		},
		{
			"County": "Clinton",
			"confirmed_cases": 5188,
			"confirmed_rate_per_10k": 1378.357554664045,
			"confirmed_rate_per_100k": 13783.57554664045,
			"deaths": 79,
			"deaths_rate_per_10k": 20.988867929541,
			"deaths_rate_per_100k": 209.88867929541,
			"total_tested": 44914,
			"test_rate_per_10k": 11932.835622625467,
			"test_rate_per_100k": 119328.35622625468,
			"total_population": 37639,
			"latitude": 38.5684,
			"longitude": -89.6252
		},
		{
			"County": "Coles",
			"confirmed_cases": 4804,
			"confirmed_rate_per_10k": 944.089613835118,
			"confirmed_rate_per_100k": 9440.89613835118,
			"deaths": 84,
			"deaths_rate_per_10k": 16.507811732338,
			"deaths_rate_per_100k": 165.07811732338,
			"total_tested": 55430,
			"test_rate_per_10k": 10893.19052766041,
			"test_rate_per_100k": 108931.90527660411,
			"total_population": 50885,
			"latitude": 39.556,
			"longitude": -88.2461
		},
		{
			"County": "Cook",
			"confirmed_cases": 215103,
			"confirmed_rate_per_10k": 869.278993444734,
			"confirmed_rate_per_100k": 8692.78993444734,
			"deaths": 4158,
			"deaths_rate_per_10k": 16.803401415802,
			"deaths_rate_per_100k": 168.03401415802,
			"total_tested": 2660327,
			"test_rate_per_10k": 10750.97221700231,
			"test_rate_per_100k": 107509.7221700231,
			"total_population": 2474499,
			"latitude": 42.050784,
			"longitude": -87.963759
		},
		{
			"County": "Crawford",
			"confirmed_cases": 1836,
			"confirmed_rate_per_10k": 976.232253947998,
			"confirmed_rate_per_100k": 9762.32253947998,
			"deaths": 20,
			"deaths_rate_per_10k": 10.634338278301,
			"deaths_rate_per_100k": 106.34338278301,
			"total_tested": 25558,
			"test_rate_per_10k": 13589.620885840379,
			"test_rate_per_100k": 135896.20885840378,
			"total_population": 18807,
			"latitude": 39.05,
			"longitude": -87.7763
		},
		{
			"County": "Cumberland",
			"confirmed_cases": 1118,
			"confirmed_rate_per_10k": 1034.418948926721,
			"confirmed_rate_per_100k": 10344.18948926721,
			"deaths": 15,
			"deaths_rate_per_10k": 13.878608438194,
			"deaths_rate_per_100k": 138.78608438194,
			"total_tested": 9067,
			"test_rate_per_10k": 8389.156180606959,
			"test_rate_per_100k": 83891.56180606959,
			"total_population": 10808,
			"latitude": 39.2654,
			"longitude": -88.2072
		},
		{
			"County": "De Witt",
			"confirmed_cases": 1192,
			"confirmed_rate_per_10k": 755.913501173188,
			"confirmed_rate_per_100k": 7559.13501173188,
			"deaths": 21,
			"deaths_rate_per_10k": 13.317268057581,
			"deaths_rate_per_100k": 133.17268057581,
			"total_tested": 14982,
			"test_rate_per_10k": 9500.919525651596,
			"test_rate_per_100k": 95009.19525651594,
			"total_population": 15769,
			"latitude": 40.181,
			"longitude": -88.9031
		},
		{
			"County": "DeKalb",
			"confirmed_cases": 7699,
			"confirmed_rate_per_10k": 739.2719625899,
			"confirmed_rate_per_100k": 7392.719625899,
			"deaths": 92,
			"deaths_rate_per_10k": 8.83400708641,
			"deaths_rate_per_100k": 88.3400708641,
			"total_tested": 92809,
			"test_rate_per_10k": 8911.688735680747,
			"test_rate_per_100k": 89116.88735680746,
			"total_population": 104143,
			"latitude": 41.833,
			"longitude": -88.7109
		},
		{
			"County": "Douglas",
			"confirmed_cases": 2057,
			"confirmed_rate_per_10k": 1056.009035371426,
			"confirmed_rate_per_100k": 10560.09035371426,
			"deaths": 28,
			"deaths_rate_per_10k": 14.374454540788,
			"deaths_rate_per_100k": 143.74454540788,
			"total_tested": 22878,
			"test_rate_per_10k": 11744.956106576314,
			"test_rate_per_100k": 117449.56106576313,
			"total_population": 19479,
			"latitude": 39.7618,
			"longitude": -88.2072
		},
		{
			"County": "DuPage",
			"confirmed_cases": 71070,
			"confirmed_rate_per_10k": 765.354747902463,
			"confirmed_rate_per_100k": 7653.54747902463,
			"deaths": 1089,
			"deaths_rate_per_10k": 11.727470387868,
			"deaths_rate_per_100k": 117.27470387868,
			"total_tested": 904351,
			"test_rate_per_10k": 9738.980323910793,
			"test_rate_per_100k": 97389.80323910795,
			"total_population": 928589,
			"latitude": 41.8244,
			"longitude": -88.0901
		},
		{
			"County": "Edgar",
			"confirmed_cases": 1494,
			"confirmed_rate_per_10k": 860.599078341014,
			"confirmed_rate_per_100k": 8605.99078341014,
			"deaths": 32,
			"deaths_rate_per_10k": 18.433179723502,
			"deaths_rate_per_100k": 184.33179723502,
			"total_tested": 11232,
			"test_rate_per_10k": 6470.046082949309,
			"test_rate_per_100k": 64700.46082949309,
			"total_population": 17360,
			"latitude": 39.7131,
			"longitude": -87.7763
		},
		{
			"County": "Edwards",
			"confirmed_cases": 478,
			"confirmed_rate_per_10k": 747.809762202753,
			"confirmed_rate_per_100k": 7478.09762202753,
			"deaths": 8,
			"deaths_rate_per_10k": 12.515644555695,
			"deaths_rate_per_100k": 125.15644555695,
			"total_tested": 3153,
			"test_rate_per_10k": 4932.728410513141,
			"test_rate_per_100k": 49327.28410513141,
			"total_population": 6392,
			"latitude": 38.4268,
			"longitude": -88.051
		},
		{
			"County": "Effingham",
			"confirmed_cases": 4365,
			"confirmed_rate_per_10k": 1276.017305893358,
			"confirmed_rate_per_100k": 12760.17305893358,
			"deaths": 61,
			"deaths_rate_per_10k": 17.83208606174,
			"deaths_rate_per_100k": 178.3208606174,
			"total_tested": 32933,
			"test_rate_per_10k": 9627.280168381665,
			"test_rate_per_100k": 96272.80168381665,
			"total_population": 34208,
			"latitude": 39.0622,
			"longitude": -88.5565
		},
		{
			"County": "Fayette",
			"confirmed_cases": 2968,
			"confirmed_rate_per_10k": 1385.879716100112,
			"confirmed_rate_per_100k": 13858.79716100112,
			"deaths": 50,
			"deaths_rate_per_10k": 23.347030257751,
			"deaths_rate_per_100k": 233.47030257751,
			"total_tested": 21873,
			"test_rate_per_10k": 10213.391856555845,
			"test_rate_per_100k": 102133.91856555846,
			"total_population": 21416,
			"latitude": 39.067,
			"longitude": -89.0179
		},
		{
			"County": "Ford",
			"confirmed_cases": 1408,
			"confirmed_rate_per_10k": 1061.519903498191,
			"confirmed_rate_per_100k": 10615.19903498191,
			"deaths": 43,
			"deaths_rate_per_10k": 32.418576598311,
			"deaths_rate_per_100k": 324.18576598311,
			"total_tested": 20851,
			"test_rate_per_10k": 15719.993968636913,
			"test_rate_per_100k": 157199.93968636912,
			"total_population": 13264,
			"latitude": 40.4989,
			"longitude": -88.2072
		},
		{
			"County": "Franklin",
			"confirmed_cases": 3946,
			"confirmed_rate_per_10k": 1019.611896333428,
			"confirmed_rate_per_100k": 10196.11896333428,
			"deaths": 60,
			"deaths_rate_per_10k": 15.503475362394,
			"deaths_rate_per_100k": 155.03475362394,
			"total_tested": 37399,
			"test_rate_per_10k": 9663.574584636057,
			"test_rate_per_100k": 96635.74584636056,
			"total_population": 38701,
			"latitude": 38.0157,
			"longitude": -88.9031
		},
		{
			"County": "Fulton",
			"confirmed_cases": 2626,
			"confirmed_rate_per_10k": 753.644816898175,
			"confirmed_rate_per_100k": 7536.44816898175,
			"deaths": 42,
			"deaths_rate_per_10k": 12.053725175066,
			"deaths_rate_per_100k": 120.53725175066,
			"total_tested": 55330,
			"test_rate_per_10k": 15879.34795086672,
			"test_rate_per_100k": 158793.4795086672,
			"total_population": 34844,
			"latitude": 40.5532,
			"longitude": -90.2245
		},
		{
			"County": "Gallatin",
			"confirmed_cases": 397,
			"confirmed_rate_per_10k": 784.895215500198,
			"confirmed_rate_per_100k": 7848.95215500198,
			"deaths": 3,
			"deaths_rate_per_10k": 5.931198102017,
			"deaths_rate_per_100k": 59.31198102017,
			"total_tested": 3105,
			"test_rate_per_10k": 6138.790035587189,
			"test_rate_per_100k": 61387.90035587189,
			"total_population": 5058,
			"latitude": 37.7108,
			"longitude": -88.2461
		},
		{
			"County": "Greene",
			"confirmed_cases": 1284,
			"confirmed_rate_per_10k": 984.360625574977,
			"confirmed_rate_per_100k": 9843.60625574977,
			"deaths": 30,
			"deaths_rate_per_10k": 22.999080036799,
			"deaths_rate_per_100k": 229.99080036799,
			"total_tested": 10875,
			"test_rate_per_10k": 8337.166513339465,
			"test_rate_per_100k": 83371.66513339466,
			"total_population": 13044,
			"latitude": 39.403,
			"longitude": -90.3748
		},
		{
			"County": "Grundy",
			"confirmed_cases": 4541,
			"confirmed_rate_per_10k": 890.881268147218,
			"confirmed_rate_per_100k": 8908.81268147218,
			"deaths": 50,
			"deaths_rate_per_10k": 9.809307070549,
			"deaths_rate_per_100k": 98.09307070549,
			"total_tested": 37503,
			"test_rate_per_10k": 7357.568861335635,
			"test_rate_per_100k": 73575.68861335635,
			"total_population": 50972,
			"latitude": 41.3501,
			"longitude": -88.4016
		},
		{
			"County": "Hamilton",
			"confirmed_cases": 732,
			"confirmed_rate_per_10k": 896.72914369717,
			"confirmed_rate_per_100k": 8967.2914369717,
			"deaths": 14,
			"deaths_rate_per_10k": 17.150557393115,
			"deaths_rate_per_100k": 171.50557393115,
			"total_tested": 5324,
			"test_rate_per_10k": 6522.111968638981,
			"test_rate_per_100k": 65221.11968638981,
			"total_population": 8163,
			"latitude": 38.0543,
			"longitude": -88.5565
		},
		{
			"County": "Hancock",
			"confirmed_cases": 1556,
			"confirmed_rate_per_10k": 872.001793319883,
			"confirmed_rate_per_100k": 8720.01793319883,
			"deaths": 25,
			"deaths_rate_per_10k": 14.01031158933,
			"deaths_rate_per_100k": 140.1031158933,
			"total_tested": 14314,
			"test_rate_per_10k": 8021.74400358664,
			"test_rate_per_100k": 80217.4400358664,
			"total_population": 17844,
			"latitude": 40.3849,
			"longitude": -91.1353
		},
		{
			"County": "Hardin",
			"confirmed_cases": 312,
			"confirmed_rate_per_10k": 797.953964194373,
			"confirmed_rate_per_100k": 7979.53964194373,
			"deaths": 8,
			"deaths_rate_per_10k": 20.460358056266,
			"deaths_rate_per_100k": 204.60358056266,
			"total_tested": 3927,
			"test_rate_per_10k": 10043.478260869564,
			"test_rate_per_100k": 100434.78260869565,
			"total_population": 3910,
			"latitude": 37.4995,
			"longitude": -88.3628
		},
		{
			"County": "Henderson",
			"confirmed_cases": 468,
			"confirmed_rate_per_10k": 697.570427783574,
			"confirmed_rate_per_100k": 6975.70427783574,
			"deaths": 7,
			"deaths_rate_per_10k": 10.433745714712,
			"deaths_rate_per_100k": 104.33745714712,
			"total_tested": 5248,
			"test_rate_per_10k": 7822.328215829483,
			"test_rate_per_100k": 78223.28215829482,
			"total_population": 6709,
			"latitude": 40.8336,
			"longitude": -90.9438
		},
		{
			"County": "Henry",
			"confirmed_cases": 4120,
			"confirmed_rate_per_10k": 839.274801385211,
			"confirmed_rate_per_100k": 8392.74801385211,
			"deaths": 51,
			"deaths_rate_per_10k": 10.389081279283,
			"deaths_rate_per_100k": 103.89081279283,
			"total_tested": 50521,
			"test_rate_per_10k": 10291.505398248117,
			"test_rate_per_100k": 102915.05398248116,
			"total_population": 49090,
			"latitude": 41.3611,
			"longitude": -90.0747
		},
		{
			"County": "Illinois",
			"confirmed_cases": 1104763,
			"confirmed_rate_per_10k": 867.087405463273,
			"confirmed_rate_per_100k": 8670.87405463273,
			"deaths": 18798,
			"deaths_rate_per_10k": 14.753851321866,
			"deaths_rate_per_100k": 147.53851321866,
			"total_tested": 15484034,
			"test_rate_per_10k": 12152.842616167545,
			"test_rate_per_100k": 121528.42616167547,
			"total_population": 12741080,
			"latitude": 39.839888,
			"longitude": -89.510168
		},
		{
			"County": "Iroquois",
			"confirmed_cases": 2630,
			"confirmed_rate_per_10k": 952.760469497174,
			"confirmed_rate_per_100k": 9527.60469497174,
			"deaths": 56,
			"deaths_rate_per_10k": 20.286914939864,
			"deaths_rate_per_100k": 202.86914939864,
			"total_tested": 35151,
			"test_rate_per_10k": 12734.024054484857,
			"test_rate_per_100k": 127340.24054484857,
			"total_population": 27604,
			"latitude": 40.774,
			"longitude": -87.6976
		},
		{
			"County": "Jackson",
			"confirmed_cases": 4316,
			"confirmed_rate_per_10k": 751.667566484961,
			"confirmed_rate_per_100k": 7516.67566484961,
			"deaths": 59,
			"deaths_rate_per_10k": 10.275344398196,
			"deaths_rate_per_100k": 102.75344398196,
			"total_tested": 55416,
			"test_rate_per_10k": 9651.160765600236,
			"test_rate_per_100k": 96511.60765600236,
			"total_population": 57419,
			"latitude": 37.7218,
			"longitude": -89.3227
		},
		{
			"County": "Jasper",
			"confirmed_cases": 1061,
			"confirmed_rate_per_10k": 1103.943398189574,
			"confirmed_rate_per_100k": 11039.43398189574,
			"deaths": 14,
			"deaths_rate_per_10k": 14.566642388929,
			"deaths_rate_per_100k": 145.66642388929,
			"total_tested": 8835,
			"test_rate_per_10k": 9192.591821870774,
			"test_rate_per_100k": 91925.91821870772,
			"total_population": 9611,
			"latitude": 39.0555,
			"longitude": -88.0901
		},
		{
			"County": "Jefferson",
			"confirmed_cases": 3570,
			"confirmed_rate_per_10k": 943.945002644104,
			"confirmed_rate_per_100k": 9439.45002644104,
			"deaths": 104,
			"deaths_rate_per_10k": 27.498677948176,
			"deaths_rate_per_100k": 274.98677948176,
			"total_tested": 33197,
			"test_rate_per_10k": 8777.63088313062,
			"test_rate_per_100k": 87776.30883130619,
			"total_population": 37820,
			"latitude": 38.2267,
			"longitude": -88.8647
		},
		{
			"County": "Jersey",
			"confirmed_cases": 2309,
			"confirmed_rate_per_10k": 1056.895683617888,
			"confirmed_rate_per_100k": 10568.95683617888,
			"deaths": 43,
			"deaths_rate_per_10k": 19.68233624754,
			"deaths_rate_per_100k": 196.8233624754,
			"total_tested": 22790,
			"test_rate_per_10k": 10431.638211196045,
			"test_rate_per_100k": 104316.38211196045,
			"total_population": 21847,
			"latitude": 39.0705,
			"longitude": -90.3748
		},
		{
			"County": "Jo Daviess",
			"confirmed_cases": 1527,
			"confirmed_rate_per_10k": 714.686885706262,
			"confirmed_rate_per_100k": 7146.86885706262,
			"deaths": 22,
			"deaths_rate_per_10k": 10.296733127399,
			"deaths_rate_per_100k": 102.96733127399,
			"total_tested": 16634,
			"test_rate_per_10k": 7785.26631096134,
			"test_rate_per_100k": 77852.6631096134,
			"total_population": 21366,
			"latitude": 42.3149,
			"longitude": -90.2245
		},
		{
			"County": "Johnson",
			"confirmed_cases": 1257,
			"confirmed_rate_per_10k": 1009.152215799615,
			"confirmed_rate_per_100k": 10091.52215799615,
			"deaths": 9,
			"deaths_rate_per_10k": 7.225433526012,
			"deaths_rate_per_100k": 72.25433526012,
			"total_tested": 21822,
			"test_rate_per_10k": 17519.26782273603,
			"test_rate_per_100k": 175192.6782273603,
			"total_population": 12456,
			"latitude": 37.4204,
			"longitude": -88.9031
		},
		{
			"County": "Kane",
			"confirmed_cases": 47289,
			"confirmed_rate_per_10k": 885.203737813918,
			"confirmed_rate_per_100k": 8852.03737813918,
			"deaths": 661,
			"deaths_rate_per_10k": 12.373272234452,
			"deaths_rate_per_100k": 123.73272234452,
			"total_tested": 470645,
			"test_rate_per_10k": 8810.013178190095,
			"test_rate_per_100k": 88100.13178190096,
			"total_population": 534216,
			"latitude": 41.9879,
			"longitude": -88.4016
		},
		{
			"County": "Kankakee",
			"confirmed_cases": 11733,
			"confirmed_rate_per_10k": 1066.403693739548,
			"confirmed_rate_per_100k": 10664.03693739548,
			"deaths": 179,
			"deaths_rate_per_10k": 16.269177633971,
			"deaths_rate_per_100k": 162.69177633971,
			"total_tested": 159598,
			"test_rate_per_10k": 14505.744201265179,
			"test_rate_per_100k": 145057.4420126518,
			"total_population": 110024,
			"latitude": 41.1791,
			"longitude": -87.7763
		},
		{
			"County": "Kendall",
			"confirmed_cases": 10039,
			"confirmed_rate_per_10k": 784.818043231834,
			"confirmed_rate_per_100k": 7848.18043231834,
			"deaths": 72,
			"deaths_rate_per_10k": 5.628737833718,
			"deaths_rate_per_100k": 56.28737833718,
			"total_tested": 94008,
			"test_rate_per_10k": 7349.255364890748,
			"test_rate_per_100k": 73492.55364890747,
			"total_population": 127915,
			"latitude": 41.5507,
			"longitude": -88.4404
		},
		{
			"County": "Knox",
			"confirmed_cases": 4712,
			"confirmed_rate_per_10k": 940.29374201788,
			"confirmed_rate_per_100k": 9402.9374201788,
			"deaths": 117,
			"deaths_rate_per_10k": 23.347701149425,
			"deaths_rate_per_100k": 233.47701149425,
			"total_tested": 63361,
			"test_rate_per_10k": 12643.877713920818,
			"test_rate_per_100k": 126438.77713920816,
			"total_population": 50112,
			"latitude": 40.8776,
			"longitude": -90.2245
		},
		{
			"County": "Lake",
			"confirmed_cases": 54851,
			"confirmed_rate_per_10k": 782.655472352861,
			"confirmed_rate_per_100k": 7826.55472352861,
			"deaths": 853,
			"deaths_rate_per_10k": 12.171247888224,
			"deaths_rate_per_100k": 121.71247888224,
			"total_tested": 679360,
			"test_rate_per_10k": 9693.62129583124,
			"test_rate_per_100k": 96936.2129583124,
			"total_population": 700832,
			"latitude": 42.3689,
			"longitude": -87.8272
		},
		{
			"County": "LaSalle",
			"confirmed_cases": 9807,
			"confirmed_rate_per_10k": 896.189344786622,
			"confirmed_rate_per_100k": 8961.89344786622,
			"deaths": 197,
			"deaths_rate_per_10k": 18.002375948095,
			"deaths_rate_per_100k": 180.02375948095,
			"total_tested": 115154,
			"test_rate_per_10k": 10523.07411130403,
			"test_rate_per_100k": 105230.7411130403,
			"total_population": 109430,
			"latitude": 41.4364,
			"longitude": -88.9414
		},
		{
			"County": "Lawrence",
			"confirmed_cases": 2207,
			"confirmed_rate_per_10k": 1399.936568347605,
			"confirmed_rate_per_100k": 13999.36568347605,
			"deaths": 21,
			"deaths_rate_per_10k": 13.320647002854,
			"deaths_rate_per_100k": 133.20647002854,
			"total_tested": 24367,
			"test_rate_per_10k": 15456.39073897875,
			"test_rate_per_100k": 154563.9073897875,
			"total_population": 15765,
			"latitude": 38.7158,
			"longitude": -87.7763
		},
		{
			"County": "Lee",
			"confirmed_cases": 3145,
			"confirmed_rate_per_10k": 918.972620752126,
			"confirmed_rate_per_100k": 9189.72620752126,
			"deaths": 37,
			"deaths_rate_per_10k": 10.811442597084,
			"deaths_rate_per_100k": 108.11442597084,
			"total_tested": 43801,
			"test_rate_per_10k": 12798.70262688835,
			"test_rate_per_100k": 127987.0262688835,
			"total_population": 34223,
			"latitude": 41.679,
			"longitude": -89.3227
		},
		{
			"County": "Livingston",
			"confirmed_cases": 3811,
			"confirmed_rate_per_10k": 1065.686082603954,
			"confirmed_rate_per_100k": 10656.86082603954,
			"deaths": 60,
			"deaths_rate_per_10k": 16.778054304969,
			"deaths_rate_per_100k": 167.78054304969,
			"total_tested": 60252,
			"test_rate_per_10k": 16848.52213304997,
			"test_rate_per_100k": 168485.2213304997,
			"total_population": 35761,
			"latitude": 40.8689,
			"longitude": -88.5565
		},
		{
			"County": "Logan",
			"confirmed_cases": 3179,
			"confirmed_rate_per_10k": 1099.0492653414,
			"confirmed_rate_per_100k": 10990.492653414,
			"deaths": 47,
			"deaths_rate_per_10k": 16.248919619706,
			"deaths_rate_per_100k": 162.48919619706,
			"total_tested": 55423,
			"test_rate_per_10k": 19160.9334485739,
			"test_rate_per_100k": 191609.33448573897,
			"total_population": 28925,
			"latitude": 40.0613,
			"longitude": -89.3227
		},
		{
			"County": "Macon",
			"confirmed_cases": 9005,
			"confirmed_rate_per_10k": 859.977843991138,
			"confirmed_rate_per_100k": 8599.77843991138,
			"deaths": 172,
			"deaths_rate_per_10k": 16.426006570403,
			"deaths_rate_per_100k": 164.26006570403,
			"total_tested": 117295,
			"test_rate_per_10k": 11201.676980670793,
			"test_rate_per_100k": 112016.76980670792,
			"total_population": 104712,
			"latitude": 39.8949,
			"longitude": -89.0179
		},
		{
			"County": "Macoupin",
			"confirmed_cases": 4029,
			"confirmed_rate_per_10k": 889.148809392448,
			"confirmed_rate_per_100k": 8891.48809392448,
			"deaths": 71,
			"deaths_rate_per_10k": 15.668792620219,
			"deaths_rate_per_100k": 156.68792620219,
			"total_tested": 52364,
			"test_rate_per_10k": 11556.065588241785,
			"test_rate_per_100k": 115560.65588241785,
			"total_population": 45313,
			"latitude": 39.2375,
			"longitude": -89.9253
		},
		{
			"County": "Madison",
			"confirmed_cases": 25429,
			"confirmed_rate_per_10k": 961.540643043776,
			"confirmed_rate_per_100k": 9615.40643043776,
			"deaths": 414,
			"deaths_rate_per_10k": 15.654482135362,
			"deaths_rate_per_100k": 156.54482135362,
			"total_tested": 227892,
			"test_rate_per_10k": 8617.225224135129,
			"test_rate_per_100k": 86172.25224135128,
			"total_population": 264461,
			"latitude": 38.9041,
			"longitude": -89.9253
		},
		{
			"County": "Marion",
			"confirmed_cases": 4093,
			"confirmed_rate_per_10k": 1087.985114300904,
			"confirmed_rate_per_100k": 10879.85114300904,
			"deaths": 107,
			"deaths_rate_per_10k": 28.442317916002,
			"deaths_rate_per_100k": 284.42317916002,
			"total_tested": 51147,
			"test_rate_per_10k": 13595.693779904306,
			"test_rate_per_100k": 135956.93779904305,
			"total_population": 37620,
			"latitude": 38.7313,
			"longitude": -88.8647
		},
		{
			"County": "Marshall",
			"confirmed_cases": 709,
			"confirmed_rate_per_10k": 614.704352349575,
			"confirmed_rate_per_100k": 6147.04352349575,
			"deaths": 13,
			"deaths_rate_per_10k": 11.271024796255,
			"deaths_rate_per_100k": 112.71024796255,
			"total_tested": 13785,
			"test_rate_per_10k": 11951.621293566846,
			"test_rate_per_100k": 119516.21293566846,
			"total_population": 11534,
			"latitude": 40.9973,
			"longitude": -89.3606
		},
		{
			"County": "Mason",
			"confirmed_cases": 1198,
			"confirmed_rate_per_10k": 883.155178768891,
			"confirmed_rate_per_100k": 8831.55178768891,
			"deaths": 40,
			"deaths_rate_per_10k": 29.487652045706,
			"deaths_rate_per_100k": 294.87652045706,
			"total_tested": 15615,
			"test_rate_per_10k": 11511.242167342425,
			"test_rate_per_100k": 115112.42167342425,
			"total_population": 13565,
			"latitude": 40.2271,
			"longitude": -89.9253
		},
		{
			"County": "Massac",
			"confirmed_cases": 1071,
			"confirmed_rate_per_10k": 760.653409090909,
			"confirmed_rate_per_100k": 7606.53409090909,
			"deaths": 30,
			"deaths_rate_per_10k": 21.306818181818,
			"deaths_rate_per_100k": 213.06818181818,
			"total_tested": 8512,
			"test_rate_per_10k": 6045.454545454545,
			"test_rate_per_100k": 60454.54545454545,
			"total_population": 14080,
			"latitude": 37.2478,
			"longitude": -88.7494
		},
		{
			"County": "McDonough",
			"confirmed_cases": 2200,
			"confirmed_rate_per_10k": 734.434985812051,
			"confirmed_rate_per_100k": 7344.34985812051,
			"deaths": 39,
			"deaths_rate_per_10k": 13.019529293941,
			"deaths_rate_per_100k": 130.19529293941,
			"total_tested": 32553,
			"test_rate_per_10k": 10867.300951427142,
			"test_rate_per_100k": 108673.00951427141,
			"total_population": 29955,
			"latitude": 40.3885,
			"longitude": -90.6773
		},
		{
			"County": "McHenry",
			"confirmed_cases": 22290,
			"confirmed_rate_per_10k": 722.364455390997,
			"confirmed_rate_per_100k": 7223.64455390997,
			"deaths": 235,
			"deaths_rate_per_10k": 7.615775998963,
			"deaths_rate_per_100k": 76.15775998963,
			"total_tested": 228649,
			"test_rate_per_10k": 7409.955601646304,
			"test_rate_per_100k": 74099.55601646304,
			"total_population": 308570,
			"latitude": 42.304,
			"longitude": -88.4016
		},
		{
			"County": "McLean",
			"confirmed_cases": 13590,
			"confirmed_rate_per_10k": 786.330918601153,
			"confirmed_rate_per_100k": 7863.30918601153,
			"deaths": 138,
			"deaths_rate_per_10k": 7.984817274979,
			"deaths_rate_per_100k": 79.84817274979,
			"total_tested": 217001,
			"test_rate_per_10k": 12555.89372092485,
			"test_rate_per_100k": 125558.9372092485,
			"total_population": 172828,
			"latitude": 40.5478,
			"longitude": -88.8647
		},
		{
			"County": "Menard",
			"confirmed_cases": 923,
			"confirmed_rate_per_10k": 751.139322916667,
			"confirmed_rate_per_100k": 7511.39322916667,
			"deaths": 6,
			"deaths_rate_per_10k": 4.8828125,
			"deaths_rate_per_100k": 48.828125,
			"total_tested": 13879,
			"test_rate_per_10k": 11294.759114583332,
			"test_rate_per_100k": 112947.59114583333,
			"total_population": 12288,
			"latitude": 40.0221,
			"longitude": -89.813
		},
		{
			"County": "Mercer",
			"confirmed_cases": 1191,
			"confirmed_rate_per_10k": 763.412601756298,
			"confirmed_rate_per_100k": 7634.12601756298,
			"deaths": 30,
			"deaths_rate_per_10k": 19.229536568169,
			"deaths_rate_per_100k": 192.29536568169,
			"total_tested": 13389,
			"test_rate_per_10k": 8582.142170373694,
			"test_rate_per_100k": 85821.42170373694,
			"total_population": 15601,
			"latitude": 41.1985,
			"longitude": -90.6773
		},
		{
			"County": "Monroe",
			"confirmed_cases": 3695,
			"confirmed_rate_per_10k": 1076.161351390709,
			"confirmed_rate_per_100k": 10761.61351390709,
			"deaths": 71,
			"deaths_rate_per_10k": 20.678607834571,
			"deaths_rate_per_100k": 206.78607834571,
			"total_tested": 30634,
			"test_rate_per_10k": 8922.091160623271,
			"test_rate_per_100k": 89220.91160623271,
			"total_population": 34335,
			"latitude": 38.2743,
			"longitude": -90.187
		},
		{
			"County": "Montgomery",
			"confirmed_cases": 3166,
			"confirmed_rate_per_10k": 1106.954302297122,
			"confirmed_rate_per_100k": 11069.54302297122,
			"deaths": 50,
			"deaths_rate_per_10k": 17.481906227055,
			"deaths_rate_per_100k": 174.81906227055,
			"total_tested": 45208,
			"test_rate_per_10k": 15806.440334254046,
			"test_rate_per_100k": 158064.40334254046,
			"total_population": 28601,
			"latitude": 39.2364,
			"longitude": -89.4742
		},
		{
			"County": "Morgan",
			"confirmed_cases": 3323,
			"confirmed_rate_per_10k": 978.043324699788,
			"confirmed_rate_per_100k": 9780.43324699788,
			"deaths": 74,
			"deaths_rate_per_10k": 21.78008005651,
			"deaths_rate_per_100k": 217.8008005651,
			"total_tested": 41106,
			"test_rate_per_10k": 12098.5401459854,
			"test_rate_per_100k": 120985.40145985401,
			"total_population": 33976,
			"latitude": 39.7341,
			"longitude": -90.2245
		},
		{
			"County": "Moultrie",
			"confirmed_cases": 1418,
			"confirmed_rate_per_10k": 963.511585241557,
			"confirmed_rate_per_100k": 9635.11585241557,
			"deaths": 20,
			"deaths_rate_per_10k": 13.589726167018,
			"deaths_rate_per_100k": 135.89726167018,
			"total_tested": 17399,
			"test_rate_per_10k": 11822.382278997078,
			"test_rate_per_100k": 118223.82278997079,
			"total_population": 14717,
			"latitude": 39.6021,
			"longitude": -88.5952
		},
		{
			"County": "Ogle",
			"confirmed_cases": 4719,
			"confirmed_rate_per_10k": 926.693242739037,
			"confirmed_rate_per_100k": 9266.93242739037,
			"deaths": 65,
			"deaths_rate_per_10k": 12.764369734697,
			"deaths_rate_per_100k": 127.64369734697,
			"total_tested": 43958,
			"test_rate_per_10k": 8632.248689197417,
			"test_rate_per_100k": 86322.48689197416,
			"total_population": 50923,
			"latitude": 41.997,
			"longitude": -89.3227
		},
		{
			"County": "Peoria",
			"confirmed_cases": 15535,
			"confirmed_rate_per_10k": 860.088251089297,
			"confirmed_rate_per_100k": 8600.88251089297,
			"deaths": 237,
			"deaths_rate_per_10k": 13.121397844105,
			"deaths_rate_per_100k": 131.21397844105,
			"total_tested": 221851,
			"test_rate_per_10k": 12282.68030849126,
			"test_rate_per_100k": 122826.80308491261,
			"total_population": 180621,
			"latitude": 40.7156,
			"longitude": -89.7755
		},
		{
			"County": "Perry",
			"confirmed_cases": 2796,
			"confirmed_rate_per_10k": 1320.487390195523,
			"confirmed_rate_per_100k": 13204.87390195523,
			"deaths": 53,
			"deaths_rate_per_10k": 25.030698025881,
			"deaths_rate_per_100k": 250.30698025881,
			"total_tested": 27352,
			"test_rate_per_10k": 12917.729290639463,
			"test_rate_per_100k": 129177.29290639464,
			"total_population": 21174,
			"latitude": 38.0612,
			"longitude": -89.3227
		},
		{
			"County": "Piatt",
			"confirmed_cases": 1197,
			"confirmed_rate_per_10k": 730.056111246646,
			"confirmed_rate_per_100k": 7300.56111246646,
			"deaths": 12,
			"deaths_rate_per_10k": 7.318858258112,
			"deaths_rate_per_100k": 73.18858258112,
			"total_tested": 22942,
			"test_rate_per_10k": 13992.43717979995,
			"test_rate_per_100k": 139924.3717979995,
			"total_population": 16396,
			"latitude": 40.02861312,
			"longitude": -88.57328
		},
		{
			"County": "Pike",
			"confirmed_cases": 1606,
			"confirmed_rate_per_10k": 1028.76177054641,
			"confirmed_rate_per_100k": 10287.6177054641,
			"deaths": 45,
			"deaths_rate_per_10k": 28.825827941836,
			"deaths_rate_per_100k": 288.25827941836,
			"total_tested": 13621,
			"test_rate_per_10k": 8725.257831016592,
			"test_rate_per_100k": 87252.5783101659,
			"total_population": 15611,
			"latitude": 39.5662,
			"longitude": -90.8294
		},
		{
			"County": "Pope",
			"confirmed_cases": 258,
			"confirmed_rate_per_10k": 612.535612535613,
			"confirmed_rate_per_100k": 6125.35612535613,
			"deaths": 3,
			"deaths_rate_per_10k": 7.122507122507,
			"deaths_rate_per_100k": 71.22507122507,
			"total_tested": 2159,
			"test_rate_per_10k": 5125.830959164292,
			"test_rate_per_100k": 51258.30959164292,
			"total_population": 4212,
			"latitude": 37.4171,
			"longitude": -88.5952
		},
		{
			"County": "Pulaski",
			"confirmed_cases": 625,
			"confirmed_rate_per_10k": 1144.060040270913,
			"confirmed_rate_per_100k": 11440.60040270913,
			"deaths": 3,
			"deaths_rate_per_10k": 5.4914881933,
			"deaths_rate_per_100k": 54.914881933,
			"total_tested": 4524,
			"test_rate_per_10k": 8281.16419549698,
			"test_rate_per_100k": 82811.6419549698,
			"total_population": 5463,
			"latitude": 37.2512,
			"longitude": -89.1325
		},
		{
			"County": "Putnam",
			"confirmed_cases": 359,
			"confirmed_rate_per_10k": 625.435540069686,
			"confirmed_rate_per_100k": 6254.35540069686,
			"deaths": 1,
			"deaths_rate_per_10k": 1.742160278746,
			"deaths_rate_per_100k": 17.42160278746,
			"total_tested": 4152,
			"test_rate_per_10k": 7233.449477351916,
			"test_rate_per_100k": 72334.49477351917,
			"total_population": 5740,
			"latitude": 41.2385,
			"longitude": -89.2847
		},
		{
			"County": "Randolph",
			"confirmed_cases": 3802,
			"confirmed_rate_per_10k": 1184.202329782595,
			"confirmed_rate_per_100k": 11842.02329782595,
			"deaths": 69,
			"deaths_rate_per_10k": 21.491310035507,
			"deaths_rate_per_100k": 214.91310035507,
			"total_tested": 38265,
			"test_rate_per_10k": 11918.333021865072,
			"test_rate_per_100k": 119183.33021865072,
			"total_population": 32106,
			"latitude": 38.0629,
			"longitude": -89.7755
		},
		{
			"County": "Richland",
			"confirmed_cases": 1575,
			"confirmed_rate_per_10k": 999.17528389266,
			"confirmed_rate_per_100k": 9991.7528389266,
			"deaths": 37,
			"deaths_rate_per_10k": 23.472689208907,
			"deaths_rate_per_100k": 234.72689208907,
			"total_tested": 18782,
			"test_rate_per_10k": 11915.244560045678,
			"test_rate_per_100k": 119152.44560045678,
			"total_population": 15763,
			"latitude": 38.7213,
			"longitude": -88.0901
		},
		{
			"County": "Rock Island",
			"confirmed_cases": 12229,
			"confirmed_rate_per_10k": 852.331732612196,
			"confirmed_rate_per_100k": 8523.31732612196,
			"deaths": 266,
			"deaths_rate_per_10k": 18.539556862772,
			"deaths_rate_per_100k": 185.39556862772,
			"total_tested": 140338,
			"test_rate_per_10k": 9781.219289502847,
			"test_rate_per_100k": 97812.19289502846,
			"total_population": 143477,
			"latitude": 41.5095,
			"longitude": -90.5787
		},
		{
			"County": "Saline",
			"confirmed_cases": 2092,
			"confirmed_rate_per_10k": 875.094118631306,
			"confirmed_rate_per_100k": 8750.94118631306,
			"deaths": 39,
			"deaths_rate_per_10k": 16.313896093031,
			"deaths_rate_per_100k": 163.13896093031,
			"total_tested": 23343,
			"test_rate_per_10k": 9764.494269221115,
			"test_rate_per_100k": 97644.94269221116,
			"total_population": 23906,
			"latitude": 37.715,
			"longitude": -88.5565
		},
		{
			"County": "Sangamon",
			"confirmed_cases": 14956,
			"confirmed_rate_per_10k": 765.608043082089,
			"confirmed_rate_per_100k": 7656.08043082089,
			"deaths": 206,
			"deaths_rate_per_10k": 10.545283289309,
			"deaths_rate_per_100k": 105.45283289309,
			"total_tested": 265876,
			"test_rate_per_10k": 13610.37737780781,
			"test_rate_per_100k": 136103.7737780781,
			"total_population": 195348,
			"latitude": 39.7337,
			"longitude": -89.6252
		},
		{
			"County": "Schuyler",
			"confirmed_cases": 650,
			"confirmed_rate_per_10k": 941.074272477197,
			"confirmed_rate_per_100k": 9410.74272477197,
			"deaths": 5,
			"deaths_rate_per_10k": 7.239032865209,
			"deaths_rate_per_100k": 72.39032865209,
			"total_tested": 8755,
			"test_rate_per_10k": 12675.546546981323,
			"test_rate_per_100k": 126755.46546981324,
			"total_population": 6907,
			"latitude": 40.1845,
			"longitude": -90.6394
		},
		{
			"County": "Scott",
			"confirmed_cases": 408,
			"confirmed_rate_per_10k": 828.258221680877,
			"confirmed_rate_per_100k": 8282.58221680877,
			"deaths": 1,
			"deaths_rate_per_10k": 2.030044660983,
			"deaths_rate_per_100k": 20.30044660983,
			"total_tested": 6256,
			"test_rate_per_10k": 12699.95939910678,
			"test_rate_per_100k": 126999.5939910678,
			"total_population": 4926,
			"latitude": 39.6095,
			"longitude": -90.488
		},
		{
			"County": "Shelby",
			"confirmed_cases": 2024,
			"confirmed_rate_per_10k": 930.95993744538,
			"confirmed_rate_per_100k": 9309.5993744538,
			"deaths": 32,
			"deaths_rate_per_10k": 14.71873418886,
			"deaths_rate_per_100k": 147.1873418886,
			"total_tested": 18352,
			"test_rate_per_10k": 8441.194057311071,
			"test_rate_per_100k": 84411.94057311071,
			"total_population": 21741,
			"latitude": 39.3981,
			"longitude": -88.8647
		},
		{
			"County": "St. Clair",
			"confirmed_cases": 23107,
			"confirmed_rate_per_10k": 885.125584637955,
			"confirmed_rate_per_100k": 8851.25584637955,
			"deaths": 410,
			"deaths_rate_per_10k": 15.70526202889,
			"deaths_rate_per_100k": 157.0526202889,
			"total_tested": 247560,
			"test_rate_per_10k": 9482.913824078081,
			"test_rate_per_100k": 94829.13824078083,
			"total_population": 261059,
			"latitude": 38.4008,
			"longitude": -89.9253
		},
		{
			"County": "Stark",
			"confirmed_cases": 501,
			"confirmed_rate_per_10k": 923.161967938087,
			"confirmed_rate_per_100k": 9231.61967938087,
			"deaths": 20,
			"deaths_rate_per_10k": 36.852773171181,
			"deaths_rate_per_100k": 368.52773171181,
			"total_tested": 6637,
			"test_rate_per_10k": 12229.592776856458,
			"test_rate_per_100k": 122295.92776856458,
			"total_population": 5427,
			"latitude": 41.0796,
			"longitude": -89.813
		},
		{
			"County": "Stephenson",
			"confirmed_cases": 3646,
			"confirmed_rate_per_10k": 814.693986995285,
			"confirmed_rate_per_100k": 8146.93986995285,
			"deaths": 58,
			"deaths_rate_per_10k": 12.960025026255,
			"deaths_rate_per_100k": 129.60025026255,
			"total_tested": 40313,
			"test_rate_per_10k": 9007.887739369427,
			"test_rate_per_100k": 90078.87739369427,
			"total_population": 44753,
			"latitude": 42.3145,
			"longitude": -89.6252
		},
		{
			"County": "Tazewell",
			"confirmed_cases": 12346,
			"confirmed_rate_per_10k": 932.984704673236,
			"confirmed_rate_per_100k": 9329.84704673236,
			"deaths": 219,
			"deaths_rate_per_10k": 16.549785381779,
			"deaths_rate_per_100k": 165.49785381779,
			"total_tested": 157396,
			"test_rate_per_10k": 11894.383652741672,
			"test_rate_per_100k": 118943.83652741672,
			"total_population": 132328,
			"latitude": 40.5522,
			"longitude": -89.4742
		},
		{
			"County": "Union",
			"confirmed_cases": 2040,
			"confirmed_rate_per_10k": 1211.329493498011,
			"confirmed_rate_per_100k": 12113.29493498011,
			"deaths": 30,
			"deaths_rate_per_10k": 17.81366902203,
			"deaths_rate_per_100k": 178.1366902203,
			"total_tested": 24344,
			"test_rate_per_10k": 14455.198622409596,
			"test_rate_per_100k": 144551.98622409595,
			"total_population": 16841,
			"latitude": 37.5087,
			"longitude": -89.2847
		},
		{
			"County": "Vermilion",
			"confirmed_cases": 7806,
			"confirmed_rate_per_10k": 1016.326849464886,
			"confirmed_rate_per_100k": 10163.26849464886,
			"deaths": 100,
			"deaths_rate_per_10k": 13.019816160196,
			"deaths_rate_per_100k": 130.19816160196,
			"total_tested": 91744,
			"test_rate_per_10k": 11944.90013801005,
			"test_rate_per_100k": 119449.00138010051,
			"total_population": 76806,
			"latitude": 40.1225,
			"longitude": -87.6976
		},
		{
			"County": "Wabash",
			"confirmed_cases": 1219,
			"confirmed_rate_per_10k": 1055.502640921292,
			"confirmed_rate_per_100k": 10555.02640921292,
			"deaths": 12,
			"deaths_rate_per_10k": 10.390510000866,
			"deaths_rate_per_100k": 103.90510000866,
			"total_tested": 10540,
			"test_rate_per_10k": 9126.331284093862,
			"test_rate_per_100k": 91263.31284093861,
			"total_population": 11549,
			"latitude": 38.4226,
			"longitude": -87.8157
		},
		{
			"County": "Warren",
			"confirmed_cases": 1604,
			"confirmed_rate_per_10k": 941.756693283232,
			"confirmed_rate_per_100k": 9417.56693283232,
			"deaths": 41,
			"deaths_rate_per_10k": 24.07233442931,
			"deaths_rate_per_100k": 240.7233442931,
			"total_tested": 12295,
			"test_rate_per_10k": 7218.764678252701,
			"test_rate_per_100k": 72187.64678252701,
			"total_population": 17032,
			"latitude": 40.8759,
			"longitude": -90.6773
		},
		{
			"County": "Washington",
			"confirmed_cases": 1498,
			"confirmed_rate_per_10k": 1070.382279385495,
			"confirmed_rate_per_100k": 10703.82279385495,
			"deaths": 20,
			"deaths_rate_per_10k": 14.290818149339,
			"deaths_rate_per_100k": 142.90818149339,
			"total_tested": 9762,
			"test_rate_per_10k": 6975.34833869239,
			"test_rate_per_100k": 69753.4833869239,
			"total_population": 13995,
			"latitude": 38.3989,
			"longitude": -89.3227
		},
		{
			"County": "Wayne",
			"confirmed_cases": 1548,
			"confirmed_rate_per_10k": 947.8324761205,
			"confirmed_rate_per_100k": 9478.324761205,
			"deaths": 42,
			"deaths_rate_per_10k": 25.716385011021,
			"deaths_rate_per_100k": 257.16385011021,
			"total_tested": 12332,
			"test_rate_per_10k": 7550.820475140828,
			"test_rate_per_100k": 75508.20475140828,
			"total_population": 16332,
			"latitude": 38.39,
			"longitude": -88.4016
		},
		{
			"County": "White",
			"confirmed_cases": 1413,
			"confirmed_rate_per_10k": 1034.028540065862,
			"confirmed_rate_per_100k": 10340.28540065862,
			"deaths": 23,
			"deaths_rate_per_10k": 16.831320892792,
			"deaths_rate_per_100k": 168.31320892792,
			"total_tested": 18028,
			"test_rate_per_10k": 13192.82839370655,
			"test_rate_per_100k": 131928.2839370655,
			"total_population": 13665,
			"latitude": 38.0501,
			"longitude": -88.2461
		},
		{
			"County": "Whiteside",
			"confirmed_cases": 5441,
			"confirmed_rate_per_10k": 978.139718836515,
			"confirmed_rate_per_100k": 9781.39718836515,
			"deaths": 135,
			"deaths_rate_per_10k": 24.269226620645,
			"deaths_rate_per_100k": 242.69226620645,
			"total_tested": 48625,
			"test_rate_per_10k": 8741.415884658252,
			"test_rate_per_100k": 87414.15884658253,
			"total_population": 55626,
			"latitude": 41.7606,
			"longitude": -89.8505
		},
		{
			"County": "Will",
			"confirmed_cases": 59914,
			"confirmed_rate_per_10k": 865.421559705912,
			"confirmed_rate_per_100k": 8654.21559705912,
			"deaths": 818,
			"deaths_rate_per_10k": 11.815516170502,
			"deaths_rate_per_100k": 118.15516170502,
			"total_tested": 608670,
			"test_rate_per_10k": 8791.870693764355,
			"test_rate_per_100k": 87918.70693764354,
			"total_population": 692310,
			"latitude": 41.5055,
			"longitude": -88.0901
		},
		{
			"County": "Williamson",
			"confirmed_cases": 6373,
			"confirmed_rate_per_10k": 950.399665950847,
			"confirmed_rate_per_100k": 9503.99665950847,
			"deaths": 108,
			"deaths_rate_per_10k": 16.105941302792,
			"deaths_rate_per_100k": 161.05941302792,
			"total_tested": 74207,
			"test_rate_per_10k": 11066.422094965403,
			"test_rate_per_100k": 110664.22094965402,
			"total_population": 67056,
			"latitude": 37.7183,
			"longitude": -88.8647
		},
		{
			"County": "Winnebago",
			"confirmed_cases": 26813,
			"confirmed_rate_per_10k": 943.85052150619,
			"confirmed_rate_per_100k": 9438.5052150619,
			"deaths": 386,
			"deaths_rate_per_10k": 13.587673938067,
			"deaths_rate_per_100k": 135.87673938067,
			"total_tested": 281040,
			"test_rate_per_10k": 9892.953066202948,
			"test_rate_per_100k": 98929.53066202949,
			"total_population": 284081,
			"latitude": 42.3121,
			"longitude": -89.1706
		},
		{
			"County": "Woodford",
			"confirmed_cases": 3354,
			"confirmed_rate_per_10k": 872.006863739178,
			"confirmed_rate_per_100k": 8720.06863739178,
			"deaths": 57,
			"deaths_rate_per_10k": 14.819436861399,
			"deaths_rate_per_100k": 148.19436861399,
			"total_tested": 47166,
			"test_rate_per_10k": 12262.69401762733,
			"test_rate_per_100k": 122626.9401762733,
			"total_population": 38463,
			"latitude": 40.7129,
			"longitude": -89.1706
		}
	]
}