{
	"lastUpdatedDate": {
		"year": 2021,
		"month": 2,
		"day": 25
	},
	"characteristics_by_county": [
		{
			"CountyName": "Illinois",
			"tested": 17895829,
			"confirmed_cases": 1181226,
			"deaths": 20406,
			"latitude": 39.839888,
			"longitude": -89.510168
		},
		{
			"CountyName": "Adams",
			"tested": 126012,
			"confirmed_cases": 7994,
			"deaths": 114,
			"latitude": 40.0578,
			"longitude": -91.1353
		},
		{
			"CountyName": "Alexander",
			"tested": 4905,
			"confirmed_cases": 447,
			"deaths": 8,
			"latitude": 37.167,
			"longitude": -89.3606
		},
		{
			"CountyName": "Bond",
			"tested": 24580,
			"confirmed_cases": 1902,
			"deaths": 24,
			"latitude": 38.903,
			"longitude": -89.4742
		},
		{
			"CountyName": "Boone",
			"tested": 50658,
			"confirmed_cases": 5912,
			"deaths": 71,
			"latitude": 42.3485,
			"longitude": -88.8263
		},
		{
			"CountyName": "Brown",
			"tested": 21499,
			"confirmed_cases": 660,
			"deaths": 6,
			"latitude": 39.938,
			"longitude": -90.7153
		},
		{
			"CountyName": "Bureau",
			"tested": 35959,
			"confirmed_cases": 3291,
			"deaths": 73,
			"latitude": 41.3599,
			"longitude": -89.4742
		},
		{
			"CountyName": "Calhoun",
			"tested": 5017,
			"confirmed_cases": 478,
			"deaths": 2,
			"latitude": 39.1733,
			"longitude": -90.6583
		},
		{
			"CountyName": "Carroll",
			"tested": 17404,
			"confirmed_cases": 1569,
			"deaths": 34,
			"latitude": 42.0386,
			"longitude": -89.9627
		},
		{
			"CountyName": "Cass",
			"tested": 17264,
			"confirmed_cases": 1878,
			"deaths": 22,
			"latitude": 39.9399,
			"longitude": -90.262
		},
		{
			"CountyName": "Champaign",
			"tested": 1728334,
			"confirmed_cases": 18020,
			"deaths": 123,
			"latitude": 40.2139,
			"longitude": -88.2461
		},
		{
			"CountyName": "Chicago",
			"tested": 3313026,
			"confirmed_cases": 243483,
			"deaths": 4859,
			"latitude": 41.789896,
			"longitude": -87.627734
		},
		{
			"CountyName": "Christian",
			"tested": 43045,
			"confirmed_cases": 3294,
			"deaths": 66,
			"latitude": 39.5672,
			"longitude": -89.3227
		},
		{
			"CountyName": "Clark",
			"tested": 13967,
			"confirmed_cases": 1680,
			"deaths": 29,
			"latitude": 39.3824,
			"longitude": -87.7763
		},
		{
			"CountyName": "Clay",
			"tested": 13602,
			"confirmed_cases": 1426,
			"deaths": 41,
			"latitude": 38.7279,
			"longitude": -88.5565
		},
		{
			"CountyName": "Clinton",
			"tested": 53635,
			"confirmed_cases": 5563,
			"deaths": 89,
			"latitude": 38.5684,
			"longitude": -89.6252
		},
		{
			"CountyName": "Coles",
			"tested": 65269,
			"confirmed_cases": 5170,
			"deaths": 90,
			"latitude": 39.556,
			"longitude": -88.2461
		},
		{
			"CountyName": "Cook",
			"tested": 3026722,
			"confirmed_cases": 228723,
			"deaths": 4458,
			"latitude": 42.050784,
			"longitude": -87.963759
		},
		{
			"CountyName": "Crawford",
			"tested": 28874,
			"confirmed_cases": 2003,
			"deaths": 21,
			"latitude": 39.05,
			"longitude": -87.7763
		},
		{
			"CountyName": "Cumberland",
			"tested": 10325,
			"confirmed_cases": 1186,
			"deaths": 18,
			"latitude": 39.2654,
			"longitude": -88.2072
		},
		{
			"CountyName": "De Witt",
			"tested": 17671,
			"confirmed_cases": 1277,
			"deaths": 22,
			"latitude": 40.181,
			"longitude": -88.9031
		},
		{
			"CountyName": "DeKalb",
			"tested": 108411,
			"confirmed_cases": 8226,
			"deaths": 112,
			"latitude": 41.833,
			"longitude": -88.7109
		},
		{
			"CountyName": "Douglas",
			"tested": 27420,
			"confirmed_cases": 2426,
			"deaths": 32,
			"latitude": 39.7618,
			"longitude": -88.2072
		},
		{
			"CountyName": "DuPage",
			"tested": 1033036,
			"confirmed_cases": 76398,
			"deaths": 1190,
			"latitude": 41.8244,
			"longitude": -88.0901
		},
		{
			"CountyName": "Edgar",
			"tested": 12773,
			"confirmed_cases": 1540,
			"deaths": 37,
			"latitude": 39.7131,
			"longitude": -87.7763
		},
		{
			"CountyName": "Edwards",
			"tested": 3623,
			"confirmed_cases": 523,
			"deaths": 10,
			"latitude": 38.4268,
			"longitude": -88.051
		},
		{
			"CountyName": "Effingham",
			"tested": 37376,
			"confirmed_cases": 4485,
			"deaths": 69,
			"latitude": 39.0622,
			"longitude": -88.5565
		},
		{
			"CountyName": "Fayette",
			"tested": 25332,
			"confirmed_cases": 3065,
			"deaths": 52,
			"latitude": 39.067,
			"longitude": -89.0179
		},
		{
			"CountyName": "Ford",
			"tested": 24287,
			"confirmed_cases": 1570,
			"deaths": 45,
			"latitude": 40.4989,
			"longitude": -88.2072
		},
		{
			"CountyName": "Franklin",
			"tested": 42504,
			"confirmed_cases": 4139,
			"deaths": 65,
			"latitude": 38.0157,
			"longitude": -88.9031
		},
		{
			"CountyName": "Fulton",
			"tested": 63911,
			"confirmed_cases": 2840,
			"deaths": 44,
			"latitude": 40.5532,
			"longitude": -90.2245
		},
		{
			"CountyName": "Gallatin",
			"tested": 3557,
			"confirmed_cases": 436,
			"deaths": 4,
			"latitude": 37.7108,
			"longitude": -88.2461
		},
		{
			"CountyName": "Greene",
			"tested": 12367,
			"confirmed_cases": 1376,
			"deaths": 31,
			"latitude": 39.403,
			"longitude": -90.3748
		},
		{
			"CountyName": "Grundy",
			"tested": 44986,
			"confirmed_cases": 5084,
			"deaths": 62,
			"latitude": 41.3501,
			"longitude": -88.4016
		},
		{
			"CountyName": "Hamilton",
			"tested": 6235,
			"confirmed_cases": 783,
			"deaths": 15,
			"latitude": 38.0543,
			"longitude": -88.5565
		},
		{
			"CountyName": "Hancock",
			"tested": 16200,
			"confirmed_cases": 1667,
			"deaths": 29,
			"latitude": 40.3849,
			"longitude": -91.1353
		},
		{
			"CountyName": "Hardin",
			"tested": 4584,
			"confirmed_cases": 344,
			"deaths": 12,
			"latitude": 37.4995,
			"longitude": -88.3628
		},
		{
			"CountyName": "Henderson",
			"tested": 6142,
			"confirmed_cases": 498,
			"deaths": 14,
			"latitude": 40.8336,
			"longitude": -90.9438
		},
		{
			"CountyName": "Henry",
			"tested": 56945,
			"confirmed_cases": 4319,
			"deaths": 56,
			"latitude": 41.3611,
			"longitude": -90.0747
		},
		{
			"CountyName": "Iroquois",
			"tested": 40063,
			"confirmed_cases": 2766,
			"deaths": 60,
			"latitude": 40.774,
			"longitude": -87.6976
		},
		{
			"CountyName": "Jackson",
			"tested": 64296,
			"confirmed_cases": 4594,
			"deaths": 60,
			"latitude": 37.7218,
			"longitude": -89.3227
		},
		{
			"CountyName": "Jasper",
			"tested": 10172,
			"confirmed_cases": 1105,
			"deaths": 17,
			"latitude": 39.0555,
			"longitude": -88.0901
		},
		{
			"CountyName": "Jefferson",
			"tested": 42688,
			"confirmed_cases": 3969,
			"deaths": 115,
			"latitude": 38.2267,
			"longitude": -88.8647
		},
		{
			"CountyName": "Jersey",
			"tested": 26671,
			"confirmed_cases": 2489,
			"deaths": 46,
			"latitude": 39.0705,
			"longitude": -90.3748
		},
		{
			"CountyName": "Jo Daviess",
			"tested": 18311,
			"confirmed_cases": 1605,
			"deaths": 22,
			"latitude": 42.3149,
			"longitude": -90.2245
		},
		{
			"CountyName": "Johnson",
			"tested": 32444,
			"confirmed_cases": 1347,
			"deaths": 12,
			"latitude": 37.4204,
			"longitude": -88.9031
		},
		{
			"CountyName": "Kane",
			"tested": 536255,
			"confirmed_cases": 50439,
			"deaths": 711,
			"latitude": 41.9879,
			"longitude": -88.4016
		},
		{
			"CountyName": "Kankakee",
			"tested": 184155,
			"confirmed_cases": 12438,
			"deaths": 189,
			"latitude": 41.1791,
			"longitude": -87.7763
		},
		{
			"CountyName": "Kendall",
			"tested": 108702,
			"confirmed_cases": 10986,
			"deaths": 84,
			"latitude": 41.5507,
			"longitude": -88.4404
		},
		{
			"CountyName": "Knox",
			"tested": 78210,
			"confirmed_cases": 5013,
			"deaths": 131,
			"latitude": 40.8776,
			"longitude": -90.2245
		},
		{
			"CountyName": "Lake",
			"tested": 783371,
			"confirmed_cases": 59119,
			"deaths": 918,
			"latitude": 42.3689,
			"longitude": -87.8272
		},
		{
			"CountyName": "LaSalle",
			"tested": 140732,
			"confirmed_cases": 10746,
			"deaths": 218,
			"latitude": 41.4364,
			"longitude": -88.9414
		},
		{
			"CountyName": "Lawrence",
			"tested": 32332,
			"confirmed_cases": 2288,
			"deaths": 24,
			"latitude": 38.7158,
			"longitude": -87.7763
		},
		{
			"CountyName": "Lee",
			"tested": 58311,
			"confirmed_cases": 3342,
			"deaths": 43,
			"latitude": 41.679,
			"longitude": -89.3227
		},
		{
			"CountyName": "Livingston",
			"tested": 76792,
			"confirmed_cases": 4164,
			"deaths": 75,
			"latitude": 40.8689,
			"longitude": -88.5565
		},
		{
			"CountyName": "Logan",
			"tested": 65190,
			"confirmed_cases": 3304,
			"deaths": 53,
			"latitude": 40.0613,
			"longitude": -89.3227
		},
		{
			"CountyName": "Macon",
			"tested": 140103,
			"confirmed_cases": 9417,
			"deaths": 185,
			"latitude": 39.8949,
			"longitude": -89.0179
		},
		{
			"CountyName": "Macoupin",
			"tested": 60110,
			"confirmed_cases": 4340,
			"deaths": 79,
			"latitude": 39.2375,
			"longitude": -89.9253
		},
		{
			"CountyName": "Madison",
			"tested": 258729,
			"confirmed_cases": 27835,
			"deaths": 453,
			"latitude": 38.9041,
			"longitude": -89.9253
		},
		{
			"CountyName": "Marion",
			"tested": 64901,
			"confirmed_cases": 4255,
			"deaths": 111,
			"latitude": 38.7313,
			"longitude": -88.8647
		},
		{
			"CountyName": "Marshall",
			"tested": 15911,
			"confirmed_cases": 834,
			"deaths": 14,
			"latitude": 40.9973,
			"longitude": -89.3606
		},
		{
			"CountyName": "Mason",
			"tested": 18418,
			"confirmed_cases": 1275,
			"deaths": 41,
			"latitude": 40.2271,
			"longitude": -89.9253
		},
		{
			"CountyName": "Massac",
			"tested": 10028,
			"confirmed_cases": 1258,
			"deaths": 32,
			"latitude": 37.2478,
			"longitude": -88.7494
		},
		{
			"CountyName": "McDonough",
			"tested": 39002,
			"confirmed_cases": 2314,
			"deaths": 40,
			"latitude": 40.3885,
			"longitude": -90.6773
		},
		{
			"CountyName": "McHenry",
			"tested": 265153,
			"confirmed_cases": 24190,
			"deaths": 263,
			"latitude": 42.304,
			"longitude": -88.4016
		},
		{
			"CountyName": "McLean",
			"tested": 250333,
			"confirmed_cases": 14538,
			"deaths": 156,
			"latitude": 40.5478,
			"longitude": -88.8647
		},
		{
			"CountyName": "Menard",
			"tested": 15744,
			"confirmed_cases": 1034,
			"deaths": 8,
			"latitude": 40.0221,
			"longitude": -89.813
		},
		{
			"CountyName": "Mercer",
			"tested": 14771,
			"confirmed_cases": 1276,
			"deaths": 32,
			"latitude": 41.1985,
			"longitude": -90.6773
		},
		{
			"CountyName": "Monroe",
			"tested": 35967,
			"confirmed_cases": 4051,
			"deaths": 83,
			"latitude": 38.2743,
			"longitude": -90.187
		},
		{
			"CountyName": "Montgomery",
			"tested": 56240,
			"confirmed_cases": 3473,
			"deaths": 67,
			"latitude": 39.2364,
			"longitude": -89.4742
		},
		{
			"CountyName": "Morgan",
			"tested": 47835,
			"confirmed_cases": 3579,
			"deaths": 76,
			"latitude": 39.7341,
			"longitude": -90.2245
		},
		{
			"CountyName": "Moultrie",
			"tested": 20051,
			"confirmed_cases": 1487,
			"deaths": 22,
			"latitude": 39.6021,
			"longitude": -88.5952
		},
		{
			"CountyName": "Ogle",
			"tested": 49937,
			"confirmed_cases": 4987,
			"deaths": 73,
			"latitude": 41.997,
			"longitude": -89.3227
		},
		{
			"CountyName": "Out Of State",
			"tested": 113024,
			"confirmed_cases": 0,
			"deaths": 0,
			"latitude": 0.0,
			"longitude": 0.0
		},
		{
			"CountyName": "Peoria",
			"tested": 251177,
			"confirmed_cases": 16848,
			"deaths": 260,
			"latitude": 40.7156,
			"longitude": -89.7755
		},
		{
			"CountyName": "Perry",
			"tested": 35654,
			"confirmed_cases": 3033,
			"deaths": 57,
			"latitude": 38.0612,
			"longitude": -89.3227
		},
		{
			"CountyName": "Piatt",
			"tested": 25873,
			"confirmed_cases": 1318,
			"deaths": 14,
			"latitude": 40.02861312,
			"longitude": -88.57328
		},
		{
			"CountyName": "Pike",
			"tested": 15517,
			"confirmed_cases": 1687,
			"deaths": 50,
			"latitude": 39.5662,
			"longitude": -90.8294
		},
		{
			"CountyName": "Pope",
			"tested": 2527,
			"confirmed_cases": 282,
			"deaths": 3,
			"latitude": 37.4171,
			"longitude": -88.5952
		},
		{
			"CountyName": "Pulaski",
			"tested": 5312,
			"confirmed_cases": 670,
			"deaths": 5,
			"latitude": 37.2512,
			"longitude": -89.1325
		},
		{
			"CountyName": "Putnam",
			"tested": 5057,
			"confirmed_cases": 413,
			"deaths": 3,
			"latitude": 41.2385,
			"longitude": -89.2847
		},
		{
			"CountyName": "Randolph",
			"tested": 45059,
			"confirmed_cases": 3957,
			"deaths": 78,
			"latitude": 38.0629,
			"longitude": -89.7755
		},
		{
			"CountyName": "Richland",
			"tested": 21032,
			"confirmed_cases": 1634,
			"deaths": 38,
			"latitude": 38.7213,
			"longitude": -88.0901
		},
		{
			"CountyName": "Rock Island",
			"tested": 159473,
			"confirmed_cases": 13030,
			"deaths": 286,
			"latitude": 41.5095,
			"longitude": -90.5787
		},
		{
			"CountyName": "Saline",
			"tested": 28215,
			"confirmed_cases": 2284,
			"deaths": 47,
			"latitude": 37.715,
			"longitude": -88.5565
		},
		{
			"CountyName": "Sangamon",
			"tested": 300092,
			"confirmed_cases": 16072,
			"deaths": 216,
			"latitude": 39.7337,
			"longitude": -89.6252
		},
		{
			"CountyName": "Schuyler",
			"tested": 10229,
			"confirmed_cases": 675,
			"deaths": 5,
			"latitude": 40.1845,
			"longitude": -90.6394
		},
		{
			"CountyName": "Scott",
			"tested": 7258,
			"confirmed_cases": 448,
			"deaths": 1,
			"latitude": 39.6095,
			"longitude": -90.488
		},
		{
			"CountyName": "Shelby",
			"tested": 21493,
			"confirmed_cases": 2130,
			"deaths": 34,
			"latitude": 39.3981,
			"longitude": -88.8647
		},
		{
			"CountyName": "St. Clair",
			"tested": 300511,
			"confirmed_cases": 25283,
			"deaths": 463,
			"latitude": 38.4008,
			"longitude": -89.9253
		},
		{
			"CountyName": "Stark",
			"tested": 7470,
			"confirmed_cases": 537,
			"deaths": 22,
			"latitude": 41.0796,
			"longitude": -89.813
		},
		{
			"CountyName": "Stephenson",
			"tested": 46524,
			"confirmed_cases": 4078,
			"deaths": 75,
			"latitude": 42.3145,
			"longitude": -89.6252
		},
		{
			"CountyName": "Tazewell",
			"tested": 177124,
			"confirmed_cases": 13458,
			"deaths": 239,
			"latitude": 40.5522,
			"longitude": -89.4742
		},
		{
			"CountyName": "Unassigned",
			"tested": 103257,
			"confirmed_cases": 82,
			"deaths": 0,
			"latitude": -89.510168,
			"longitude": 39.839888
		},
		{
			"CountyName": "Union",
			"tested": 28977,
			"confirmed_cases": 2184,
			"deaths": 36,
			"latitude": 37.5087,
			"longitude": -89.2847
		},
		{
			"CountyName": "Vermilion",
			"tested": 108283,
			"confirmed_cases": 8528,
			"deaths": 114,
			"latitude": 40.1225,
			"longitude": -87.6976
		},
		{
			"CountyName": "Wabash",
			"tested": 11987,
			"confirmed_cases": 1298,
			"deaths": 12,
			"latitude": 38.4226,
			"longitude": -87.8157
		},
		{
			"CountyName": "Warren",
			"tested": 15003,
			"confirmed_cases": 1664,
			"deaths": 43,
			"latitude": 40.8759,
			"longitude": -90.6773
		},
		{
			"CountyName": "Washington",
			"tested": 11098,
			"confirmed_cases": 1578,
			"deaths": 23,
			"latitude": 38.3989,
			"longitude": -89.3227
		},
		{
			"CountyName": "Wayne",
			"tested": 13996,
			"confirmed_cases": 1667,
			"deaths": 48,
			"latitude": 38.39,
			"longitude": -88.4016
		},
		{
			"CountyName": "White",
			"tested": 20034,
			"confirmed_cases": 1601,
			"deaths": 25,
			"latitude": 38.0501,
			"longitude": -88.2461
		},
		{
			"CountyName": "Whiteside",
			"tested": 56170,
			"confirmed_cases": 5907,
			"deaths": 147,
			"latitude": 41.7606,
			"longitude": -89.8505
		},
		{
			"CountyName": "Will",
			"tested": 712111,
			"confirmed_cases": 64655,
			"deaths": 885,
			"latitude": 41.5055,
			"longitude": -88.0901
		},
		{
			"CountyName": "Williamson",
			"tested": 84657,
			"confirmed_cases": 6778,
			"deaths": 119,
			"latitude": 37.7183,
			"longitude": -88.8647
		},
		{
			"CountyName": "Winnebago",
			"tested": 321656,
			"confirmed_cases": 28263,
			"deaths": 436,
			"latitude": 42.3121,
			"longitude": -89.1706
		},
		{
			"CountyName": "Woodford",
			"tested": 54846,
			"confirmed_cases": 3652,
			"deaths": 60,
			"latitude": 40.7129,
			"longitude": -89.1706
		}
	]
}