{
  "LastUpdateDate": {
    "year": 2020,
    "month": 12,
    "day": 29
  },
  "county_rates": [
    {
      "County": "Adams",
      "confirmed_cases": 6311,
      "confirmed_rate_per_10k": 960.71,
      "confirmed_rate_per_100k": 9607.1,
      "deaths": 70,
      "deaths_rate_per_10k": 10.6559,
      "deaths_rate_per_100k": 106.559,
      "total_tested": 88466,
      "test_rate_per_10k": 13467,
      "test_rate_per_100k": 134670,
      "total_population": 65691,
      "latitude": 40.057800,
      "longitude": -91.135300
    },
    {
      "County": "Alexander",
      "confirmed_cases": 336,
      "confirmed_rate_per_10k": 554.455,
      "confirmed_rate_per_100k": 5544.55,
      "deaths": 7,
      "deaths_rate_per_10k": 11.5512,
      "deaths_rate_per_100k": 115.512,
      "total_tested": 3771,
      "test_rate_per_10k": 6222.77,
      "test_rate_per_100k": 62227.7,
      "total_population": 6060,
      "latitude": 37.167000,
      "longitude": -89.360600
    },
    {
      "County": "Bond",
      "confirmed_cases": 1528,
      "confirmed_rate_per_10k": 918.821,
      "confirmed_rate_per_100k": 9188.21,
      "deaths": 15,
      "deaths_rate_per_10k": 9.01984,
      "deaths_rate_per_100k": 90.1984,
      "total_tested": 15805,
      "test_rate_per_10k": 9503.91,
      "test_rate_per_100k": 95039.1,
      "total_population": 16630,
      "latitude": 38.903000,
      "longitude": -89.474200
    },
    {
      "County": "Boone",
      "confirmed_cases": 5004,
      "confirmed_rate_per_10k": 933.983,
      "confirmed_rate_per_100k": 9339.83,
      "deaths": 57,
      "deaths_rate_per_10k": 10.6389,
      "deaths_rate_per_100k": 106.389,
      "total_tested": 40200,
      "test_rate_per_10k": 7503.22,
      "test_rate_per_100k": 75032.2,
      "total_population": 53577,
      "latitude": 42.348500,
      "longitude": -88.826300
    },
    {
      "County": "Brown",
      "confirmed_cases": 440,
      "confirmed_rate_per_10k": 671.141,
      "confirmed_rate_per_100k": 6711.41,
      "deaths": 5,
      "deaths_rate_per_10k": 7.6266,
      "deaths_rate_per_100k": 76.266,
      "total_tested": 4367,
      "test_rate_per_10k": 6661.07,
      "test_rate_per_100k": 66610.7,
      "total_population": 6556,
      "latitude": 39.938000,
      "longitude": -90.715300
    },
    {
      "County": "Bureau",
      "confirmed_cases": 2764,
      "confirmed_rate_per_10k": 837.753,
      "confirmed_rate_per_100k": 8377.53,
      "deaths": 64,
      "deaths_rate_per_10k": 19.3981,
      "deaths_rate_per_100k": 193.981,
      "total_tested": 26363,
      "test_rate_per_10k": 7990.48,
      "test_rate_per_100k": 79904.8,
      "total_population": 32993,
      "latitude": 41.359900,
      "longitude": -89.474200
    },
    {
      "County": "Calhoun",
      "confirmed_cases": 370,
      "confirmed_rate_per_10k": 770.512,
      "confirmed_rate_per_100k": 7705.12,
      "deaths": 1,
      "deaths_rate_per_10k": 2.08247,
      "deaths_rate_per_100k": 20.8247,
      "total_tested": 3708,
      "test_rate_per_10k": 7721.78,
      "test_rate_per_100k": 77217.8,
      "total_population": 4802,
      "latitude": 39.173300,
      "longitude": -90.658300
    },
    {
      "County": "Carroll",
      "confirmed_cases": 1320,
      "confirmed_rate_per_10k": 922.303,
      "confirmed_rate_per_100k": 9223.03,
      "deaths": 31,
      "deaths_rate_per_10k": 21.6601,
      "deaths_rate_per_100k": 216.601,
      "total_tested": 13505,
      "test_rate_per_10k": 9436.14,
      "test_rate_per_100k": 94361.4,
      "total_population": 14312,
      "latitude": 42.038600,
      "longitude": -89.962700
    },
    {
      "County": "Cass",
      "confirmed_cases": 1542,
      "confirmed_rate_per_10k": 1257.75,
      "confirmed_rate_per_100k": 12577.5,
      "deaths": 19,
      "deaths_rate_per_10k": 15.4976,
      "deaths_rate_per_100k": 154.976,
      "total_tested": 11945,
      "test_rate_per_10k": 9743.07,
      "test_rate_per_100k": 97430.7,
      "total_population": 12260,
      "latitude": 39.939900,
      "longitude": -90.262000
    },
    {
      "County": "Champaign",
      "confirmed_cases": 13611,
      "confirmed_rate_per_10k": 648.195,
      "confirmed_rate_per_100k": 6481.95,
      "deaths": 83,
      "deaths_rate_per_10k": 3.9527,
      "deaths_rate_per_100k": 39.527,
      "total_tested": 1253098,
      "test_rate_per_10k": 59676.2,
      "test_rate_per_100k": 596762,
      "total_population": 209983,
      "latitude": 40.213900,
      "longitude": -88.246100
    },
    {
      "County": "Chicago",
      "confirmed_cases": 202346,
      "confirmed_rate_per_10k": 747.77,
      "confirmed_rate_per_100k": 7477.7,
      "deaths": 4102,
      "deaths_rate_per_10k": 15.1589,
      "deaths_rate_per_100k": 151.589,
      "total_tested": 2529641,
      "test_rate_per_10k": 9348.29,
      "test_rate_per_100k": 93482.9,
      "total_population": 2705994,
      "latitude": 41.789896,
      "longitude": -87.627734
    },
    {
      "County": "Christian",
      "confirmed_cases": 2548,
      "confirmed_rate_per_10k": 780.135,
      "confirmed_rate_per_100k": 7801.35,
      "deaths": 47,
      "deaths_rate_per_10k": 14.3903,
      "deaths_rate_per_100k": 143.903,
      "total_tested": 25996,
      "test_rate_per_10k": 7959.34,
      "test_rate_per_100k": 79593.4,
      "total_population": 32661,
      "latitude": 39.567200,
      "longitude": -89.322700
    },
    {
      "County": "Clark",
      "confirmed_cases": 1178,
      "confirmed_rate_per_10k": 755.322,
      "confirmed_rate_per_100k": 7553.22,
      "deaths": 24,
      "deaths_rate_per_10k": 15.3886,
      "deaths_rate_per_100k": 153.886,
      "total_tested": 9369,
      "test_rate_per_10k": 6007.31,
      "test_rate_per_100k": 60073.1,
      "total_population": 15596,
      "latitude": 39.382400,
      "longitude": -87.776300
    },
    {
      "County": "Clay",
      "confirmed_cases": 1183,
      "confirmed_rate_per_10k": 892.628,
      "confirmed_rate_per_100k": 8926.28,
      "deaths": 31,
      "deaths_rate_per_10k": 23.3909,
      "deaths_rate_per_100k": 233.909,
      "total_tested": 9842,
      "test_rate_per_10k": 7426.24,
      "test_rate_per_100k": 74262.4,
      "total_population": 13253,
      "latitude": 38.727900,
      "longitude": -88.556500
    },
    {
      "County": "Clinton",
      "confirmed_cases": 4381,
      "confirmed_rate_per_10k": 1163.95,
      "confirmed_rate_per_100k": 11639.5,
      "deaths": 75,
      "deaths_rate_per_10k": 19.9261,
      "deaths_rate_per_100k": 199.261,
      "total_tested": 36663,
      "test_rate_per_10k": 9740.69,
      "test_rate_per_100k": 97406.9,
      "total_population": 37639,
      "latitude": 38.568400,
      "longitude": -89.625200
    },
    {
      "County": "Coles",
      "confirmed_cases": 4237,
      "confirmed_rate_per_10k": 832.662,
      "confirmed_rate_per_100k": 8326.62,
      "deaths": 70,
      "deaths_rate_per_10k": 13.7565,
      "deaths_rate_per_100k": 137.565,
      "total_tested": 46245,
      "test_rate_per_10k": 9088.14,
      "test_rate_per_100k": 90881.4,
      "total_population": 50885,
      "latitude": 39.556000,
      "longitude": -88.246100
    },
    {
      "County": "Cook",
      "confirmed_cases": 186040,
      "confirmed_rate_per_10k": 751.829,
      "confirmed_rate_per_100k": 7518.29,
      "deaths": 3657,
      "deaths_rate_per_10k": 14.7787,
      "deaths_rate_per_100k": 147.787,
      "total_tested": 2266949,
      "test_rate_per_10k": 9161.24,
      "test_rate_per_100k": 91612.4,
      "total_population": 2474499,
      "latitude": 42.050784,
      "longitude": -87.963759
    },
    {
      "County": "Crawford",
      "confirmed_cases": 1551,
      "confirmed_rate_per_10k": 824.693,
      "confirmed_rate_per_100k": 8246.93,
      "deaths": 19,
      "deaths_rate_per_10k": 10.1026,
      "deaths_rate_per_100k": 101.026,
      "total_tested": 18995,
      "test_rate_per_10k": 10100,
      "test_rate_per_100k": 101000,
      "total_population": 18807,
      "latitude": 39.050000,
      "longitude": -87.776300
    },
    {
      "County": "Cumberland",
      "confirmed_cases": 919,
      "confirmed_rate_per_10k": 850.296,
      "confirmed_rate_per_100k": 8502.96,
      "deaths": 12,
      "deaths_rate_per_10k": 11.1029,
      "deaths_rate_per_100k": 111.029,
      "total_tested": 7681,
      "test_rate_per_10k": 7106.77,
      "test_rate_per_100k": 71067.7,
      "total_population": 10808,
      "latitude": 39.265400,
      "longitude": -88.207200
    },
    {
      "County": "De Witt",
      "confirmed_cases": 887,
      "confirmed_rate_per_10k": 562.496,
      "confirmed_rate_per_100k": 5624.96,
      "deaths": 18,
      "deaths_rate_per_10k": 11.4148,
      "deaths_rate_per_100k": 114.148,
      "total_tested": 11856,
      "test_rate_per_10k": 7518.55,
      "test_rate_per_100k": 75185.5,
      "total_population": 15769,
      "latitude": 40.181000,
      "longitude": -88.903100
    },
    {
      "County": "DeKalb",
      "confirmed_cases": 6512,
      "confirmed_rate_per_10k": 625.294,
      "confirmed_rate_per_100k": 6252.94,
      "deaths": 73,
      "deaths_rate_per_10k": 7.00959,
      "deaths_rate_per_100k": 70.0959,
      "total_tested": 80715,
      "test_rate_per_10k": 7750.4,
      "test_rate_per_100k": 77504,
      "total_population": 104143,
      "latitude": 41.833000,
      "longitude": -88.710900
    },
    {
      "County": "Douglas",
      "confirmed_cases": 1820,
      "confirmed_rate_per_10k": 934.34,
      "confirmed_rate_per_100k": 9343.4,
      "deaths": 22,
      "deaths_rate_per_10k": 11.2942,
      "deaths_rate_per_100k": 112.942,
      "total_tested": 19609,
      "test_rate_per_10k": 10066.7,
      "test_rate_per_100k": 100667,
      "total_population": 19479,
      "latitude": 39.761800,
      "longitude": -88.207200
    },
    {
      "County": "DuPage",
      "confirmed_cases": 60839,
      "confirmed_rate_per_10k": 655.177,
      "confirmed_rate_per_100k": 6551.77,
      "deaths": 942,
      "deaths_rate_per_10k": 10.1444,
      "deaths_rate_per_100k": 101.444,
      "total_tested": 772045,
      "test_rate_per_10k": 8314.17,
      "test_rate_per_100k": 83141.7,
      "total_population": 928589,
      "latitude": 41.824400,
      "longitude": -88.090100
    },
    {
      "County": "Edgar",
      "confirmed_cases": 1329,
      "confirmed_rate_per_10k": 765.553,
      "confirmed_rate_per_100k": 7655.53,
      "deaths": 26,
      "deaths_rate_per_10k": 14.977,
      "deaths_rate_per_100k": 149.77,
      "total_tested": 9295,
      "test_rate_per_10k": 5354.26,
      "test_rate_per_100k": 53542.6,
      "total_population": 17360,
      "latitude": 39.713100,
      "longitude": -87.776300
    },
    {
      "County": "Edwards",
      "confirmed_cases": 374,
      "confirmed_rate_per_10k": 585.106,
      "confirmed_rate_per_100k": 5851.06,
      "deaths": 5,
      "deaths_rate_per_10k": 7.82228,
      "deaths_rate_per_100k": 78.2228,
      "total_tested": 2538,
      "test_rate_per_10k": 3970.59,
      "test_rate_per_100k": 39705.9,
      "total_population": 6392,
      "latitude": 38.426800,
      "longitude": -88.051000
    },
    {
      "County": "Effingham",
      "confirmed_cases": 3790,
      "confirmed_rate_per_10k": 1107.93,
      "confirmed_rate_per_100k": 11079.3,
      "deaths": 50,
      "deaths_rate_per_10k": 14.6165,
      "deaths_rate_per_100k": 146.165,
      "total_tested": 27543,
      "test_rate_per_10k": 8051.63,
      "test_rate_per_100k": 80516.3,
      "total_population": 34208,
      "latitude": 39.062200,
      "longitude": -88.556500
    },
    {
      "County": "Fayette",
      "confirmed_cases": 2627,
      "confirmed_rate_per_10k": 1226.65,
      "confirmed_rate_per_100k": 12266.5,
      "deaths": 46,
      "deaths_rate_per_10k": 21.4793,
      "deaths_rate_per_100k": 214.793,
      "total_tested": 17629,
      "test_rate_per_10k": 8231.7,
      "test_rate_per_100k": 82317,
      "total_population": 21416,
      "latitude": 39.067000,
      "longitude": -89.017900
    },
    {
      "County": "Ford",
      "confirmed_cases": 1206,
      "confirmed_rate_per_10k": 909.228,
      "confirmed_rate_per_100k": 9092.28,
      "deaths": 35,
      "deaths_rate_per_10k": 26.3872,
      "deaths_rate_per_100k": 263.872,
      "total_tested": 17566,
      "test_rate_per_10k": 13243.4,
      "test_rate_per_100k": 132434,
      "total_population": 13264,
      "latitude": 40.498900,
      "longitude": -88.207200
    },
    {
      "County": "Franklin",
      "confirmed_cases": 3261,
      "confirmed_rate_per_10k": 842.614,
      "confirmed_rate_per_100k": 8426.14,
      "deaths": 45,
      "deaths_rate_per_10k": 11.6276,
      "deaths_rate_per_100k": 116.276,
      "total_tested": 30940,
      "test_rate_per_10k": 7994.63,
      "test_rate_per_100k": 79946.3,
      "total_population": 38701,
      "latitude": 38.015700,
      "longitude": -88.903100
    },
    {
      "County": "Fulton",
      "confirmed_cases": 2302,
      "confirmed_rate_per_10k": 660.659,
      "confirmed_rate_per_100k": 6606.59,
      "deaths": 27,
      "deaths_rate_per_10k": 7.74882,
      "deaths_rate_per_100k": 77.4882,
      "total_tested": 37866,
      "test_rate_per_10k": 10867.3,
      "test_rate_per_100k": 108673,
      "total_population": 34844,
      "latitude": 40.553200,
      "longitude": -90.224500
    },
    {
      "County": "Gallatin",
      "confirmed_cases": 318,
      "confirmed_rate_per_10k": 628.707,
      "confirmed_rate_per_100k": 6287.07,
      "deaths": 3,
      "deaths_rate_per_10k": 5.9312,
      "deaths_rate_per_100k": 59.312,
      "total_tested": 2455,
      "test_rate_per_10k": 4853.7,
      "test_rate_per_100k": 48537,
      "total_population": 5058,
      "latitude": 37.710800,
      "longitude": -88.246100
    },
    {
      "County": "Greene",
      "confirmed_cases": 1104,
      "confirmed_rate_per_10k": 846.366,
      "confirmed_rate_per_100k": 8463.66,
      "deaths": 30,
      "deaths_rate_per_10k": 22.9991,
      "deaths_rate_per_100k": 229.991,
      "total_tested": 9207,
      "test_rate_per_10k": 7058.42,
      "test_rate_per_100k": 70584.2,
      "total_population": 13044,
      "latitude": 39.403000,
      "longitude": -90.374800
    },
    {
      "County": "Grundy",
      "confirmed_cases": 3792,
      "confirmed_rate_per_10k": 743.938,
      "confirmed_rate_per_100k": 7439.38,
      "deaths": 41,
      "deaths_rate_per_10k": 8.04363,
      "deaths_rate_per_100k": 80.4363,
      "total_tested": 30630,
      "test_rate_per_10k": 6009.18,
      "test_rate_per_100k": 60091.8,
      "total_population": 50972,
      "latitude": 41.350100,
      "longitude": -88.401600
    },
    {
      "County": "Hamilton",
      "confirmed_cases": 577,
      "confirmed_rate_per_10k": 706.848,
      "confirmed_rate_per_100k": 7068.48,
      "deaths": 10,
      "deaths_rate_per_10k": 12.2504,
      "deaths_rate_per_100k": 122.504,
      "total_tested": 4322,
      "test_rate_per_10k": 5294.62,
      "test_rate_per_100k": 52946.2,
      "total_population": 8163,
      "latitude": 38.054300,
      "longitude": -88.556500
    },
    {
      "County": "Hancock",
      "confirmed_cases": 1281,
      "confirmed_rate_per_10k": 717.888,
      "confirmed_rate_per_100k": 7178.88,
      "deaths": 20,
      "deaths_rate_per_10k": 11.2082,
      "deaths_rate_per_100k": 112.082,
      "total_tested": 12162,
      "test_rate_per_10k": 6815.74,
      "test_rate_per_100k": 68157.4,
      "total_population": 17844,
      "latitude": 40.384900,
      "longitude": -91.135300
    },
    {
      "County": "Hardin",
      "confirmed_cases": 209,
      "confirmed_rate_per_10k": 534.527,
      "confirmed_rate_per_100k": 5345.27,
      "deaths": 7,
      "deaths_rate_per_10k": 17.9028,
      "deaths_rate_per_100k": 179.028,
      "total_tested": 2889,
      "test_rate_per_10k": 7388.75,
      "test_rate_per_100k": 73887.5,
      "total_population": 3910,
      "latitude": 37.499500,
      "longitude": -88.362800
    },
    {
      "County": "Henderson",
      "confirmed_cases": 394,
      "confirmed_rate_per_10k": 587.271,
      "confirmed_rate_per_100k": 5872.71,
      "deaths": 3,
      "deaths_rate_per_10k": 4.47161,
      "deaths_rate_per_100k": 44.7161,
      "total_tested": 4345,
      "test_rate_per_10k": 6476.38,
      "test_rate_per_100k": 64763.8,
      "total_population": 6709,
      "latitude": 40.833600,
      "longitude": -90.943800
    },
    {
      "County": "Henry",
      "confirmed_cases": 3652,
      "confirmed_rate_per_10k": 743.94,
      "confirmed_rate_per_100k": 7439.4,
      "deaths": 39,
      "deaths_rate_per_10k": 7.94459,
      "deaths_rate_per_100k": 79.4459,
      "total_tested": 43040,
      "test_rate_per_10k": 8767.57,
      "test_rate_per_100k": 87675.7,
      "total_population": 49090,
      "latitude": 41.361100,
      "longitude": -90.074700
    },
    {
      "County": "Iroquois",
      "confirmed_cases": 2279,
      "confirmed_rate_per_10k": 825.605,
      "confirmed_rate_per_100k": 8256.05,
      "deaths": 46,
      "deaths_rate_per_10k": 16.6643,
      "deaths_rate_per_100k": 166.643,
      "total_tested": 29335,
      "test_rate_per_10k": 10627.1,
      "test_rate_per_100k": 106271,
      "total_population": 27604,
      "latitude": 40.774000,
      "longitude": -87.697600
    },
    {
      "County": "Jackson",
      "confirmed_cases": 3587,
      "confirmed_rate_per_10k": 624.706,
      "confirmed_rate_per_100k": 6247.06,
      "deaths": 52,
      "deaths_rate_per_10k": 9.05624,
      "deaths_rate_per_100k": 90.5624,
      "total_tested": 43701,
      "test_rate_per_10k": 7610.9,
      "test_rate_per_100k": 76109,
      "total_population": 57419,
      "latitude": 37.721800,
      "longitude": -89.322700
    },
    {
      "County": "Jasper",
      "confirmed_cases": 884,
      "confirmed_rate_per_10k": 919.779,
      "confirmed_rate_per_100k": 9197.79,
      "deaths": 13,
      "deaths_rate_per_10k": 13.5262,
      "deaths_rate_per_100k": 135.262,
      "total_tested": 7257,
      "test_rate_per_10k": 7550.72,
      "test_rate_per_100k": 75507.2,
      "total_population": 9611,
      "latitude": 39.055500,
      "longitude": -88.090100
    },
    {
      "County": "Jefferson",
      "confirmed_cases": 2873,
      "confirmed_rate_per_10k": 759.651,
      "confirmed_rate_per_100k": 7596.51,
      "deaths": 78,
      "deaths_rate_per_10k": 20.624,
      "deaths_rate_per_100k": 206.24,
      "total_tested": 24096,
      "test_rate_per_10k": 6371.23,
      "test_rate_per_100k": 63712.3,
      "total_population": 37820,
      "latitude": 38.226700,
      "longitude": -88.864700
    },
    {
      "County": "Jersey",
      "confirmed_cases": 1951,
      "confirmed_rate_per_10k": 893.029,
      "confirmed_rate_per_100k": 8930.29,
      "deaths": 29,
      "deaths_rate_per_10k": 13.2741,
      "deaths_rate_per_100k": 132.741,
      "total_tested": 18427,
      "test_rate_per_10k": 8434.57,
      "test_rate_per_100k": 84345.7,
      "total_population": 21847,
      "latitude": 39.070500,
      "longitude": -90.374800
    },
    {
      "County": "Jo Daviess",
      "confirmed_cases": 1376,
      "confirmed_rate_per_10k": 644.014,
      "confirmed_rate_per_100k": 6440.14,
      "deaths": 21,
      "deaths_rate_per_10k": 9.8287,
      "deaths_rate_per_100k": 98.287,
      "total_tested": 14822,
      "test_rate_per_10k": 6937.19,
      "test_rate_per_100k": 69371.9,
      "total_population": 21366,
      "latitude": 42.314900,
      "longitude": -90.224500
    },
    {
      "County": "Johnson",
      "confirmed_cases": 965,
      "confirmed_rate_per_10k": 774.727,
      "confirmed_rate_per_100k": 7747.27,
      "deaths": 9,
      "deaths_rate_per_10k": 7.22543,
      "deaths_rate_per_100k": 72.2543,
      "total_tested": 8426,
      "test_rate_per_10k": 6764.61,
      "test_rate_per_100k": 67646.1,
      "total_population": 12456,
      "latitude": 37.420400,
      "longitude": -88.903100
    },
    {
      "County": "Kane",
      "confirmed_cases": 40869,
      "confirmed_rate_per_10k": 765.028,
      "confirmed_rate_per_100k": 7650.28,
      "deaths": 556,
      "deaths_rate_per_10k": 10.4078,
      "deaths_rate_per_100k": 104.078,
      "total_tested": 401042,
      "test_rate_per_10k": 7507.11,
      "test_rate_per_100k": 75071.1,
      "total_population": 534216,
      "latitude": 41.987900,
      "longitude": -88.401600
    },
    {
      "County": "Kankakee",
      "confirmed_cases": 10574,
      "confirmed_rate_per_10k": 961.063,
      "confirmed_rate_per_100k": 9610.63,
      "deaths": 147,
      "deaths_rate_per_10k": 13.3607,
      "deaths_rate_per_100k": 133.607,
      "total_tested": 134605,
      "test_rate_per_10k": 12234.1,
      "test_rate_per_100k": 122341,
      "total_population": 110024,
      "latitude": 41.179100,
      "longitude": -87.776300
    },
    {
      "County": "Kendall",
      "confirmed_cases": 8300,
      "confirmed_rate_per_10k": 648.868,
      "confirmed_rate_per_100k": 6488.68,
      "deaths": 68,
      "deaths_rate_per_10k": 5.31603,
      "deaths_rate_per_100k": 53.1603,
      "total_tested": 80161,
      "test_rate_per_10k": 6266.74,
      "test_rate_per_100k": 62667.4,
      "total_population": 127915,
      "latitude": 41.550700,
      "longitude": -88.440400
    },
    {
      "County": "Knox",
      "confirmed_cases": 3978,
      "confirmed_rate_per_10k": 793.822,
      "confirmed_rate_per_100k": 7938.22,
      "deaths": 96,
      "deaths_rate_per_10k": 19.1571,
      "deaths_rate_per_100k": 191.571,
      "total_tested": 45902,
      "test_rate_per_10k": 9159.88,
      "test_rate_per_100k": 91598.8,
      "total_population": 50112,
      "latitude": 40.877600,
      "longitude": -90.224500
    },
    {
      "County": "Lake",
      "confirmed_cases": 47564,
      "confirmed_rate_per_10k": 678.679,
      "confirmed_rate_per_100k": 6786.79,
      "deaths": 750,
      "deaths_rate_per_10k": 10.7016,
      "deaths_rate_per_100k": 107.016,
      "total_tested": 578915,
      "test_rate_per_10k": 8260.4,
      "test_rate_per_100k": 82604,
      "total_population": 700832,
      "latitude": 42.368900,
      "longitude": -87.827200
    },
    {
      "County": "LaSalle",
      "confirmed_cases": 8199,
      "confirmed_rate_per_10k": 749.246,
      "confirmed_rate_per_100k": 7492.46,
      "deaths": 182,
      "deaths_rate_per_10k": 16.6316,
      "deaths_rate_per_100k": 166.316,
      "total_tested": 89367,
      "test_rate_per_10k": 8166.59,
      "test_rate_per_100k": 81665.9,
      "total_population": 109430,
      "latitude": 41.436400,
      "longitude": -88.941400
    },
    {
      "County": "Lawrence",
      "confirmed_cases": 1869,
      "confirmed_rate_per_10k": 1185.54,
      "confirmed_rate_per_100k": 11855.4,
      "deaths": 20,
      "deaths_rate_per_10k": 12.6863,
      "deaths_rate_per_100k": 126.863,
      "total_tested": 16764,
      "test_rate_per_10k": 10633.7,
      "test_rate_per_100k": 106337,
      "total_population": 15765,
      "latitude": 38.715800,
      "longitude": -87.776300
    },
    {
      "County": "Lee",
      "confirmed_cases": 2670,
      "confirmed_rate_per_10k": 780.177,
      "confirmed_rate_per_100k": 7801.77,
      "deaths": 30,
      "deaths_rate_per_10k": 8.76603,
      "deaths_rate_per_100k": 87.6603,
      "total_tested": 29860,
      "test_rate_per_10k": 8725.13,
      "test_rate_per_100k": 87251.3,
      "total_population": 34223,
      "latitude": 41.679000,
      "longitude": -89.322700
    },
    {
      "County": "Livingston",
      "confirmed_cases": 3093,
      "confirmed_rate_per_10k": 864.909,
      "confirmed_rate_per_100k": 8649.09,
      "deaths": 51,
      "deaths_rate_per_10k": 14.2613,
      "deaths_rate_per_100k": 142.613,
      "total_tested": 43899,
      "test_rate_per_10k": 12275.7,
      "test_rate_per_100k": 122757,
      "total_population": 35761,
      "latitude": 40.868900,
      "longitude": -88.556500
    },
    {
      "County": "Logan",
      "confirmed_cases": 2662,
      "confirmed_rate_per_10k": 920.311,
      "confirmed_rate_per_100k": 9203.11,
      "deaths": 36,
      "deaths_rate_per_10k": 12.446,
      "deaths_rate_per_100k": 124.46,
      "total_tested": 42065,
      "test_rate_per_10k": 14542.8,
      "test_rate_per_100k": 145428,
      "total_population": 28925,
      "latitude": 40.061300,
      "longitude": -89.322700
    },
    {
      "County": "Macon",
      "confirmed_cases": 7864,
      "confirmed_rate_per_10k": 751.012,
      "confirmed_rate_per_100k": 7510.12,
      "deaths": 158,
      "deaths_rate_per_10k": 15.089,
      "deaths_rate_per_100k": 150.89,
      "total_tested": 99098,
      "test_rate_per_10k": 9463.86,
      "test_rate_per_100k": 94638.6,
      "total_population": 104712,
      "latitude": 39.894900,
      "longitude": -89.017900
    },
    {
      "County": "Macoupin",
      "confirmed_cases": 3199,
      "confirmed_rate_per_10k": 705.978,
      "confirmed_rate_per_100k": 7059.78,
      "deaths": 58,
      "deaths_rate_per_10k": 12.7999,
      "deaths_rate_per_100k": 127.999,
      "total_tested": 44058,
      "test_rate_per_10k": 9723.04,
      "test_rate_per_100k": 97230.4,
      "total_population": 45313,
      "latitude": 39.237500,
      "longitude": -89.925300
    },
    {
      "County": "Madison",
      "confirmed_cases": 20555,
      "confirmed_rate_per_10k": 777.241,
      "confirmed_rate_per_100k": 7772.41,
      "deaths": 337,
      "deaths_rate_per_10k": 12.7429,
      "deaths_rate_per_100k": 127.429,
      "total_tested": 189408,
      "test_rate_per_10k": 7162.04,
      "test_rate_per_100k": 71620.4,
      "total_population": 264461,
      "latitude": 38.904100,
      "longitude": -89.925300
    },
    {
      "County": "Marion",
      "confirmed_cases": 3492,
      "confirmed_rate_per_10k": 928.23,
      "confirmed_rate_per_100k": 9282.3,
      "deaths": 97,
      "deaths_rate_per_10k": 25.7842,
      "deaths_rate_per_100k": 257.842,
      "total_tested": 38082,
      "test_rate_per_10k": 10122.8,
      "test_rate_per_100k": 101228,
      "total_population": 37620,
      "latitude": 38.731300,
      "longitude": -88.864700
    },
    {
      "County": "Marshall",
      "confirmed_cases": 569,
      "confirmed_rate_per_10k": 493.324,
      "confirmed_rate_per_100k": 4933.24,
      "deaths": 8,
      "deaths_rate_per_10k": 6.93602,
      "deaths_rate_per_100k": 69.3602,
      "total_tested": 11348,
      "test_rate_per_10k": 9838.74,
      "test_rate_per_100k": 98387.4,
      "total_population": 11534,
      "latitude": 40.997300,
      "longitude": -89.360600
    },
    {
      "County": "Mason",
      "confirmed_cases": 991,
      "confirmed_rate_per_10k": 730.557,
      "confirmed_rate_per_100k": 7305.57,
      "deaths": 36,
      "deaths_rate_per_10k": 26.5389,
      "deaths_rate_per_100k": 265.389,
      "total_tested": 12875,
      "test_rate_per_10k": 9491.34,
      "test_rate_per_100k": 94913.4,
      "total_population": 13565,
      "latitude": 40.227100,
      "longitude": -89.925300
    },
    {
      "County": "Massac",
      "confirmed_cases": 865,
      "confirmed_rate_per_10k": 614.347,
      "confirmed_rate_per_100k": 6143.47,
      "deaths": 26,
      "deaths_rate_per_10k": 18.4659,
      "deaths_rate_per_100k": 184.659,
      "total_tested": 7080,
      "test_rate_per_10k": 5028.41,
      "test_rate_per_100k": 50284.1,
      "total_population": 14080,
      "latitude": 37.247800,
      "longitude": -88.749400
    },
    {
      "County": "McDonough",
      "confirmed_cases": 1959,
      "confirmed_rate_per_10k": 653.981,
      "confirmed_rate_per_100k": 6539.81,
      "deaths": 35,
      "deaths_rate_per_10k": 11.6842,
      "deaths_rate_per_100k": 116.842,
      "total_tested": 26196,
      "test_rate_per_10k": 8745.12,
      "test_rate_per_100k": 87451.2,
      "total_population": 29955,
      "latitude": 40.388500,
      "longitude": -90.677300
    },
    {
      "County": "McHenry",
      "confirmed_cases": 18794,
      "confirmed_rate_per_10k": 609.068,
      "confirmed_rate_per_100k": 6090.68,
      "deaths": 202,
      "deaths_rate_per_10k": 6.54633,
      "deaths_rate_per_100k": 65.4633,
      "total_tested": 192695,
      "test_rate_per_10k": 6244.77,
      "test_rate_per_100k": 62447.7,
      "total_population": 308570,
      "latitude": 42.304000,
      "longitude": -88.401600
    },
    {
      "County": "McLean",
      "confirmed_cases": 11365,
      "confirmed_rate_per_10k": 657.59,
      "confirmed_rate_per_100k": 6575.9,
      "deaths": 92,
      "deaths_rate_per_10k": 5.32321,
      "deaths_rate_per_100k": 53.2321,
      "total_tested": 183972,
      "test_rate_per_10k": 10644.8,
      "test_rate_per_100k": 106448,
      "total_population": 172828,
      "latitude": 40.547800,
      "longitude": -88.864700
    },
    {
      "County": "Menard",
      "confirmed_cases": 716,
      "confirmed_rate_per_10k": 582.682,
      "confirmed_rate_per_100k": 5826.82,
      "deaths": 6,
      "deaths_rate_per_10k": 4.88281,
      "deaths_rate_per_100k": 48.8281,
      "total_tested": 11751,
      "test_rate_per_10k": 9562.99,
      "test_rate_per_100k": 95629.9,
      "total_population": 12288,
      "latitude": 40.022100,
      "longitude": -89.813000
    },
    {
      "County": "Mercer",
      "confirmed_cases": 1053,
      "confirmed_rate_per_10k": 674.957,
      "confirmed_rate_per_100k": 6749.57,
      "deaths": 23,
      "deaths_rate_per_10k": 14.7426,
      "deaths_rate_per_100k": 147.426,
      "total_tested": 11646,
      "test_rate_per_10k": 7464.91,
      "test_rate_per_100k": 74649.1,
      "total_population": 15601,
      "latitude": 41.198500,
      "longitude": -90.677300
    },
    {
      "County": "Monroe",
      "confirmed_cases": 3044,
      "confirmed_rate_per_10k": 886.559,
      "confirmed_rate_per_100k": 8865.59,
      "deaths": 59,
      "deaths_rate_per_10k": 17.1836,
      "deaths_rate_per_100k": 171.836,
      "total_tested": 24494,
      "test_rate_per_10k": 7133.83,
      "test_rate_per_100k": 71338.3,
      "total_population": 34335,
      "latitude": 38.274300,
      "longitude": -90.187000
    },
    {
      "County": "Montgomery",
      "confirmed_cases": 2069,
      "confirmed_rate_per_10k": 723.401,
      "confirmed_rate_per_100k": 7234.01,
      "deaths": 21,
      "deaths_rate_per_10k": 7.3424,
      "deaths_rate_per_100k": 73.424,
      "total_tested": 32337,
      "test_rate_per_10k": 11306.2,
      "test_rate_per_100k": 113062,
      "total_population": 28601,
      "latitude": 39.236400,
      "longitude": -89.474200
    },
    {
      "County": "Morgan",
      "confirmed_cases": 2967,
      "confirmed_rate_per_10k": 873.263,
      "confirmed_rate_per_100k": 8732.63,
      "deaths": 62,
      "deaths_rate_per_10k": 18.2482,
      "deaths_rate_per_100k": 182.482,
      "total_tested": 33027,
      "test_rate_per_10k": 9720.69,
      "test_rate_per_100k": 97206.9,
      "total_population": 33976,
      "latitude": 39.734100,
      "longitude": -90.224500
    },
    {
      "County": "Moultrie",
      "confirmed_cases": 1236,
      "confirmed_rate_per_10k": 839.845,
      "confirmed_rate_per_100k": 8398.45,
      "deaths": 18,
      "deaths_rate_per_10k": 12.2308,
      "deaths_rate_per_100k": 122.308,
      "total_tested": 14397,
      "test_rate_per_10k": 9782.56,
      "test_rate_per_100k": 97825.6,
      "total_population": 14717,
      "latitude": 39.602100,
      "longitude": -88.595200
    },
    {
      "County": "Ogle",
      "confirmed_cases": 4019,
      "confirmed_rate_per_10k": 789.231,
      "confirmed_rate_per_100k": 7892.31,
      "deaths": 59,
      "deaths_rate_per_10k": 11.5861,
      "deaths_rate_per_100k": 115.861,
      "total_tested": 37568,
      "test_rate_per_10k": 7377.41,
      "test_rate_per_100k": 73774.1,
      "total_population": 50923,
      "latitude": 41.997000,
      "longitude": -89.322700
    },
    {
      "County": "Peoria",
      "confirmed_cases": 12873,
      "confirmed_rate_per_10k": 712.708,
      "confirmed_rate_per_100k": 7127.08,
      "deaths": 188,
      "deaths_rate_per_10k": 10.4085,
      "deaths_rate_per_100k": 104.085,
      "total_tested": 191293,
      "test_rate_per_10k": 10590.9,
      "test_rate_per_100k": 105909,
      "total_population": 180621,
      "latitude": 40.715600,
      "longitude": -89.775500
    },
    {
      "County": "Perry",
      "confirmed_cases": 2053,
      "confirmed_rate_per_10k": 969.585,
      "confirmed_rate_per_100k": 9695.85,
      "deaths": 43,
      "deaths_rate_per_10k": 20.3079,
      "deaths_rate_per_100k": 203.079,
      "total_tested": 17189,
      "test_rate_per_10k": 8117.97,
      "test_rate_per_100k": 81179.7,
      "total_population": 21174,
      "latitude": 38.061200,
      "longitude": -89.322700
    },
    {
      "County": "Piatt",
      "confirmed_cases": 1029,
      "confirmed_rate_per_10k": 627.592,
      "confirmed_rate_per_100k": 6275.92,
      "deaths": 7,
      "deaths_rate_per_10k": 4.26933,
      "deaths_rate_per_100k": 42.6933,
      "total_tested": 19906,
      "test_rate_per_10k": 12140.8,
      "test_rate_per_100k": 121408,
      "total_population": 16396,
      "latitude": 40.054400,
      "longitude": -88.855650
    },
    {
      "County": "Pike",
      "confirmed_cases": 1353,
      "confirmed_rate_per_10k": 866.697,
      "confirmed_rate_per_100k": 8666.97,
      "deaths": 36,
      "deaths_rate_per_10k": 23.0607,
      "deaths_rate_per_100k": 230.607,
      "total_tested": 11367,
      "test_rate_per_10k": 7281.4,
      "test_rate_per_100k": 72814,
      "total_population": 15611,
      "latitude": 39.566200,
      "longitude": -90.829400
    },
    {
      "County": "Pope",
      "confirmed_cases": 185,
      "confirmed_rate_per_10k": 439.221,
      "confirmed_rate_per_100k": 4392.21,
      "deaths": 1,
      "deaths_rate_per_10k": 2.37417,
      "deaths_rate_per_100k": 23.7417,
      "total_tested": 1684,
      "test_rate_per_10k": 3998.1,
      "test_rate_per_100k": 39981,
      "total_population": 4212,
      "latitude": 37.417100,
      "longitude": -88.595200
    },
    {
      "County": "Pulaski",
      "confirmed_cases": 549,
      "confirmed_rate_per_10k": 1004.94,
      "confirmed_rate_per_100k": 10049.4,
      "deaths": 3,
      "deaths_rate_per_10k": 5.49149,
      "deaths_rate_per_100k": 54.9149,
      "total_tested": 3773,
      "test_rate_per_10k": 6906.46,
      "test_rate_per_100k": 69064.6,
      "total_population": 5463,
      "latitude": 37.251200,
      "longitude": -89.132500
    },
    {
      "County": "Putnam",
      "confirmed_cases": 312,
      "confirmed_rate_per_10k": 543.554,
      "confirmed_rate_per_100k": 5435.54,
      "deaths": 0,
      "deaths_rate_per_10k": 0,
      "deaths_rate_per_100k": 0,
      "total_tested": 3407,
      "test_rate_per_10k": 5935.54,
      "test_rate_per_100k": 59355.4,
      "total_population": 5740,
      "latitude": 41.238500,
      "longitude": -89.284700
    },
    {
      "County": "Randolph",
      "confirmed_cases": 3258,
      "confirmed_rate_per_10k": 1014.76,
      "confirmed_rate_per_100k": 10147.6,
      "deaths": 36,
      "deaths_rate_per_10k": 11.2129,
      "deaths_rate_per_100k": 112.129,
      "total_tested": 30802,
      "test_rate_per_10k": 9593.85,
      "test_rate_per_100k": 95938.5,
      "total_population": 32106,
      "latitude": 38.062900,
      "longitude": -89.775500
    },
    {
      "County": "Richland",
      "confirmed_cases": 1268,
      "confirmed_rate_per_10k": 804.415,
      "confirmed_rate_per_100k": 8044.15,
      "deaths": 28,
      "deaths_rate_per_10k": 17.7631,
      "deaths_rate_per_100k": 177.631,
      "total_tested": 15406,
      "test_rate_per_10k": 9773.52,
      "test_rate_per_100k": 97735.2,
      "total_population": 15763,
      "latitude": 38.721300,
      "longitude": -88.090100
    },
    {
      "County": "Rock Island",
      "confirmed_cases": 10890,
      "confirmed_rate_per_10k": 759.007,
      "confirmed_rate_per_100k": 7590.07,
      "deaths": 207,
      "deaths_rate_per_10k": 14.4274,
      "deaths_rate_per_100k": 144.274,
      "total_tested": 118519,
      "test_rate_per_10k": 8260.49,
      "test_rate_per_100k": 82604.9,
      "total_population": 143477,
      "latitude": 41.509500,
      "longitude": -90.578700
    },
    {
      "County": "Saline",
      "confirmed_cases": 1721,
      "confirmed_rate_per_10k": 719.903,
      "confirmed_rate_per_100k": 7199.03,
      "deaths": 31,
      "deaths_rate_per_10k": 12.9675,
      "deaths_rate_per_100k": 129.675,
      "total_tested": 18605,
      "test_rate_per_10k": 7782.57,
      "test_rate_per_100k": 77825.7,
      "total_population": 23906,
      "latitude": 37.715000,
      "longitude": -88.556500
    },
    {
      "County": "Sangamon",
      "confirmed_cases": 13093,
      "confirmed_rate_per_10k": 670.24,
      "confirmed_rate_per_100k": 6702.4,
      "deaths": 174,
      "deaths_rate_per_10k": 8.90718,
      "deaths_rate_per_100k": 89.0718,
      "total_tested": 233192,
      "test_rate_per_10k": 11937.3,
      "test_rate_per_100k": 119373,
      "total_population": 195348,
      "latitude": 39.733700,
      "longitude": -89.625200
    },
    {
      "County": "Schuyler",
      "confirmed_cases": 540,
      "confirmed_rate_per_10k": 781.816,
      "confirmed_rate_per_100k": 7818.16,
      "deaths": 3,
      "deaths_rate_per_10k": 4.34342,
      "deaths_rate_per_100k": 43.4342,
      "total_tested": 6895,
      "test_rate_per_10k": 9982.63,
      "test_rate_per_100k": 99826.3,
      "total_population": 6907,
      "latitude": 40.184500,
      "longitude": -90.639400
    },
    {
      "County": "Scott",
      "confirmed_cases": 321,
      "confirmed_rate_per_10k": 651.644,
      "confirmed_rate_per_100k": 6516.44,
      "deaths": 1,
      "deaths_rate_per_10k": 2.03004,
      "deaths_rate_per_100k": 20.3004,
      "total_tested": 5330,
      "test_rate_per_10k": 10820.1,
      "test_rate_per_100k": 108201,
      "total_population": 4926,
      "latitude": 39.609500,
      "longitude": -90.488000
    },
    {
      "County": "Shelby",
      "confirmed_cases": 1771,
      "confirmed_rate_per_10k": 814.59,
      "confirmed_rate_per_100k": 8145.9,
      "deaths": 30,
      "deaths_rate_per_10k": 13.7988,
      "deaths_rate_per_100k": 137.988,
      "total_tested": 15429,
      "test_rate_per_10k": 7096.73,
      "test_rate_per_100k": 70967.3,
      "total_population": 21741,
      "latitude": 39.398100,
      "longitude": -88.864700
    },
    {
      "County": "St. Clair",
      "confirmed_cases": 18628,
      "confirmed_rate_per_10k": 713.555,
      "confirmed_rate_per_100k": 7135.55,
      "deaths": 319,
      "deaths_rate_per_10k": 12.2195,
      "deaths_rate_per_100k": 122.195,
      "total_tested": 194142,
      "test_rate_per_10k": 7436.71,
      "test_rate_per_100k": 74367.1,
      "total_population": 261059,
      "latitude": 38.400800,
      "longitude": -89.925300
    },
    {
      "County": "Stark",
      "confirmed_cases": 436,
      "confirmed_rate_per_10k": 803.39,
      "confirmed_rate_per_100k": 8033.9,
      "deaths": 19,
      "deaths_rate_per_10k": 35.0101,
      "deaths_rate_per_100k": 350.101,
      "total_tested": 5700,
      "test_rate_per_10k": 10503,
      "test_rate_per_100k": 105030,
      "total_population": 5427,
      "latitude": 41.079600,
      "longitude": -89.813000
    },
    {
      "County": "Stephenson",
      "confirmed_cases": 3205,
      "confirmed_rate_per_10k": 716.153,
      "confirmed_rate_per_100k": 7161.53,
      "deaths": 46,
      "deaths_rate_per_10k": 10.2786,
      "deaths_rate_per_100k": 102.786,
      "total_tested": 33623,
      "test_rate_per_10k": 7513.02,
      "test_rate_per_100k": 75130.2,
      "total_population": 44753,
      "latitude": 42.314500,
      "longitude": -89.625200
    },
    {
      "County": "Tazewell",
      "confirmed_cases": 10143,
      "confirmed_rate_per_10k": 766.504,
      "confirmed_rate_per_100k": 7665.04,
      "deaths": 166,
      "deaths_rate_per_10k": 12.5446,
      "deaths_rate_per_100k": 125.446,
      "total_tested": 135339,
      "test_rate_per_10k": 10227.5,
      "test_rate_per_100k": 102275,
      "total_population": 132328,
      "latitude": 40.552200,
      "longitude": -89.474200
    },
    {
      "County": "Union",
      "confirmed_cases": 1643,
      "confirmed_rate_per_10k": 975.595,
      "confirmed_rate_per_100k": 9755.95,
      "deaths": 29,
      "deaths_rate_per_10k": 17.2199,
      "deaths_rate_per_100k": 172.199,
      "total_tested": 19135,
      "test_rate_per_10k": 11362.2,
      "test_rate_per_100k": 113622,
      "total_population": 16841,
      "latitude": 37.508700,
      "longitude": -89.284700
    },
    {
      "County": "Vermilion",
      "confirmed_cases": 6238,
      "confirmed_rate_per_10k": 812.176,
      "confirmed_rate_per_100k": 8121.76,
      "deaths": 72,
      "deaths_rate_per_10k": 9.37427,
      "deaths_rate_per_100k": 93.7427,
      "total_tested": 73644,
      "test_rate_per_10k": 9588.31,
      "test_rate_per_100k": 95883.1,
      "total_population": 76806,
      "latitude": 40.122500,
      "longitude": -87.697600
    },
    {
      "County": "Wabash",
      "confirmed_cases": 1021,
      "confirmed_rate_per_10k": 884.059,
      "confirmed_rate_per_100k": 8840.59,
      "deaths": 10,
      "deaths_rate_per_10k": 8.65876,
      "deaths_rate_per_100k": 86.5876,
      "total_tested": 8432,
      "test_rate_per_10k": 7301.07,
      "test_rate_per_100k": 73010.7,
      "total_population": 11549,
      "latitude": 38.422600,
      "longitude": -87.815700
    },
    {
      "County": "Warren",
      "confirmed_cases": 1471,
      "confirmed_rate_per_10k": 863.668,
      "confirmed_rate_per_100k": 8636.68,
      "deaths": 33,
      "deaths_rate_per_10k": 19.3753,
      "deaths_rate_per_100k": 193.753,
      "total_tested": 10650,
      "test_rate_per_10k": 6252.94,
      "test_rate_per_100k": 62529.4,
      "total_population": 17032,
      "latitude": 40.875900,
      "longitude": -90.677300
    },
    {
      "County": "Washington",
      "confirmed_cases": 1181,
      "confirmed_rate_per_10k": 843.873,
      "confirmed_rate_per_100k": 8438.73,
      "deaths": 18,
      "deaths_rate_per_10k": 12.8617,
      "deaths_rate_per_100k": 128.617,
      "total_tested": 8027,
      "test_rate_per_10k": 5735.62,
      "test_rate_per_100k": 57356.2,
      "total_population": 13995,
      "latitude": 38.398900,
      "longitude": -89.322700
    },
    {
      "County": "Wayne",
      "confirmed_cases": 1309,
      "confirmed_rate_per_10k": 801.494,
      "confirmed_rate_per_100k": 8014.94,
      "deaths": 40,
      "deaths_rate_per_10k": 24.4918,
      "deaths_rate_per_100k": 244.918,
      "total_tested": 10276,
      "test_rate_per_10k": 6291.94,
      "test_rate_per_100k": 62919.4,
      "total_population": 16332,
      "latitude": 38.390000,
      "longitude": -88.401600
    },
    {
      "County": "White",
      "confirmed_cases": 1094,
      "confirmed_rate_per_10k": 800.585,
      "confirmed_rate_per_100k": 8005.85,
      "deaths": 18,
      "deaths_rate_per_10k": 13.1723,
      "deaths_rate_per_100k": 131.723,
      "total_tested": 14658,
      "test_rate_per_10k": 10726.7,
      "test_rate_per_100k": 107267,
      "total_population": 13665,
      "latitude": 38.050100,
      "longitude": -88.246100
    },
    {
      "County": "Whiteside",
      "confirmed_cases": 4739,
      "confirmed_rate_per_10k": 851.94,
      "confirmed_rate_per_100k": 8519.4,
      "deaths": 119,
      "deaths_rate_per_10k": 21.3929,
      "deaths_rate_per_100k": 213.929,
      "total_tested": 40657,
      "test_rate_per_10k": 7308.99,
      "test_rate_per_100k": 73089.9,
      "total_population": 55626,
      "latitude": 41.760600,
      "longitude": -89.850500
    },
    {
      "County": "Will",
      "confirmed_cases": 51466,
      "confirmed_rate_per_10k": 743.395,
      "confirmed_rate_per_100k": 7433.95,
      "deaths": 712,
      "deaths_rate_per_10k": 10.2844,
      "deaths_rate_per_100k": 102.844,
      "total_tested": 508679,
      "test_rate_per_10k": 7347.56,
      "test_rate_per_100k": 73475.6,
      "total_population": 692310,
      "latitude": 41.505500,
      "longitude": -88.090100
    },
    {
      "County": "Williamson",
      "confirmed_cases": 5132,
      "confirmed_rate_per_10k": 765.33,
      "confirmed_rate_per_100k": 7653.3,
      "deaths": 98,
      "deaths_rate_per_10k": 14.6147,
      "deaths_rate_per_100k": 146.147,
      "total_tested": 60942,
      "test_rate_per_10k": 9088.22,
      "test_rate_per_100k": 90882.2,
      "total_population": 67056,
      "latitude": 37.718300,
      "longitude": -88.864700
    },
    {
      "County": "Winnebago",
      "confirmed_cases": 23760,
      "confirmed_rate_per_10k": 836.381,
      "confirmed_rate_per_100k": 8363.81,
      "deaths": 335,
      "deaths_rate_per_10k": 11.7924,
      "deaths_rate_per_100k": 117.924,
      "total_tested": 241144,
      "test_rate_per_10k": 8488.56,
      "test_rate_per_100k": 84885.6,
      "total_population": 284081,
      "latitude": 42.312100,
      "longitude": -89.170600
    },
    {
      "County": "Woodford",
      "confirmed_cases": 2712,
      "confirmed_rate_per_10k": 705.093,
      "confirmed_rate_per_100k": 7050.93,
      "deaths": 45,
      "deaths_rate_per_10k": 11.6996,
      "deaths_rate_per_100k": 116.996,
      "total_tested": 38367,
      "test_rate_per_10k": 9975.04,
      "test_rate_per_100k": 99750.4,
      "total_population": 38463,
      "latitude": 40.712900,
      "longitude": -89.170600
    }
  ]
}
