{
  "LastUpdateDate": {
    "year": 2020,
    "month": 10,
    "day": 4
  },
  "county_rates": [
    {
      "County": "Adams",
      "confirmed_cases": 1249,
      "confirmed_rate_per_10k": 190.133,
      "confirmed_rate_per_100k": 1901.33,
      "deaths": 10,
      "deaths_rate_per_10k": 1.52228,
      "deaths_rate_per_100k": 15.2228,
      "total_tested": 32930,
      "test_rate_per_10k": 5012.86,
      "test_rate_per_100k": 50128.6,
      "total_population": 65691,
      "latitude": 40.057800,
      "longitude": -91.135300
    },
    {
      "County": "Alexander",
      "confirmed_cases": 90,
      "confirmed_rate_per_10k": 148.515,
      "confirmed_rate_per_100k": 1485.15,
      "deaths": 1,
      "deaths_rate_per_10k": 1.65017,
      "deaths_rate_per_100k": 16.5017,
      "total_tested": 2103,
      "test_rate_per_10k": 3470.3,
      "test_rate_per_100k": 34703,
      "total_population": 6060,
      "latitude": 37.167000,
      "longitude": -89.360600
    },
    {
      "County": "Bond",
      "confirmed_cases": 361,
      "confirmed_rate_per_10k": 217.078,
      "confirmed_rate_per_100k": 2170.78,
      "deaths": 8,
      "deaths_rate_per_10k": 4.81058,
      "deaths_rate_per_100k": 48.1058,
      "total_tested": 6557,
      "test_rate_per_10k": 3942.87,
      "test_rate_per_100k": 39428.7,
      "total_population": 16630,
      "latitude": 38.903000,
      "longitude": -89.474200
    },
    {
      "County": "Boone",
      "confirmed_cases": 1213,
      "confirmed_rate_per_10k": 226.403,
      "confirmed_rate_per_100k": 2264.03,
      "deaths": 23,
      "deaths_rate_per_10k": 4.29289,
      "deaths_rate_per_100k": 42.9289,
      "total_tested": 16476,
      "test_rate_per_10k": 3075.2,
      "test_rate_per_100k": 30752,
      "total_population": 53577,
      "latitude": 42.348500,
      "longitude": -88.826300
    },
    {
      "County": "Brown",
      "confirmed_cases": 71,
      "confirmed_rate_per_10k": 108.298,
      "confirmed_rate_per_100k": 1082.98,
      "deaths": 0,
      "deaths_rate_per_10k": 0,
      "deaths_rate_per_100k": 0,
      "total_tested": 1698,
      "test_rate_per_10k": 2589.99,
      "test_rate_per_100k": 25899.9,
      "total_population": 6556,
      "latitude": 39.938000,
      "longitude": -90.715300
    },
    {
      "County": "Bureau",
      "confirmed_cases": 722,
      "confirmed_rate_per_10k": 218.834,
      "confirmed_rate_per_100k": 2188.34,
      "deaths": 13,
      "deaths_rate_per_10k": 3.94023,
      "deaths_rate_per_100k": 39.4023,
      "total_tested": 10249,
      "test_rate_per_10k": 3106.42,
      "test_rate_per_100k": 31064.2,
      "total_population": 32993,
      "latitude": 41.359900,
      "longitude": -89.474200
    },
    {
      "County": "Calhoun",
      "confirmed_cases": 66,
      "confirmed_rate_per_10k": 137.443,
      "confirmed_rate_per_100k": 1374.43,
      "deaths": 0,
      "deaths_rate_per_10k": 0,
      "deaths_rate_per_100k": 0,
      "total_tested": 1179,
      "test_rate_per_10k": 2455.23,
      "test_rate_per_100k": 24552.3,
      "total_population": 4802,
      "latitude": 39.173300,
      "longitude": -90.658300
    },
    {
      "County": "Carroll",
      "confirmed_cases": 243,
      "confirmed_rate_per_10k": 169.788,
      "confirmed_rate_per_100k": 1697.88,
      "deaths": 6,
      "deaths_rate_per_10k": 4.19229,
      "deaths_rate_per_100k": 41.9229,
      "total_tested": 4554,
      "test_rate_per_10k": 3181.95,
      "test_rate_per_100k": 31819.5,
      "total_population": 14312,
      "latitude": 42.038600,
      "longitude": -89.962700
    },
    {
      "County": "Cass",
      "confirmed_cases": 414,
      "confirmed_rate_per_10k": 337.684,
      "confirmed_rate_per_100k": 3376.84,
      "deaths": 11,
      "deaths_rate_per_10k": 8.97227,
      "deaths_rate_per_100k": 89.7227,
      "total_tested": 4983,
      "test_rate_per_10k": 4064.44,
      "test_rate_per_100k": 40644.4,
      "total_population": 12260,
      "latitude": 39.939900,
      "longitude": -90.262000
    },
    {
      "County": "Champaign",
      "confirmed_cases": 5041,
      "confirmed_rate_per_10k": 240.067,
      "confirmed_rate_per_100k": 2400.67,
      "deaths": 23,
      "deaths_rate_per_10k": 1.09533,
      "deaths_rate_per_100k": 10.9533,
      "total_tested": 568038,
      "test_rate_per_10k": 27051.6,
      "test_rate_per_100k": 270516,
      "total_population": 209983,
      "latitude": 40.213900,
      "longitude": -88.246100
    },
    {
      "County": "Chicago",
      "confirmed_cases": 81702,
      "confirmed_rate_per_10k": 301.93,
      "confirmed_rate_per_100k": 3019.3,
      "deaths": 2976,
      "deaths_rate_per_10k": 10.9978,
      "deaths_rate_per_100k": 109.978,
      "total_tested": 1211976,
      "test_rate_per_10k": 4478.86,
      "test_rate_per_100k": 44788.6,
      "total_population": 2705994,
      "latitude": 41.789896,
      "longitude": -87.627734
    },
    {
      "County": "Christian",
      "confirmed_cases": 626,
      "confirmed_rate_per_10k": 191.666,
      "confirmed_rate_per_100k": 1916.66,
      "deaths": 15,
      "deaths_rate_per_10k": 4.59263,
      "deaths_rate_per_100k": 45.9263,
      "total_tested": 12170,
      "test_rate_per_10k": 3726.16,
      "test_rate_per_100k": 37261.6,
      "total_population": 32661,
      "latitude": 39.567200,
      "longitude": -89.322700
    },
    {
      "County": "Clark",
      "confirmed_cases": 190,
      "confirmed_rate_per_10k": 121.826,
      "confirmed_rate_per_100k": 1218.26,
      "deaths": 3,
      "deaths_rate_per_10k": 1.92357,
      "deaths_rate_per_100k": 19.2357,
      "total_tested": 4908,
      "test_rate_per_10k": 3146.96,
      "test_rate_per_100k": 31469.6,
      "total_population": 15596,
      "latitude": 39.382400,
      "longitude": -87.776300
    },
    {
      "County": "Clay",
      "confirmed_cases": 191,
      "confirmed_rate_per_10k": 144.118,
      "confirmed_rate_per_100k": 1441.18,
      "deaths": 0,
      "deaths_rate_per_10k": 0,
      "deaths_rate_per_100k": 0,
      "total_tested": 3699,
      "test_rate_per_10k": 2791.07,
      "test_rate_per_100k": 27910.7,
      "total_population": 13253,
      "latitude": 38.727900,
      "longitude": -88.556500
    },
    {
      "County": "Clinton",
      "confirmed_cases": 1297,
      "confirmed_rate_per_10k": 344.589,
      "confirmed_rate_per_100k": 3445.89,
      "deaths": 21,
      "deaths_rate_per_10k": 5.57932,
      "deaths_rate_per_100k": 55.7932,
      "total_tested": 13883,
      "test_rate_per_10k": 3688.46,
      "test_rate_per_100k": 36884.6,
      "total_population": 37639,
      "latitude": 38.568400,
      "longitude": -89.625200
    },
    {
      "County": "Coles",
      "confirmed_cases": 1556,
      "confirmed_rate_per_10k": 305.788,
      "confirmed_rate_per_100k": 3057.88,
      "deaths": 32,
      "deaths_rate_per_10k": 6.28869,
      "deaths_rate_per_100k": 62.8869,
      "total_tested": 24840,
      "test_rate_per_10k": 4881.6,
      "test_rate_per_100k": 48816,
      "total_population": 50885,
      "latitude": 39.556000,
      "longitude": -88.246100
    },
    {
      "County": "Cook",
      "confirmed_cases": 66679,
      "confirmed_rate_per_10k": 269.465,
      "confirmed_rate_per_100k": 2694.65,
      "deaths": 2280,
      "deaths_rate_per_10k": 9.21399,
      "deaths_rate_per_100k": 92.1399,
      "total_tested": 1042153,
      "test_rate_per_10k": 4211.57,
      "test_rate_per_100k": 42115.7,
      "total_population": 2474499,
      "latitude": 42.050784,
      "longitude": -87.963759
    },
    {
      "County": "Crawford",
      "confirmed_cases": 481,
      "confirmed_rate_per_10k": 255.756,
      "confirmed_rate_per_100k": 2557.56,
      "deaths": 6,
      "deaths_rate_per_10k": 3.1903,
      "deaths_rate_per_100k": 31.903,
      "total_tested": 4702,
      "test_rate_per_10k": 2500.13,
      "test_rate_per_100k": 25001.3,
      "total_population": 18807,
      "latitude": 39.050000,
      "longitude": -87.776300
    },
    {
      "County": "Cumberland",
      "confirmed_cases": 221,
      "confirmed_rate_per_10k": 204.478,
      "confirmed_rate_per_100k": 2044.78,
      "deaths": 5,
      "deaths_rate_per_10k": 4.6262,
      "deaths_rate_per_100k": 46.262,
      "total_tested": 4168,
      "test_rate_per_10k": 3856.4,
      "test_rate_per_100k": 38564,
      "total_population": 10808,
      "latitude": 39.265400,
      "longitude": -88.207200
    },
    {
      "County": "De Witt",
      "confirmed_cases": 141,
      "confirmed_rate_per_10k": 89.4159,
      "confirmed_rate_per_100k": 894.159,
      "deaths": 2,
      "deaths_rate_per_10k": 1.26831,
      "deaths_rate_per_100k": 12.6831,
      "total_tested": 4170,
      "test_rate_per_10k": 2644.43,
      "test_rate_per_100k": 26444.3,
      "total_population": 15769,
      "latitude": 40.181000,
      "longitude": -88.903100
    },
    {
      "County": "DeKalb",
      "confirmed_cases": 1728,
      "confirmed_rate_per_10k": 165.926,
      "confirmed_rate_per_100k": 1659.26,
      "deaths": 40,
      "deaths_rate_per_10k": 3.84087,
      "deaths_rate_per_100k": 38.4087,
      "total_tested": 34144,
      "test_rate_per_10k": 3278.57,
      "test_rate_per_100k": 32785.7,
      "total_population": 104143,
      "latitude": 41.833000,
      "longitude": -88.710900
    },
    {
      "County": "Douglas",
      "confirmed_cases": 345,
      "confirmed_rate_per_10k": 177.114,
      "confirmed_rate_per_100k": 1771.14,
      "deaths": 7,
      "deaths_rate_per_10k": 3.59361,
      "deaths_rate_per_100k": 35.9361,
      "total_tested": 8601,
      "test_rate_per_10k": 4415.52,
      "test_rate_per_100k": 44155.2,
      "total_population": 19479,
      "latitude": 39.761800,
      "longitude": -88.207200
    },
    {
      "County": "DuPage",
      "confirmed_cases": 18209,
      "confirmed_rate_per_10k": 196.093,
      "confirmed_rate_per_100k": 1960.93,
      "deaths": 567,
      "deaths_rate_per_10k": 6.10604,
      "deaths_rate_per_100k": 61.0604,
      "total_tested": 346358,
      "test_rate_per_10k": 3729.94,
      "test_rate_per_100k": 37299.4,
      "total_population": 928589,
      "latitude": 41.824400,
      "longitude": -88.090100
    },
    {
      "County": "Edgar",
      "confirmed_cases": 120,
      "confirmed_rate_per_10k": 69.1244,
      "confirmed_rate_per_100k": 691.244,
      "deaths": 8,
      "deaths_rate_per_10k": 4.60829,
      "deaths_rate_per_100k": 46.0829,
      "total_tested": 3824,
      "test_rate_per_10k": 2202.76,
      "test_rate_per_100k": 22027.6,
      "total_population": 17360,
      "latitude": 39.713100,
      "longitude": -87.776300
    },
    {
      "County": "Edwards",
      "confirmed_cases": 72,
      "confirmed_rate_per_10k": 112.641,
      "confirmed_rate_per_100k": 1126.41,
      "deaths": 0,
      "deaths_rate_per_10k": 0,
      "deaths_rate_per_100k": 0,
      "total_tested": 940,
      "test_rate_per_10k": 1470.59,
      "test_rate_per_100k": 14705.9,
      "total_population": 6392,
      "latitude": 38.426800,
      "longitude": -88.051000
    },
    {
      "County": "Effingham",
      "confirmed_cases": 918,
      "confirmed_rate_per_10k": 268.358,
      "confirmed_rate_per_100k": 2683.58,
      "deaths": 3,
      "deaths_rate_per_10k": 0.876988,
      "deaths_rate_per_100k": 8.76988,
      "total_tested": 12407,
      "test_rate_per_10k": 3626.93,
      "test_rate_per_100k": 36269.3,
      "total_population": 34208,
      "latitude": 39.062200,
      "longitude": -88.556500
    },
    {
      "County": "Fayette",
      "confirmed_cases": 463,
      "confirmed_rate_per_10k": 216.194,
      "confirmed_rate_per_100k": 2161.94,
      "deaths": 8,
      "deaths_rate_per_10k": 3.73552,
      "deaths_rate_per_100k": 37.3552,
      "total_tested": 6623,
      "test_rate_per_10k": 3092.55,
      "test_rate_per_100k": 30925.5,
      "total_population": 21416,
      "latitude": 39.067000,
      "longitude": -89.017900
    },
    {
      "County": "Ford",
      "confirmed_cases": 111,
      "confirmed_rate_per_10k": 83.6852,
      "confirmed_rate_per_100k": 836.852,
      "deaths": 5,
      "deaths_rate_per_10k": 3.7696,
      "deaths_rate_per_100k": 37.696,
      "total_tested": 5239,
      "test_rate_per_10k": 3949.79,
      "test_rate_per_100k": 39497.9,
      "total_population": 13264,
      "latitude": 40.498900,
      "longitude": -88.207200
    },
    {
      "County": "Franklin",
      "confirmed_cases": 578,
      "confirmed_rate_per_10k": 149.35,
      "confirmed_rate_per_100k": 1493.5,
      "deaths": 4,
      "deaths_rate_per_10k": 1.03357,
      "deaths_rate_per_100k": 10.3357,
      "total_tested": 12527,
      "test_rate_per_10k": 3236.87,
      "test_rate_per_100k": 32368.7,
      "total_population": 38701,
      "latitude": 38.015700,
      "longitude": -88.903100
    },
    {
      "County": "Fulton",
      "confirmed_cases": 210,
      "confirmed_rate_per_10k": 60.2686,
      "confirmed_rate_per_100k": 602.686,
      "deaths": 0,
      "deaths_rate_per_10k": 0,
      "deaths_rate_per_100k": 0,
      "total_tested": 11108,
      "test_rate_per_10k": 3187.92,
      "test_rate_per_100k": 31879.2,
      "total_population": 34844,
      "latitude": 40.553200,
      "longitude": -90.224500
    },
    {
      "County": "Gallatin",
      "confirmed_cases": 78,
      "confirmed_rate_per_10k": 154.211,
      "confirmed_rate_per_100k": 1542.11,
      "deaths": 2,
      "deaths_rate_per_10k": 3.95413,
      "deaths_rate_per_100k": 39.5413,
      "total_tested": 860,
      "test_rate_per_10k": 1700.28,
      "test_rate_per_100k": 17002.8,
      "total_population": 5058,
      "latitude": 37.710800,
      "longitude": -88.246100
    },
    {
      "County": "Greene",
      "confirmed_cases": 238,
      "confirmed_rate_per_10k": 182.459,
      "confirmed_rate_per_100k": 1824.59,
      "deaths": 14,
      "deaths_rate_per_10k": 10.7329,
      "deaths_rate_per_100k": 107.329,
      "total_tested": 4104,
      "test_rate_per_10k": 3146.27,
      "test_rate_per_100k": 31462.7,
      "total_population": 13044,
      "latitude": 39.403000,
      "longitude": -90.374800
    },
    {
      "County": "Grundy",
      "confirmed_cases": 718,
      "confirmed_rate_per_10k": 140.862,
      "confirmed_rate_per_100k": 1408.62,
      "deaths": 6,
      "deaths_rate_per_10k": 1.17712,
      "deaths_rate_per_100k": 11.7712,
      "total_tested": 11360,
      "test_rate_per_10k": 2228.67,
      "test_rate_per_100k": 22286.7,
      "total_population": 50972,
      "latitude": 41.350100,
      "longitude": -88.401600
    },
    {
      "County": "Hamilton",
      "confirmed_cases": 78,
      "confirmed_rate_per_10k": 95.5531,
      "confirmed_rate_per_100k": 955.531,
      "deaths": 2,
      "deaths_rate_per_10k": 2.45008,
      "deaths_rate_per_100k": 24.5008,
      "total_tested": 1598,
      "test_rate_per_10k": 1957.61,
      "test_rate_per_100k": 19576.1,
      "total_population": 8163,
      "latitude": 38.054300,
      "longitude": -88.556500
    },
    {
      "County": "Hancock",
      "confirmed_cases": 236,
      "confirmed_rate_per_10k": 132.257,
      "confirmed_rate_per_100k": 1322.57,
      "deaths": 3,
      "deaths_rate_per_10k": 1.68124,
      "deaths_rate_per_100k": 16.8124,
      "total_tested": 5793,
      "test_rate_per_10k": 3246.47,
      "test_rate_per_100k": 32464.7,
      "total_population": 17844,
      "latitude": 40.384900,
      "longitude": -91.135300
    },
    {
      "County": "Hardin",
      "confirmed_cases": 40,
      "confirmed_rate_per_10k": 102.302,
      "confirmed_rate_per_100k": 1023.02,
      "deaths": 0,
      "deaths_rate_per_10k": 0,
      "deaths_rate_per_100k": 0,
      "total_tested": 1127,
      "test_rate_per_10k": 2882.35,
      "test_rate_per_100k": 28823.5,
      "total_population": 3910,
      "latitude": 37.499500,
      "longitude": -88.362800
    },
    {
      "County": "Henderson",
      "confirmed_cases": 77,
      "confirmed_rate_per_10k": 114.771,
      "confirmed_rate_per_100k": 1147.71,
      "deaths": 0,
      "deaths_rate_per_10k": 0,
      "deaths_rate_per_100k": 0,
      "total_tested": 1372,
      "test_rate_per_10k": 2045.01,
      "test_rate_per_100k": 20450.1,
      "total_population": 6709,
      "latitude": 40.833600,
      "longitude": -90.943800
    },
    {
      "County": "Henry",
      "confirmed_cases": 702,
      "confirmed_rate_per_10k": 143.003,
      "confirmed_rate_per_100k": 1430.03,
      "deaths": 5,
      "deaths_rate_per_10k": 1.01854,
      "deaths_rate_per_100k": 10.1854,
      "total_tested": 17336,
      "test_rate_per_10k": 3531.47,
      "test_rate_per_100k": 35314.7,
      "total_population": 49090,
      "latitude": 41.361100,
      "longitude": -90.074700
    },
    {
      "County": "Iroquois",
      "confirmed_cases": 372,
      "confirmed_rate_per_10k": 134.763,
      "confirmed_rate_per_100k": 1347.63,
      "deaths": 19,
      "deaths_rate_per_10k": 6.88306,
      "deaths_rate_per_100k": 68.8306,
      "total_tested": 11745,
      "test_rate_per_10k": 4254.82,
      "test_rate_per_100k": 42548.2,
      "total_population": 27604,
      "latitude": 40.774000,
      "longitude": -87.697600
    },
    {
      "County": "Jackson",
      "confirmed_cases": 1296,
      "confirmed_rate_per_10k": 225.709,
      "confirmed_rate_per_100k": 2257.09,
      "deaths": 24,
      "deaths_rate_per_10k": 4.1798,
      "deaths_rate_per_100k": 41.798,
      "total_tested": 19180,
      "test_rate_per_10k": 3340.36,
      "test_rate_per_100k": 33403.6,
      "total_population": 57419,
      "latitude": 37.721800,
      "longitude": -89.322700
    },
    {
      "County": "Jasper",
      "confirmed_cases": 217,
      "confirmed_rate_per_10k": 225.783,
      "confirmed_rate_per_100k": 2257.83,
      "deaths": 10,
      "deaths_rate_per_10k": 10.4047,
      "deaths_rate_per_100k": 104.047,
      "total_tested": 2921,
      "test_rate_per_10k": 3039.23,
      "test_rate_per_100k": 30392.3,
      "total_population": 9611,
      "latitude": 39.055500,
      "longitude": -88.090100
    },
    {
      "County": "Jefferson",
      "confirmed_cases": 683,
      "confirmed_rate_per_10k": 180.592,
      "confirmed_rate_per_100k": 1805.92,
      "deaths": 38,
      "deaths_rate_per_10k": 10.0476,
      "deaths_rate_per_100k": 100.476,
      "total_tested": 10397,
      "test_rate_per_10k": 2749.07,
      "test_rate_per_100k": 27490.7,
      "total_population": 37820,
      "latitude": 38.226700,
      "longitude": -88.864700
    },
    {
      "County": "Jersey",
      "confirmed_cases": 403,
      "confirmed_rate_per_10k": 184.465,
      "confirmed_rate_per_100k": 1844.65,
      "deaths": 19,
      "deaths_rate_per_10k": 8.69685,
      "deaths_rate_per_100k": 86.9685,
      "total_tested": 6653,
      "test_rate_per_10k": 3045.27,
      "test_rate_per_100k": 30452.7,
      "total_population": 21847,
      "latitude": 39.070500,
      "longitude": -90.374800
    },
    {
      "County": "Jo Daviess",
      "confirmed_cases": 300,
      "confirmed_rate_per_10k": 140.41,
      "confirmed_rate_per_100k": 1404.1,
      "deaths": 2,
      "deaths_rate_per_10k": 0.936067,
      "deaths_rate_per_100k": 9.36067,
      "total_tested": 5757,
      "test_rate_per_10k": 2694.47,
      "test_rate_per_100k": 26944.7,
      "total_population": 21366,
      "latitude": 42.314900,
      "longitude": -90.224500
    },
    {
      "County": "Johnson",
      "confirmed_cases": 185,
      "confirmed_rate_per_10k": 148.523,
      "confirmed_rate_per_100k": 1485.23,
      "deaths": 0,
      "deaths_rate_per_10k": 0,
      "deaths_rate_per_100k": 0,
      "total_tested": 2920,
      "test_rate_per_10k": 2344.25,
      "test_rate_per_100k": 23442.5,
      "total_population": 12456,
      "latitude": 37.420400,
      "longitude": -88.903100
    },
    {
      "County": "Kane",
      "confirmed_cases": 13523,
      "confirmed_rate_per_10k": 253.137,
      "confirmed_rate_per_100k": 2531.37,
      "deaths": 328,
      "deaths_rate_per_10k": 6.13984,
      "deaths_rate_per_100k": 61.3984,
      "total_tested": 185082,
      "test_rate_per_10k": 3464.55,
      "test_rate_per_100k": 34645.5,
      "total_population": 534216,
      "latitude": 41.987900,
      "longitude": -88.401600
    },
    {
      "County": "Kankakee",
      "confirmed_cases": 2846,
      "confirmed_rate_per_10k": 258.671,
      "confirmed_rate_per_100k": 2586.71,
      "deaths": 78,
      "deaths_rate_per_10k": 7.08936,
      "deaths_rate_per_100k": 70.8936,
      "total_tested": 54187,
      "test_rate_per_10k": 4925.02,
      "test_rate_per_100k": 49250.2,
      "total_population": 110024,
      "latitude": 41.179100,
      "longitude": -87.776300
    },
    {
      "County": "Kendall",
      "confirmed_cases": 2107,
      "confirmed_rate_per_10k": 164.719,
      "confirmed_rate_per_100k": 1647.19,
      "deaths": 26,
      "deaths_rate_per_10k": 2.0326,
      "deaths_rate_per_100k": 20.326,
      "total_tested": 36101,
      "test_rate_per_10k": 2822.26,
      "test_rate_per_100k": 28222.6,
      "total_population": 127915,
      "latitude": 41.550700,
      "longitude": -88.440400
    },
    {
      "County": "Knox",
      "confirmed_cases": 761,
      "confirmed_rate_per_10k": 151.86,
      "confirmed_rate_per_100k": 1518.6,
      "deaths": 3,
      "deaths_rate_per_10k": 0.598659,
      "deaths_rate_per_100k": 5.98659,
      "total_tested": 18651,
      "test_rate_per_10k": 3721.86,
      "test_rate_per_100k": 37218.6,
      "total_population": 50112,
      "latitude": 40.877600,
      "longitude": -90.224500
    },
    {
      "County": "Lake",
      "confirmed_cases": 17520,
      "confirmed_rate_per_10k": 249.989,
      "confirmed_rate_per_100k": 2499.89,
      "deaths": 493,
      "deaths_rate_per_10k": 7.0345,
      "deaths_rate_per_100k": 70.345,
      "total_tested": 262951,
      "test_rate_per_10k": 3751.98,
      "test_rate_per_100k": 37519.8,
      "total_population": 700832,
      "latitude": 42.368900,
      "longitude": -87.827200
    },
    {
      "County": "LaSalle",
      "confirmed_cases": 1831,
      "confirmed_rate_per_10k": 167.322,
      "confirmed_rate_per_100k": 1673.22,
      "deaths": 57,
      "deaths_rate_per_10k": 5.20881,
      "deaths_rate_per_100k": 52.0881,
      "total_tested": 32121,
      "test_rate_per_10k": 2935.3,
      "test_rate_per_100k": 29353,
      "total_population": 109430,
      "latitude": 41.436400,
      "longitude": -88.941400
    },
    {
      "County": "Lawrence",
      "confirmed_cases": 270,
      "confirmed_rate_per_10k": 171.265,
      "confirmed_rate_per_100k": 1712.65,
      "deaths": 6,
      "deaths_rate_per_10k": 3.8059,
      "deaths_rate_per_100k": 38.059,
      "total_tested": 5349,
      "test_rate_per_10k": 3392.96,
      "test_rate_per_100k": 33929.6,
      "total_population": 15765,
      "latitude": 38.715800,
      "longitude": -87.776300
    },
    {
      "County": "Lee",
      "confirmed_cases": 433,
      "confirmed_rate_per_10k": 126.523,
      "confirmed_rate_per_100k": 1265.23,
      "deaths": 1,
      "deaths_rate_per_10k": 0.292201,
      "deaths_rate_per_100k": 2.92201,
      "total_tested": 8168,
      "test_rate_per_10k": 2386.7,
      "test_rate_per_100k": 23867,
      "total_population": 34223,
      "latitude": 41.679000,
      "longitude": -89.322700
    },
    {
      "County": "Livingston",
      "confirmed_cases": 433,
      "confirmed_rate_per_10k": 121.082,
      "confirmed_rate_per_100k": 1210.82,
      "deaths": 8,
      "deaths_rate_per_10k": 2.23707,
      "deaths_rate_per_100k": 22.3707,
      "total_tested": 12732,
      "test_rate_per_10k": 3560.3,
      "test_rate_per_100k": 35603,
      "total_population": 35761,
      "latitude": 40.868900,
      "longitude": -88.556500
    },
    {
      "County": "Logan",
      "confirmed_cases": 482,
      "confirmed_rate_per_10k": 166.638,
      "confirmed_rate_per_100k": 1666.38,
      "deaths": 1,
      "deaths_rate_per_10k": 0.345722,
      "deaths_rate_per_100k": 3.45722,
      "total_tested": 15307,
      "test_rate_per_10k": 5291.96,
      "test_rate_per_100k": 52919.6,
      "total_population": 28925,
      "latitude": 40.061300,
      "longitude": -89.322700
    },
    {
      "County": "Macon",
      "confirmed_cases": 1736,
      "confirmed_rate_per_10k": 165.788,
      "confirmed_rate_per_100k": 1657.88,
      "deaths": 47,
      "deaths_rate_per_10k": 4.4885,
      "deaths_rate_per_100k": 44.885,
      "total_tested": 40501,
      "test_rate_per_10k": 3867.85,
      "test_rate_per_100k": 38678.5,
      "total_population": 104712,
      "latitude": 39.894900,
      "longitude": -89.017900
    },
    {
      "County": "Macoupin",
      "confirmed_cases": 597,
      "confirmed_rate_per_10k": 131.75,
      "confirmed_rate_per_100k": 1317.5,
      "deaths": 8,
      "deaths_rate_per_10k": 1.7655,
      "deaths_rate_per_100k": 17.655,
      "total_tested": 19482,
      "test_rate_per_10k": 4299.43,
      "test_rate_per_100k": 42994.3,
      "total_population": 45313,
      "latitude": 39.237500,
      "longitude": -89.925300
    },
    {
      "County": "Madison",
      "confirmed_cases": 5992,
      "confirmed_rate_per_10k": 226.574,
      "confirmed_rate_per_100k": 2265.74,
      "deaths": 147,
      "deaths_rate_per_10k": 5.55848,
      "deaths_rate_per_100k": 55.5848,
      "total_tested": 80812,
      "test_rate_per_10k": 3055.72,
      "test_rate_per_100k": 30557.2,
      "total_population": 264461,
      "latitude": 38.904100,
      "longitude": -89.925300
    },
    {
      "County": "Marion",
      "confirmed_cases": 640,
      "confirmed_rate_per_10k": 170.122,
      "confirmed_rate_per_100k": 1701.22,
      "deaths": 2,
      "deaths_rate_per_10k": 0.531632,
      "deaths_rate_per_100k": 5.31632,
      "total_tested": 13956,
      "test_rate_per_10k": 3709.73,
      "test_rate_per_100k": 37097.3,
      "total_population": 37620,
      "latitude": 38.731300,
      "longitude": -88.864700
    },
    {
      "County": "Marshall",
      "confirmed_cases": 116,
      "confirmed_rate_per_10k": 100.572,
      "confirmed_rate_per_100k": 1005.72,
      "deaths": 0,
      "deaths_rate_per_10k": 0,
      "deaths_rate_per_100k": 0,
      "total_tested": 4460,
      "test_rate_per_10k": 3866.83,
      "test_rate_per_100k": 38668.3,
      "total_population": 11534,
      "latitude": 40.997300,
      "longitude": -89.360600
    },
    {
      "County": "Mason",
      "confirmed_cases": 175,
      "confirmed_rate_per_10k": 129.008,
      "confirmed_rate_per_100k": 1290.08,
      "deaths": 1,
      "deaths_rate_per_10k": 0.737191,
      "deaths_rate_per_100k": 7.37191,
      "total_tested": 4945,
      "test_rate_per_10k": 3645.41,
      "test_rate_per_100k": 36454.1,
      "total_population": 13565,
      "latitude": 40.227100,
      "longitude": -89.925300
    },
    {
      "County": "Massac",
      "confirmed_cases": 128,
      "confirmed_rate_per_10k": 90.9091,
      "confirmed_rate_per_100k": 909.091,
      "deaths": 2,
      "deaths_rate_per_10k": 1.42045,
      "deaths_rate_per_100k": 14.2045,
      "total_tested": 2909,
      "test_rate_per_10k": 2066.05,
      "test_rate_per_100k": 20660.5,
      "total_population": 14080,
      "latitude": 37.247800,
      "longitude": -88.749400
    },
    {
      "County": "McDonough",
      "confirmed_cases": 507,
      "confirmed_rate_per_10k": 169.254,
      "confirmed_rate_per_100k": 1692.54,
      "deaths": 15,
      "deaths_rate_per_10k": 5.00751,
      "deaths_rate_per_100k": 50.0751,
      "total_tested": 9067,
      "test_rate_per_10k": 3026.87,
      "test_rate_per_100k": 30268.7,
      "total_population": 29955,
      "latitude": 40.388500,
      "longitude": -90.677300
    },
    {
      "County": "McHenry",
      "confirmed_cases": 4776,
      "confirmed_rate_per_10k": 154.778,
      "confirmed_rate_per_100k": 1547.78,
      "deaths": 119,
      "deaths_rate_per_10k": 3.8565,
      "deaths_rate_per_100k": 38.565,
      "total_tested": 80517,
      "test_rate_per_10k": 2609.36,
      "test_rate_per_100k": 26093.6,
      "total_population": 308570,
      "latitude": 42.304000,
      "longitude": -88.401600
    },
    {
      "County": "McLean",
      "confirmed_cases": 3418,
      "confirmed_rate_per_10k": 197.769,
      "confirmed_rate_per_100k": 1977.69,
      "deaths": 23,
      "deaths_rate_per_10k": 1.3308,
      "deaths_rate_per_100k": 13.308,
      "total_tested": 79326,
      "test_rate_per_10k": 4589.88,
      "test_rate_per_100k": 45898.8,
      "total_population": 172828,
      "latitude": 40.547800,
      "longitude": -88.864700
    },
    {
      "County": "Menard",
      "confirmed_cases": 133,
      "confirmed_rate_per_10k": 108.236,
      "confirmed_rate_per_100k": 1082.36,
      "deaths": 1,
      "deaths_rate_per_10k": 0.813802,
      "deaths_rate_per_100k": 8.13802,
      "total_tested": 4908,
      "test_rate_per_10k": 3994.14,
      "test_rate_per_100k": 39941.4,
      "total_population": 12288,
      "latitude": 40.022100,
      "longitude": -89.813000
    },
    {
      "County": "Mercer",
      "confirmed_cases": 151,
      "confirmed_rate_per_10k": 96.7887,
      "confirmed_rate_per_100k": 967.887,
      "deaths": 6,
      "deaths_rate_per_10k": 3.84591,
      "deaths_rate_per_100k": 38.4591,
      "total_tested": 5031,
      "test_rate_per_10k": 3224.79,
      "test_rate_per_100k": 32247.9,
      "total_population": 15601,
      "latitude": 41.198500,
      "longitude": -90.677300
    },
    {
      "County": "Monroe",
      "confirmed_cases": 733,
      "confirmed_rate_per_10k": 213.485,
      "confirmed_rate_per_100k": 2134.85,
      "deaths": 21,
      "deaths_rate_per_10k": 6.11621,
      "deaths_rate_per_100k": 61.1621,
      "total_tested": 8643,
      "test_rate_per_10k": 2517.26,
      "test_rate_per_100k": 25172.6,
      "total_population": 34335,
      "latitude": 38.274300,
      "longitude": -90.187000
    },
    {
      "County": "Montgomery",
      "confirmed_cases": 405,
      "confirmed_rate_per_10k": 141.603,
      "confirmed_rate_per_100k": 1416.03,
      "deaths": 13,
      "deaths_rate_per_10k": 4.5453,
      "deaths_rate_per_100k": 45.453,
      "total_tested": 14065,
      "test_rate_per_10k": 4917.66,
      "test_rate_per_100k": 49176.6,
      "total_population": 28601,
      "latitude": 39.236400,
      "longitude": -89.474200
    },
    {
      "County": "Morgan",
      "confirmed_cases": 692,
      "confirmed_rate_per_10k": 203.673,
      "confirmed_rate_per_100k": 2036.73,
      "deaths": 24,
      "deaths_rate_per_10k": 7.06381,
      "deaths_rate_per_100k": 70.6381,
      "total_tested": 13862,
      "test_rate_per_10k": 4079.94,
      "test_rate_per_100k": 40799.4,
      "total_population": 33976,
      "latitude": 39.734100,
      "longitude": -90.224500
    },
    {
      "County": "Moultrie",
      "confirmed_cases": 237,
      "confirmed_rate_per_10k": 161.038,
      "confirmed_rate_per_100k": 1610.38,
      "deaths": 4,
      "deaths_rate_per_10k": 2.71795,
      "deaths_rate_per_100k": 27.1795,
      "total_tested": 5383,
      "test_rate_per_10k": 3657.67,
      "test_rate_per_100k": 36576.7,
      "total_population": 14717,
      "latitude": 39.602100,
      "longitude": -88.595200
    },
    {
      "County": "Ogle",
      "confirmed_cases": 801,
      "confirmed_rate_per_10k": 157.296,
      "confirmed_rate_per_100k": 1572.96,
      "deaths": 6,
      "deaths_rate_per_10k": 1.17825,
      "deaths_rate_per_100k": 11.7825,
      "total_tested": 15610,
      "test_rate_per_10k": 3065.41,
      "test_rate_per_100k": 30654.1,
      "total_population": 50923,
      "latitude": 41.997000,
      "longitude": -89.322700
    },
    {
      "County": "Peoria",
      "confirmed_cases": 3712,
      "confirmed_rate_per_10k": 205.513,
      "confirmed_rate_per_100k": 2055.13,
      "deaths": 55,
      "deaths_rate_per_10k": 3.04505,
      "deaths_rate_per_100k": 30.4505,
      "total_tested": 93078,
      "test_rate_per_10k": 5153.22,
      "test_rate_per_100k": 51532.2,
      "total_population": 180621,
      "latitude": 40.715600,
      "longitude": -89.775500
    },
    {
      "County": "Perry",
      "confirmed_cases": 362,
      "confirmed_rate_per_10k": 170.964,
      "confirmed_rate_per_100k": 1709.64,
      "deaths": 15,
      "deaths_rate_per_10k": 7.08416,
      "deaths_rate_per_100k": 70.8416,
      "total_tested": 6697,
      "test_rate_per_10k": 3162.84,
      "test_rate_per_100k": 31628.4,
      "total_population": 21174,
      "latitude": 38.061200,
      "longitude": -89.322700
    },
    {
      "County": "Piatt",
      "confirmed_cases": 157,
      "confirmed_rate_per_10k": 95.7551,
      "confirmed_rate_per_100k": 957.551,
      "deaths": 0,
      "deaths_rate_per_10k": 0,
      "deaths_rate_per_100k": 0,
      "total_tested": 8448,
      "test_rate_per_10k": 5152.48,
      "test_rate_per_100k": 51524.8,
      "total_population": 16396,
      "latitude": 40.054400,
      "longitude": -88.855650
    },
    {
      "County": "Pike",
      "confirmed_cases": 150,
      "confirmed_rate_per_10k": 96.0861,
      "confirmed_rate_per_100k": 960.861,
      "deaths": 1,
      "deaths_rate_per_10k": 0.640574,
      "deaths_rate_per_100k": 6.40574,
      "total_tested": 3815,
      "test_rate_per_10k": 2443.79,
      "test_rate_per_100k": 24437.9,
      "total_population": 15611,
      "latitude": 39.566200,
      "longitude": -90.829400
    },
    {
      "County": "Pope",
      "confirmed_cases": 30,
      "confirmed_rate_per_10k": 71.2251,
      "confirmed_rate_per_100k": 712.251,
      "deaths": 1,
      "deaths_rate_per_10k": 2.37417,
      "deaths_rate_per_100k": 23.7417,
      "total_tested": 637,
      "test_rate_per_10k": 1512.35,
      "test_rate_per_100k": 15123.5,
      "total_population": 4212,
      "latitude": 37.417100,
      "longitude": -88.595200
    },
    {
      "County": "Pulaski",
      "confirmed_cases": 194,
      "confirmed_rate_per_10k": 355.116,
      "confirmed_rate_per_100k": 3551.16,
      "deaths": 1,
      "deaths_rate_per_10k": 1.8305,
      "deaths_rate_per_100k": 18.305,
      "total_tested": 1614,
      "test_rate_per_10k": 2954.42,
      "test_rate_per_100k": 29544.2,
      "total_population": 5463,
      "latitude": 37.251200,
      "longitude": -89.132500
    },
    {
      "County": "Putnam",
      "confirmed_cases": 66,
      "confirmed_rate_per_10k": 114.983,
      "confirmed_rate_per_100k": 1149.83,
      "deaths": 0,
      "deaths_rate_per_10k": 0,
      "deaths_rate_per_100k": 0,
      "total_tested": 1267,
      "test_rate_per_10k": 2207.32,
      "test_rate_per_100k": 22073.2,
      "total_population": 5740,
      "latitude": 41.238500,
      "longitude": -89.284700
    },
    {
      "County": "Randolph",
      "confirmed_cases": 975,
      "confirmed_rate_per_10k": 303.682,
      "confirmed_rate_per_100k": 3036.82,
      "deaths": 12,
      "deaths_rate_per_10k": 3.73762,
      "deaths_rate_per_100k": 37.3762,
      "total_tested": 12527,
      "test_rate_per_10k": 3901.76,
      "test_rate_per_100k": 39017.6,
      "total_population": 32106,
      "latitude": 38.062900,
      "longitude": -89.775500
    },
    {
      "County": "Richland",
      "confirmed_cases": 260,
      "confirmed_rate_per_10k": 164.943,
      "confirmed_rate_per_100k": 1649.43,
      "deaths": 8,
      "deaths_rate_per_10k": 5.07518,
      "deaths_rate_per_100k": 50.7518,
      "total_tested": 6531,
      "test_rate_per_10k": 4143.25,
      "test_rate_per_100k": 41432.5,
      "total_population": 15763,
      "latitude": 38.721300,
      "longitude": -88.090100
    },
    {
      "County": "Rock Island",
      "confirmed_cases": 3185,
      "confirmed_rate_per_10k": 221.987,
      "confirmed_rate_per_100k": 2219.87,
      "deaths": 80,
      "deaths_rate_per_10k": 5.57581,
      "deaths_rate_per_100k": 55.7581,
      "total_tested": 62733,
      "test_rate_per_10k": 4372.34,
      "test_rate_per_100k": 43723.4,
      "total_population": 143477,
      "latitude": 41.509500,
      "longitude": -90.578700
    },
    {
      "County": "Saline",
      "confirmed_cases": 391,
      "confirmed_rate_per_10k": 163.557,
      "confirmed_rate_per_100k": 1635.57,
      "deaths": 4,
      "deaths_rate_per_10k": 1.67322,
      "deaths_rate_per_100k": 16.7322,
      "total_tested": 7011,
      "test_rate_per_10k": 2932.74,
      "test_rate_per_100k": 29327.4,
      "total_population": 23906,
      "latitude": 37.715000,
      "longitude": -88.556500
    },
    {
      "County": "Sangamon",
      "confirmed_cases": 2633,
      "confirmed_rate_per_10k": 134.785,
      "confirmed_rate_per_100k": 1347.85,
      "deaths": 46,
      "deaths_rate_per_10k": 2.35477,
      "deaths_rate_per_100k": 23.5477,
      "total_tested": 108336,
      "test_rate_per_10k": 5545.8,
      "test_rate_per_100k": 55458,
      "total_population": 195348,
      "latitude": 39.733700,
      "longitude": -89.625200
    },
    {
      "County": "Schuyler",
      "confirmed_cases": 58,
      "confirmed_rate_per_10k": 83.9728,
      "confirmed_rate_per_100k": 839.728,
      "deaths": 0,
      "deaths_rate_per_10k": 0,
      "deaths_rate_per_100k": 0,
      "total_tested": 1999,
      "test_rate_per_10k": 2894.17,
      "test_rate_per_100k": 28941.7,
      "total_population": 6907,
      "latitude": 40.184500,
      "longitude": -90.639400
    },
    {
      "County": "Scott",
      "confirmed_cases": 81,
      "confirmed_rate_per_10k": 164.434,
      "confirmed_rate_per_100k": 1644.34,
      "deaths": 0,
      "deaths_rate_per_10k": 0,
      "deaths_rate_per_100k": 0,
      "total_tested": 2288,
      "test_rate_per_10k": 4644.74,
      "test_rate_per_100k": 46447.4,
      "total_population": 4926,
      "latitude": 39.609500,
      "longitude": -90.488000
    },
    {
      "County": "Shelby",
      "confirmed_cases": 439,
      "confirmed_rate_per_10k": 201.923,
      "confirmed_rate_per_100k": 2019.23,
      "deaths": 4,
      "deaths_rate_per_10k": 1.83984,
      "deaths_rate_per_100k": 18.3984,
      "total_tested": 7356,
      "test_rate_per_10k": 3383.47,
      "test_rate_per_100k": 33834.7,
      "total_population": 21741,
      "latitude": 39.398100,
      "longitude": -88.864700
    },
    {
      "County": "St. Clair",
      "confirmed_cases": 6905,
      "confirmed_rate_per_10k": 264.5,
      "confirmed_rate_per_100k": 2645,
      "deaths": 196,
      "deaths_rate_per_10k": 7.50788,
      "deaths_rate_per_100k": 75.0788,
      "total_tested": 85908,
      "test_rate_per_10k": 3290.75,
      "test_rate_per_100k": 32907.5,
      "total_population": 261059,
      "latitude": 38.400800,
      "longitude": -89.925300
    },
    {
      "County": "Stark",
      "confirmed_cases": 56,
      "confirmed_rate_per_10k": 103.188,
      "confirmed_rate_per_100k": 1031.88,
      "deaths": 2,
      "deaths_rate_per_10k": 3.68528,
      "deaths_rate_per_100k": 36.8528,
      "total_tested": 2153,
      "test_rate_per_10k": 3967.2,
      "test_rate_per_100k": 39672,
      "total_population": 5427,
      "latitude": 41.079600,
      "longitude": -89.813000
    },
    {
      "County": "Stephenson",
      "confirmed_cases": 581,
      "confirmed_rate_per_10k": 129.824,
      "confirmed_rate_per_100k": 1298.24,
      "deaths": 7,
      "deaths_rate_per_10k": 1.56414,
      "deaths_rate_per_100k": 15.6414,
      "total_tested": 13118,
      "test_rate_per_10k": 2931.2,
      "test_rate_per_100k": 29312,
      "total_population": 44753,
      "latitude": 42.314500,
      "longitude": -89.625200
    },
    {
      "County": "Tazewell",
      "confirmed_cases": 1907,
      "confirmed_rate_per_10k": 144.112,
      "confirmed_rate_per_100k": 1441.12,
      "deaths": 33,
      "deaths_rate_per_10k": 2.4938,
      "deaths_rate_per_100k": 24.938,
      "total_tested": 62368,
      "test_rate_per_10k": 4713.14,
      "test_rate_per_100k": 47131.4,
      "total_population": 132328,
      "latitude": 40.552200,
      "longitude": -89.474200
    },
    {
      "County": "Union",
      "confirmed_cases": 548,
      "confirmed_rate_per_10k": 325.396,
      "confirmed_rate_per_100k": 3253.96,
      "deaths": 24,
      "deaths_rate_per_10k": 14.2509,
      "deaths_rate_per_100k": 142.509,
      "total_tested": 6688,
      "test_rate_per_10k": 3971.26,
      "test_rate_per_100k": 39712.6,
      "total_population": 16841,
      "latitude": 37.508700,
      "longitude": -89.284700
    },
    {
      "County": "Vermilion",
      "confirmed_cases": 978,
      "confirmed_rate_per_10k": 127.334,
      "confirmed_rate_per_100k": 1273.34,
      "deaths": 5,
      "deaths_rate_per_10k": 0.650991,
      "deaths_rate_per_100k": 6.50991,
      "total_tested": 28369,
      "test_rate_per_10k": 3693.59,
      "test_rate_per_100k": 36935.9,
      "total_population": 76806,
      "latitude": 40.122500,
      "longitude": -87.697600
    },
    {
      "County": "Wabash",
      "confirmed_cases": 165,
      "confirmed_rate_per_10k": 142.87,
      "confirmed_rate_per_100k": 1428.7,
      "deaths": 3,
      "deaths_rate_per_10k": 2.59763,
      "deaths_rate_per_100k": 25.9763,
      "total_tested": 2443,
      "test_rate_per_10k": 2115.33,
      "test_rate_per_100k": 21153.3,
      "total_population": 11549,
      "latitude": 38.422600,
      "longitude": -87.815700
    },
    {
      "County": "Warren",
      "confirmed_cases": 354,
      "confirmed_rate_per_10k": 207.844,
      "confirmed_rate_per_100k": 2078.44,
      "deaths": 3,
      "deaths_rate_per_10k": 1.76139,
      "deaths_rate_per_100k": 17.6139,
      "total_tested": 4220,
      "test_rate_per_10k": 2477.69,
      "test_rate_per_100k": 24776.9,
      "total_population": 17032,
      "latitude": 40.875900,
      "longitude": -90.677300
    },
    {
      "County": "Washington",
      "confirmed_cases": 231,
      "confirmed_rate_per_10k": 165.059,
      "confirmed_rate_per_100k": 1650.59,
      "deaths": 1,
      "deaths_rate_per_10k": 0.714541,
      "deaths_rate_per_100k": 7.14541,
      "total_tested": 3298,
      "test_rate_per_10k": 2356.56,
      "test_rate_per_100k": 23565.6,
      "total_population": 13995,
      "latitude": 38.398900,
      "longitude": -89.322700
    },
    {
      "County": "Wayne",
      "confirmed_cases": 317,
      "confirmed_rate_per_10k": 194.097,
      "confirmed_rate_per_100k": 1940.97,
      "deaths": 5,
      "deaths_rate_per_10k": 3.06147,
      "deaths_rate_per_100k": 30.6147,
      "total_tested": 4445,
      "test_rate_per_10k": 2721.65,
      "test_rate_per_100k": 27216.5,
      "total_population": 16332,
      "latitude": 38.390000,
      "longitude": -88.401600
    },
    {
      "County": "White",
      "confirmed_cases": 189,
      "confirmed_rate_per_10k": 138.31,
      "confirmed_rate_per_100k": 1383.1,
      "deaths": 1,
      "deaths_rate_per_10k": 0.731797,
      "deaths_rate_per_100k": 7.31797,
      "total_tested": 5345,
      "test_rate_per_10k": 3911.45,
      "test_rate_per_100k": 39114.5,
      "total_population": 13665,
      "latitude": 38.050100,
      "longitude": -88.246100
    },
    {
      "County": "Whiteside",
      "confirmed_cases": 869,
      "confirmed_rate_per_10k": 156.222,
      "confirmed_rate_per_100k": 1562.22,
      "deaths": 21,
      "deaths_rate_per_10k": 3.77521,
      "deaths_rate_per_100k": 37.7521,
      "total_tested": 15388,
      "test_rate_per_10k": 2766.33,
      "test_rate_per_100k": 27663.3,
      "total_population": 55626,
      "latitude": 41.760600,
      "longitude": -89.850500
    },
    {
      "County": "Will",
      "confirmed_cases": 14589,
      "confirmed_rate_per_10k": 210.729,
      "confirmed_rate_per_100k": 2107.29,
      "deaths": 388,
      "deaths_rate_per_10k": 5.60443,
      "deaths_rate_per_100k": 56.0443,
      "total_tested": 225868,
      "test_rate_per_10k": 3262.53,
      "test_rate_per_100k": 32625.3,
      "total_population": 692310,
      "latitude": 41.505500,
      "longitude": -88.090100
    },
    {
      "County": "Williamson",
      "confirmed_cases": 1464,
      "confirmed_rate_per_10k": 218.325,
      "confirmed_rate_per_100k": 2183.25,
      "deaths": 53,
      "deaths_rate_per_10k": 7.90384,
      "deaths_rate_per_100k": 79.0384,
      "total_tested": 27205,
      "test_rate_per_10k": 4057.06,
      "test_rate_per_100k": 40570.6,
      "total_population": 67056,
      "latitude": 37.718300,
      "longitude": -88.864700
    },
    {
      "County": "Winnebago",
      "confirmed_cases": 6779,
      "confirmed_rate_per_10k": 238.629,
      "confirmed_rate_per_100k": 2386.29,
      "deaths": 152,
      "deaths_rate_per_10k": 5.35059,
      "deaths_rate_per_100k": 53.5059,
      "total_tested": 101636,
      "test_rate_per_10k": 3577.71,
      "test_rate_per_100k": 35777.1,
      "total_population": 284081,
      "latitude": 42.312100,
      "longitude": -89.170600
    },
    {
      "County": "Woodford",
      "confirmed_cases": 458,
      "confirmed_rate_per_10k": 119.075,
      "confirmed_rate_per_100k": 1190.75,
      "deaths": 9,
      "deaths_rate_per_10k": 2.33991,
      "deaths_rate_per_100k": 23.3991,
      "total_tested": 13717,
      "test_rate_per_10k": 3566.28,
      "test_rate_per_100k": 35662.8,
      "total_population": 38463,
      "latitude": 40.712900,
      "longitude": -89.170600
    }
    
  ]
}
