{
	"lastUpdatedDate": {
		"year": 2021,
		"month": 2,
		"day": 24
	},
	"characteristics_by_county": [
		{
			"CountyName": "Illinois",
			"tested": 17804537,
			"confirmed_cases": 1179342,
			"deaths": 20374,
			"latitude": 39.839888,
			"longitude": -89.510168
		},
		{
			"CountyName": "Adams",
			"tested": 125099,
			"confirmed_cases": 7980,
			"deaths": 113,
			"latitude": 40.0578,
			"longitude": -91.1353
		},
		{
			"CountyName": "Alexander",
			"tested": 4883,
			"confirmed_cases": 444,
			"deaths": 8,
			"latitude": 37.167,
			"longitude": -89.3606
		},
		{
			"CountyName": "Bond",
			"tested": 24331,
			"confirmed_cases": 1897,
			"deaths": 24,
			"latitude": 38.903,
			"longitude": -89.4742
		},
		{
			"CountyName": "Boone",
			"tested": 50502,
			"confirmed_cases": 5908,
			"deaths": 71,
			"latitude": 42.3485,
			"longitude": -88.8263
		},
		{
			"CountyName": "Brown",
			"tested": 21431,
			"confirmed_cases": 659,
			"deaths": 6,
			"latitude": 39.938,
			"longitude": -90.7153
		},
		{
			"CountyName": "Bureau",
			"tested": 35762,
			"confirmed_cases": 3278,
			"deaths": 73,
			"latitude": 41.3599,
			"longitude": -89.4742
		},
		{
			"CountyName": "Calhoun",
			"tested": 5006,
			"confirmed_cases": 478,
			"deaths": 2,
			"latitude": 39.1733,
			"longitude": -90.6583
		},
		{
			"CountyName": "Carroll",
			"tested": 17378,
			"confirmed_cases": 1566,
			"deaths": 34,
			"latitude": 42.0386,
			"longitude": -89.9627
		},
		{
			"CountyName": "Cass",
			"tested": 17187,
			"confirmed_cases": 1877,
			"deaths": 22,
			"latitude": 39.9399,
			"longitude": -90.262
		},
		{
			"CountyName": "Champaign",
			"tested": 1719398,
			"confirmed_cases": 17960,
			"deaths": 123,
			"latitude": 40.2139,
			"longitude": -88.2461
		},
		{
			"CountyName": "Chicago",
			"tested": 3298370,
			"confirmed_cases": 243252,
			"deaths": 4850,
			"latitude": 41.789896,
			"longitude": -87.627734
		},
		{
			"CountyName": "Christian",
			"tested": 42813,
			"confirmed_cases": 3287,
			"deaths": 65,
			"latitude": 39.5672,
			"longitude": -89.3227
		},
		{
			"CountyName": "Clark",
			"tested": 13820,
			"confirmed_cases": 1675,
			"deaths": 29,
			"latitude": 39.3824,
			"longitude": -87.7763
		},
		{
			"CountyName": "Clay",
			"tested": 13558,
			"confirmed_cases": 1425,
			"deaths": 41,
			"latitude": 38.7279,
			"longitude": -88.5565
		},
		{
			"CountyName": "Clinton",
			"tested": 53270,
			"confirmed_cases": 5556,
			"deaths": 89,
			"latitude": 38.5684,
			"longitude": -89.6252
		},
		{
			"CountyName": "Coles",
			"tested": 64675,
			"confirmed_cases": 5162,
			"deaths": 90,
			"latitude": 39.556,
			"longitude": -88.2461
		},
		{
			"CountyName": "Cook",
			"tested": 3012476,
			"confirmed_cases": 228433,
			"deaths": 4457,
			"latitude": 42.050784,
			"longitude": -87.963759
		},
		{
			"CountyName": "Crawford",
			"tested": 28769,
			"confirmed_cases": 2000,
			"deaths": 21,
			"latitude": 39.05,
			"longitude": -87.7763
		},
		{
			"CountyName": "Cumberland",
			"tested": 10257,
			"confirmed_cases": 1183,
			"deaths": 18,
			"latitude": 39.2654,
			"longitude": -88.2072
		},
		{
			"CountyName": "De Witt",
			"tested": 17618,
			"confirmed_cases": 1275,
			"deaths": 22,
			"latitude": 40.181,
			"longitude": -88.9031
		},
		{
			"CountyName": "DeKalb",
			"tested": 107838,
			"confirmed_cases": 8209,
			"deaths": 111,
			"latitude": 41.833,
			"longitude": -88.7109
		},
		{
			"CountyName": "Douglas",
			"tested": 27135,
			"confirmed_cases": 2418,
			"deaths": 32,
			"latitude": 39.7618,
			"longitude": -88.2072
		},
		{
			"CountyName": "DuPage",
			"tested": 1027516,
			"confirmed_cases": 76287,
			"deaths": 1189,
			"latitude": 41.8244,
			"longitude": -88.0901
		},
		{
			"CountyName": "Edgar",
			"tested": 12729,
			"confirmed_cases": 1540,
			"deaths": 37,
			"latitude": 39.7131,
			"longitude": -87.7763
		},
		{
			"CountyName": "Edwards",
			"tested": 3617,
			"confirmed_cases": 522,
			"deaths": 10,
			"latitude": 38.4268,
			"longitude": -88.051
		},
		{
			"CountyName": "Effingham",
			"tested": 37150,
			"confirmed_cases": 4482,
			"deaths": 69,
			"latitude": 39.0622,
			"longitude": -88.5565
		},
		{
			"CountyName": "Fayette",
			"tested": 25173,
			"confirmed_cases": 3063,
			"deaths": 52,
			"latitude": 39.067,
			"longitude": -89.0179
		},
		{
			"CountyName": "Ford",
			"tested": 24112,
			"confirmed_cases": 1566,
			"deaths": 45,
			"latitude": 40.4989,
			"longitude": -88.2072
		},
		{
			"CountyName": "Franklin",
			"tested": 42255,
			"confirmed_cases": 4134,
			"deaths": 65,
			"latitude": 38.0157,
			"longitude": -88.9031
		},
		{
			"CountyName": "Fulton",
			"tested": 63504,
			"confirmed_cases": 2833,
			"deaths": 44,
			"latitude": 40.5532,
			"longitude": -90.2245
		},
		{
			"CountyName": "Gallatin",
			"tested": 3530,
			"confirmed_cases": 436,
			"deaths": 4,
			"latitude": 37.7108,
			"longitude": -88.2461
		},
		{
			"CountyName": "Greene",
			"tested": 12306,
			"confirmed_cases": 1376,
			"deaths": 31,
			"latitude": 39.403,
			"longitude": -90.3748
		},
		{
			"CountyName": "Grundy",
			"tested": 44682,
			"confirmed_cases": 5071,
			"deaths": 62,
			"latitude": 41.3501,
			"longitude": -88.4016
		},
		{
			"CountyName": "Hamilton",
			"tested": 6207,
			"confirmed_cases": 783,
			"deaths": 15,
			"latitude": 38.0543,
			"longitude": -88.5565
		},
		{
			"CountyName": "Hancock",
			"tested": 16142,
			"confirmed_cases": 1667,
			"deaths": 29,
			"latitude": 40.3849,
			"longitude": -91.1353
		},
		{
			"CountyName": "Hardin",
			"tested": 4559,
			"confirmed_cases": 344,
			"deaths": 12,
			"latitude": 37.4995,
			"longitude": -88.3628
		},
		{
			"CountyName": "Henderson",
			"tested": 6114,
			"confirmed_cases": 497,
			"deaths": 14,
			"latitude": 40.8336,
			"longitude": -90.9438
		},
		{
			"CountyName": "Henry",
			"tested": 56600,
			"confirmed_cases": 4310,
			"deaths": 56,
			"latitude": 41.3611,
			"longitude": -90.0747
		},
		{
			"CountyName": "Iroquois",
			"tested": 39722,
			"confirmed_cases": 2764,
			"deaths": 60,
			"latitude": 40.774,
			"longitude": -87.6976
		},
		{
			"CountyName": "Jackson",
			"tested": 63813,
			"confirmed_cases": 4592,
			"deaths": 60,
			"latitude": 37.7218,
			"longitude": -89.3227
		},
		{
			"CountyName": "Jasper",
			"tested": 10128,
			"confirmed_cases": 1105,
			"deaths": 17,
			"latitude": 39.0555,
			"longitude": -88.0901
		},
		{
			"CountyName": "Jefferson",
			"tested": 42015,
			"confirmed_cases": 3965,
			"deaths": 115,
			"latitude": 38.2267,
			"longitude": -88.8647
		},
		{
			"CountyName": "Jersey",
			"tested": 26572,
			"confirmed_cases": 2483,
			"deaths": 45,
			"latitude": 39.0705,
			"longitude": -90.3748
		},
		{
			"CountyName": "Jo Daviess",
			"tested": 18270,
			"confirmed_cases": 1602,
			"deaths": 22,
			"latitude": 42.3149,
			"longitude": -90.2245
		},
		{
			"CountyName": "Johnson",
			"tested": 30950,
			"confirmed_cases": 1345,
			"deaths": 12,
			"latitude": 37.4204,
			"longitude": -88.9031
		},
		{
			"CountyName": "Kane",
			"tested": 533570,
			"confirmed_cases": 50335,
			"deaths": 709,
			"latitude": 41.9879,
			"longitude": -88.4016
		},
		{
			"CountyName": "Kankakee",
			"tested": 182971,
			"confirmed_cases": 12408,
			"deaths": 188,
			"latitude": 41.1791,
			"longitude": -87.7763
		},
		{
			"CountyName": "Kendall",
			"tested": 108126,
			"confirmed_cases": 10948,
			"deaths": 84,
			"latitude": 41.5507,
			"longitude": -88.4404
		},
		{
			"CountyName": "Knox",
			"tested": 76802,
			"confirmed_cases": 5011,
			"deaths": 131,
			"latitude": 40.8776,
			"longitude": -90.2245
		},
		{
			"CountyName": "Lake",
			"tested": 779453,
			"confirmed_cases": 58996,
			"deaths": 917,
			"latitude": 42.3689,
			"longitude": -87.8272
		},
		{
			"CountyName": "LaSalle",
			"tested": 139235,
			"confirmed_cases": 10706,
			"deaths": 218,
			"latitude": 41.4364,
			"longitude": -88.9414
		},
		{
			"CountyName": "Lawrence",
			"tested": 32297,
			"confirmed_cases": 2286,
			"deaths": 24,
			"latitude": 38.7158,
			"longitude": -87.7763
		},
		{
			"CountyName": "Lee",
			"tested": 58133,
			"confirmed_cases": 3328,
			"deaths": 43,
			"latitude": 41.679,
			"longitude": -89.3227
		},
		{
			"CountyName": "Livingston",
			"tested": 76549,
			"confirmed_cases": 4151,
			"deaths": 75,
			"latitude": 40.8689,
			"longitude": -88.5565
		},
		{
			"CountyName": "Logan",
			"tested": 65010,
			"confirmed_cases": 3303,
			"deaths": 52,
			"latitude": 40.0613,
			"longitude": -89.3227
		},
		{
			"CountyName": "Macon",
			"tested": 139159,
			"confirmed_cases": 9395,
			"deaths": 185,
			"latitude": 39.8949,
			"longitude": -89.0179
		},
		{
			"CountyName": "Macoupin",
			"tested": 59853,
			"confirmed_cases": 4329,
			"deaths": 79,
			"latitude": 39.2375,
			"longitude": -89.9253
		},
		{
			"CountyName": "Madison",
			"tested": 257642,
			"confirmed_cases": 27777,
			"deaths": 451,
			"latitude": 38.9041,
			"longitude": -89.9253
		},
		{
			"CountyName": "Marion",
			"tested": 63960,
			"confirmed_cases": 4253,
			"deaths": 111,
			"latitude": 38.7313,
			"longitude": -88.8647
		},
		{
			"CountyName": "Marshall",
			"tested": 15849,
			"confirmed_cases": 832,
			"deaths": 14,
			"latitude": 40.9973,
			"longitude": -89.3606
		},
		{
			"CountyName": "Mason",
			"tested": 18306,
			"confirmed_cases": 1273,
			"deaths": 41,
			"latitude": 40.2271,
			"longitude": -89.9253
		},
		{
			"CountyName": "Massac",
			"tested": 9958,
			"confirmed_cases": 1253,
			"deaths": 32,
			"latitude": 37.2478,
			"longitude": -88.7494
		},
		{
			"CountyName": "McDonough",
			"tested": 38661,
			"confirmed_cases": 2310,
			"deaths": 40,
			"latitude": 40.3885,
			"longitude": -90.6773
		},
		{
			"CountyName": "McHenry",
			"tested": 263640,
			"confirmed_cases": 24128,
			"deaths": 263,
			"latitude": 42.304,
			"longitude": -88.4016
		},
		{
			"CountyName": "McLean",
			"tested": 249525,
			"confirmed_cases": 14500,
			"deaths": 156,
			"latitude": 40.5478,
			"longitude": -88.8647
		},
		{
			"CountyName": "Menard",
			"tested": 15703,
			"confirmed_cases": 1031,
			"deaths": 8,
			"latitude": 40.0221,
			"longitude": -89.813
		},
		{
			"CountyName": "Mercer",
			"tested": 14731,
			"confirmed_cases": 1275,
			"deaths": 32,
			"latitude": 41.1985,
			"longitude": -90.6773
		},
		{
			"CountyName": "Monroe",
			"tested": 35836,
			"confirmed_cases": 4038,
			"deaths": 81,
			"latitude": 38.2743,
			"longitude": -90.187
		},
		{
			"CountyName": "Montgomery",
			"tested": 55978,
			"confirmed_cases": 3467,
			"deaths": 67,
			"latitude": 39.2364,
			"longitude": -89.4742
		},
		{
			"CountyName": "Morgan",
			"tested": 47629,
			"confirmed_cases": 3573,
			"deaths": 76,
			"latitude": 39.7341,
			"longitude": -90.2245
		},
		{
			"CountyName": "Moultrie",
			"tested": 19919,
			"confirmed_cases": 1486,
			"deaths": 22,
			"latitude": 39.6021,
			"longitude": -88.5952
		},
		{
			"CountyName": "Ogle",
			"tested": 49739,
			"confirmed_cases": 4980,
			"deaths": 73,
			"latitude": 41.997,
			"longitude": -89.3227
		},
		{
			"CountyName": "Out Of State",
			"tested": 112367,
			"confirmed_cases": 7,
			"deaths": 0,
			"latitude": 0.0,
			"longitude": 0.0
		},
		{
			"CountyName": "Peoria",
			"tested": 250051,
			"confirmed_cases": 16812,
			"deaths": 260,
			"latitude": 40.7156,
			"longitude": -89.7755
		},
		{
			"CountyName": "Perry",
			"tested": 34780,
			"confirmed_cases": 3027,
			"deaths": 57,
			"latitude": 38.0612,
			"longitude": -89.3227
		},
		{
			"CountyName": "Piatt",
			"tested": 25744,
			"confirmed_cases": 1312,
			"deaths": 14,
			"latitude": 40.02861312,
			"longitude": -88.57328
		},
		{
			"CountyName": "Pike",
			"tested": 15396,
			"confirmed_cases": 1683,
			"deaths": 49,
			"latitude": 39.5662,
			"longitude": -90.8294
		},
		{
			"CountyName": "Pope",
			"tested": 2499,
			"confirmed_cases": 280,
			"deaths": 3,
			"latitude": 37.4171,
			"longitude": -88.5952
		},
		{
			"CountyName": "Pulaski",
			"tested": 5289,
			"confirmed_cases": 670,
			"deaths": 5,
			"latitude": 37.2512,
			"longitude": -89.1325
		},
		{
			"CountyName": "Putnam",
			"tested": 5012,
			"confirmed_cases": 410,
			"deaths": 3,
			"latitude": 41.2385,
			"longitude": -89.2847
		},
		{
			"CountyName": "Randolph",
			"tested": 44924,
			"confirmed_cases": 3956,
			"deaths": 77,
			"latitude": 38.0629,
			"longitude": -89.7755
		},
		{
			"CountyName": "Richland",
			"tested": 20988,
			"confirmed_cases": 1633,
			"deaths": 38,
			"latitude": 38.7213,
			"longitude": -88.0901
		},
		{
			"CountyName": "Rock Island",
			"tested": 159028,
			"confirmed_cases": 13011,
			"deaths": 285,
			"latitude": 41.5095,
			"longitude": -90.5787
		},
		{
			"CountyName": "Saline",
			"tested": 27883,
			"confirmed_cases": 2281,
			"deaths": 47,
			"latitude": 37.715,
			"longitude": -88.5565
		},
		{
			"CountyName": "Sangamon",
			"tested": 298769,
			"confirmed_cases": 16050,
			"deaths": 216,
			"latitude": 39.7337,
			"longitude": -89.6252
		},
		{
			"CountyName": "Schuyler",
			"tested": 10123,
			"confirmed_cases": 676,
			"deaths": 5,
			"latitude": 40.1845,
			"longitude": -90.6394
		},
		{
			"CountyName": "Scott",
			"tested": 7227,
			"confirmed_cases": 448,
			"deaths": 1,
			"latitude": 39.6095,
			"longitude": -90.488
		},
		{
			"CountyName": "Shelby",
			"tested": 21388,
			"confirmed_cases": 2122,
			"deaths": 34,
			"latitude": 39.3981,
			"longitude": -88.8647
		},
		{
			"CountyName": "St. Clair",
			"tested": 299146,
			"confirmed_cases": 25223,
			"deaths": 463,
			"latitude": 38.4008,
			"longitude": -89.9253
		},
		{
			"CountyName": "Stark",
			"tested": 7442,
			"confirmed_cases": 535,
			"deaths": 22,
			"latitude": 41.0796,
			"longitude": -89.813
		},
		{
			"CountyName": "Stephenson",
			"tested": 46326,
			"confirmed_cases": 4071,
			"deaths": 75,
			"latitude": 42.3145,
			"longitude": -89.6252
		},
		{
			"CountyName": "Tazewell",
			"tested": 176337,
			"confirmed_cases": 13425,
			"deaths": 239,
			"latitude": 40.5522,
			"longitude": -89.4742
		},
		{
			"CountyName": "Unassigned",
			"tested": 102648,
			"confirmed_cases": 92,
			"deaths": 0,
			"latitude": -89.510168,
			"longitude": 39.839888
		},
		{
			"CountyName": "Union",
			"tested": 28813,
			"confirmed_cases": 2184,
			"deaths": 36,
			"latitude": 37.5087,
			"longitude": -89.2847
		},
		{
			"CountyName": "Vermilion",
			"tested": 107156,
			"confirmed_cases": 8503,
			"deaths": 114,
			"latitude": 40.1225,
			"longitude": -87.6976
		},
		{
			"CountyName": "Wabash",
			"tested": 11884,
			"confirmed_cases": 1297,
			"deaths": 12,
			"latitude": 38.4226,
			"longitude": -87.8157
		},
		{
			"CountyName": "Warren",
			"tested": 14858,
			"confirmed_cases": 1663,
			"deaths": 43,
			"latitude": 40.8759,
			"longitude": -90.6773
		},
		{
			"CountyName": "Washington",
			"tested": 11032,
			"confirmed_cases": 1574,
			"deaths": 23,
			"latitude": 38.3989,
			"longitude": -89.3227
		},
		{
			"CountyName": "Wayne",
			"tested": 13964,
			"confirmed_cases": 1663,
			"deaths": 48,
			"latitude": 38.39,
			"longitude": -88.4016
		},
		{
			"CountyName": "White",
			"tested": 20002,
			"confirmed_cases": 1599,
			"deaths": 25,
			"latitude": 38.0501,
			"longitude": -88.2461
		},
		{
			"CountyName": "Whiteside",
			"tested": 55990,
			"confirmed_cases": 5897,
			"deaths": 146,
			"latitude": 41.7606,
			"longitude": -89.8505
		},
		{
			"CountyName": "Will",
			"tested": 708335,
			"confirmed_cases": 64552,
			"deaths": 883,
			"latitude": 41.5055,
			"longitude": -88.0901
		},
		{
			"CountyName": "Williamson",
			"tested": 84089,
			"confirmed_cases": 6768,
			"deaths": 119,
			"latitude": 37.7183,
			"longitude": -88.8647
		},
		{
			"CountyName": "Winnebago",
			"tested": 320126,
			"confirmed_cases": 28221,
			"deaths": 434,
			"latitude": 42.3121,
			"longitude": -89.1706
		},
		{
			"CountyName": "Woodford",
			"tested": 54565,
			"confirmed_cases": 3636,
			"deaths": 60,
			"latitude": 40.7129,
			"longitude": -89.1706
		}
	]
}