{
  "LastUpdateDate": {
    "year": 2020,
    "month": 9,
    "day": 30
  },
  "county_rates": [
    {
      "County": "Adams",
      "confirmed_cases": 1199,
      "confirmed_rate_per_10k": 182.521,
      "confirmed_rate_per_100k": 1825.21,
      "deaths": 10,
      "deaths_rate_per_10k": 1.52228,
      "deaths_rate_per_100k": 15.2228,
      "total_tested": 32199,
      "test_rate_per_10k": 4901.58,
      "test_rate_per_100k": 49015.8,
      "total_population": 65691,
      "latitude": 40.057800,
      "longitude": -91.135300
    },
    {
      "County": "Alexander",
      "confirmed_cases": 85,
      "confirmed_rate_per_10k": 140.264,
      "confirmed_rate_per_100k": 1402.64,
      "deaths": 1,
      "deaths_rate_per_10k": 1.65017,
      "deaths_rate_per_100k": 16.5017,
      "total_tested": 2065,
      "test_rate_per_10k": 3407.59,
      "test_rate_per_100k": 34075.9,
      "total_population": 6060,
      "latitude": 37.167000,
      "longitude": -89.360600
    },
    {
      "County": "Bond",
      "confirmed_cases": 342,
      "confirmed_rate_per_10k": 205.652,
      "confirmed_rate_per_100k": 2056.52,
      "deaths": 6,
      "deaths_rate_per_10k": 3.60794,
      "deaths_rate_per_100k": 36.0794,
      "total_tested": 6297,
      "test_rate_per_10k": 3786.53,
      "test_rate_per_100k": 37865.3,
      "total_population": 16630,
      "latitude": 38.903000,
      "longitude": -89.474200
    },
    {
      "County": "Boone",
      "confirmed_cases": 1153,
      "confirmed_rate_per_10k": 215.204,
      "confirmed_rate_per_100k": 2152.04,
      "deaths": 23,
      "deaths_rate_per_10k": 4.29289,
      "deaths_rate_per_100k": 42.9289,
      "total_tested": 15538,
      "test_rate_per_10k": 2900.13,
      "test_rate_per_100k": 29001.3,
      "total_population": 53577,
      "latitude": 42.348500,
      "longitude": -88.826300
    },
    {
      "County": "Brown",
      "confirmed_cases": 69,
      "confirmed_rate_per_10k": 105.247,
      "confirmed_rate_per_100k": 1052.47,
      "deaths": 0,
      "deaths_rate_per_10k": 0,
      "deaths_rate_per_100k": 0,
      "total_tested": 1634,
      "test_rate_per_10k": 2492.37,
      "test_rate_per_100k": 24923.7,
      "total_population": 6556,
      "latitude": 39.938000,
      "longitude": -90.715300
    },
    {
      "County": "Bureau",
      "confirmed_cases": 671,
      "confirmed_rate_per_10k": 203.376,
      "confirmed_rate_per_100k": 2033.76,
      "deaths": 12,
      "deaths_rate_per_10k": 3.63714,
      "deaths_rate_per_100k": 36.3714,
      "total_tested": 9541,
      "test_rate_per_10k": 2891.83,
      "test_rate_per_100k": 28918.3,
      "total_population": 32993,
      "latitude": 41.359900,
      "longitude": -89.474200
    },
    {
      "County": "Calhoun",
      "confirmed_cases": 62,
      "confirmed_rate_per_10k": 129.113,
      "confirmed_rate_per_100k": 1291.13,
      "deaths": 0,
      "deaths_rate_per_10k": 0,
      "deaths_rate_per_100k": 0,
      "total_tested": 1089,
      "test_rate_per_10k": 2267.81,
      "test_rate_per_100k": 22678.1,
      "total_population": 4802,
      "latitude": 39.173300,
      "longitude": -90.658300
    },
    {
      "County": "Carroll",
      "confirmed_cases": 238,
      "confirmed_rate_per_10k": 166.294,
      "confirmed_rate_per_100k": 1662.94,
      "deaths": 6,
      "deaths_rate_per_10k": 4.19229,
      "deaths_rate_per_100k": 41.9229,
      "total_tested": 4125,
      "test_rate_per_10k": 2882.2,
      "test_rate_per_100k": 28822,
      "total_population": 14312,
      "latitude": 42.038600,
      "longitude": -89.962700
    },
    {
      "County": "Cass",
      "confirmed_cases": 404,
      "confirmed_rate_per_10k": 329.527,
      "confirmed_rate_per_100k": 3295.27,
      "deaths": 11,
      "deaths_rate_per_10k": 8.97227,
      "deaths_rate_per_100k": 89.7227,
      "total_tested": 4892,
      "test_rate_per_10k": 3990.21,
      "test_rate_per_100k": 39902.1,
      "total_population": 12260,
      "latitude": 39.939900,
      "longitude": -90.262000
    },
    {
      "County": "Champaign",
      "confirmed_cases": 4818,
      "confirmed_rate_per_10k": 229.447,
      "confirmed_rate_per_100k": 2294.47,
      "deaths": 21,
      "deaths_rate_per_10k": 1.00008,
      "deaths_rate_per_100k": 10.0008,
      "total_tested": 527034,
      "test_rate_per_10k": 25098.9,
      "test_rate_per_100k": 250989,
      "total_population": 209983,
      "latitude": 40.213900,
      "longitude": -88.246100
    },
    {
      "County": "Chicago",
      "confirmed_cases": 80265,
      "confirmed_rate_per_10k": 296.619,
      "confirmed_rate_per_100k": 2966.19,
      "deaths": 2960,
      "deaths_rate_per_10k": 10.9387,
      "deaths_rate_per_100k": 109.387,
      "total_tested": 1166049,
      "test_rate_per_10k": 4309.13,
      "test_rate_per_100k": 43091.3,
      "total_population": 2705994,
      "latitude": 41.789896,
      "longitude": -87.627734
    },
    {
      "County": "Christian",
      "confirmed_cases": 565,
      "confirmed_rate_per_10k": 172.989,
      "confirmed_rate_per_100k": 1729.89,
      "deaths": 11,
      "deaths_rate_per_10k": 3.36793,
      "deaths_rate_per_100k": 33.6793,
      "total_tested": 11690,
      "test_rate_per_10k": 3579.19,
      "test_rate_per_100k": 35791.9,
      "total_population": 32661,
      "latitude": 39.567200,
      "longitude": -89.322700
    },
    {
      "County": "Clark",
      "confirmed_cases": 183,
      "confirmed_rate_per_10k": 117.338,
      "confirmed_rate_per_100k": 1173.38,
      "deaths": 3,
      "deaths_rate_per_10k": 1.92357,
      "deaths_rate_per_100k": 19.2357,
      "total_tested": 4694,
      "test_rate_per_10k": 3009.75,
      "test_rate_per_100k": 30097.5,
      "total_population": 15596,
      "latitude": 39.382400,
      "longitude": -87.776300
    },
    {
      "County": "Clay",
      "confirmed_cases": 159,
      "confirmed_rate_per_10k": 119.973,
      "confirmed_rate_per_100k": 1199.73,
      "deaths": 0,
      "deaths_rate_per_10k": 0,
      "deaths_rate_per_100k": 0,
      "total_tested": 3487,
      "test_rate_per_10k": 2631.1,
      "test_rate_per_100k": 26311,
      "total_population": 13253,
      "latitude": 38.727900,
      "longitude": -88.556500
    },
    {
      "County": "Clinton",
      "confirmed_cases": 1222,
      "confirmed_rate_per_10k": 324.663,
      "confirmed_rate_per_100k": 3246.63,
      "deaths": 21,
      "deaths_rate_per_10k": 5.57932,
      "deaths_rate_per_100k": 55.7932,
      "total_tested": 13217,
      "test_rate_per_10k": 3511.52,
      "test_rate_per_100k": 35115.2,
      "total_population": 37639,
      "latitude": 38.568400,
      "longitude": -89.625200
    },
    {
      "County": "Coles",
      "confirmed_cases": 1508,
      "confirmed_rate_per_10k": 296.355,
      "confirmed_rate_per_100k": 2963.55,
      "deaths": 31,
      "deaths_rate_per_10k": 6.09217,
      "deaths_rate_per_100k": 60.9217,
      "total_tested": 24514,
      "test_rate_per_10k": 4817.53,
      "test_rate_per_100k": 48175.3,
      "total_population": 50885,
      "latitude": 39.556000,
      "longitude": -88.246100
    },
    {
      "County": "Cook",
      "confirmed_cases": 65197,
      "confirmed_rate_per_10k": 263.476,
      "confirmed_rate_per_100k": 2634.76,
      "deaths": 2265,
      "deaths_rate_per_10k": 9.15337,
      "deaths_rate_per_100k": 91.5337,
      "total_tested": 1000285,
      "test_rate_per_10k": 4042.37,
      "test_rate_per_100k": 40423.7,
      "total_population": 2474499,
      "latitude": 42.050784,
      "longitude": -87.963759
    },
    {
      "County": "Crawford",
      "confirmed_cases": 466,
      "confirmed_rate_per_10k": 247.78,
      "confirmed_rate_per_100k": 2477.8,
      "deaths": 4,
      "deaths_rate_per_10k": 2.12687,
      "deaths_rate_per_100k": 21.2687,
      "total_tested": 4494,
      "test_rate_per_10k": 2389.54,
      "test_rate_per_100k": 23895.4,
      "total_population": 18807,
      "latitude": 39.050000,
      "longitude": -87.776300
    },
    {
      "County": "Cumberland",
      "confirmed_cases": 219,
      "confirmed_rate_per_10k": 202.628,
      "confirmed_rate_per_100k": 2026.28,
      "deaths": 5,
      "deaths_rate_per_10k": 4.6262,
      "deaths_rate_per_100k": 46.262,
      "total_tested": 4030,
      "test_rate_per_10k": 3728.72,
      "test_rate_per_100k": 37287.2,
      "total_population": 10808,
      "latitude": 39.265400,
      "longitude": -88.207200
    },
    {
      "County": "De Witt",
      "confirmed_cases": 129,
      "confirmed_rate_per_10k": 81.8061,
      "confirmed_rate_per_100k": 818.061,
      "deaths": 2,
      "deaths_rate_per_10k": 1.26831,
      "deaths_rate_per_100k": 12.6831,
      "total_tested": 3850,
      "test_rate_per_10k": 2441.5,
      "test_rate_per_100k": 24415,
      "total_population": 15769,
      "latitude": 40.181000,
      "longitude": -88.903100
    },
    {
      "County": "DeKalb",
      "confirmed_cases": 1622,
      "confirmed_rate_per_10k": 155.747,
      "confirmed_rate_per_100k": 1557.47,
      "deaths": 39,
      "deaths_rate_per_10k": 3.74485,
      "deaths_rate_per_100k": 37.4485,
      "total_tested": 32160,
      "test_rate_per_10k": 3088.06,
      "test_rate_per_100k": 30880.6,
      "total_population": 104143,
      "latitude": 41.833000,
      "longitude": -88.710900
    },
    {
      "County": "Douglas",
      "confirmed_cases": 318,
      "confirmed_rate_per_10k": 163.253,
      "confirmed_rate_per_100k": 1632.53,
      "deaths": 7,
      "deaths_rate_per_10k": 3.59361,
      "deaths_rate_per_100k": 35.9361,
      "total_tested": 8350,
      "test_rate_per_10k": 4286.67,
      "test_rate_per_100k": 42866.7,
      "total_population": 19479,
      "latitude": 39.761800,
      "longitude": -88.207200
    },
    {
      "County": "DuPage",
      "confirmed_cases": 17786,
      "confirmed_rate_per_10k": 191.538,
      "confirmed_rate_per_100k": 1915.38,
      "deaths": 563,
      "deaths_rate_per_10k": 6.06296,
      "deaths_rate_per_100k": 60.6296,
      "total_tested": 332273,
      "test_rate_per_10k": 3578.26,
      "test_rate_per_100k": 35782.6,
      "total_population": 928589,
      "latitude": 41.824400,
      "longitude": -88.090100
    },
    {
      "County": "Edgar",
      "confirmed_cases": 116,
      "confirmed_rate_per_10k": 66.8203,
      "confirmed_rate_per_100k": 668.203,
      "deaths": 8,
      "deaths_rate_per_10k": 4.60829,
      "deaths_rate_per_100k": 46.0829,
      "total_tested": 3485,
      "test_rate_per_10k": 2007.49,
      "test_rate_per_100k": 20074.9,
      "total_population": 17360,
      "latitude": 39.713100,
      "longitude": -87.776300
    },
    {
      "County": "Edwards",
      "confirmed_cases": 68,
      "confirmed_rate_per_10k": 106.383,
      "confirmed_rate_per_100k": 1063.83,
      "deaths": 0,
      "deaths_rate_per_10k": 0,
      "deaths_rate_per_100k": 0,
      "total_tested": 899,
      "test_rate_per_10k": 1406.45,
      "test_rate_per_100k": 14064.5,
      "total_population": 6392,
      "latitude": 38.426800,
      "longitude": -88.051000
    },
    {
      "County": "Effingham",
      "confirmed_cases": 883,
      "confirmed_rate_per_10k": 258.127,
      "confirmed_rate_per_100k": 2581.27,
      "deaths": 3,
      "deaths_rate_per_10k": 0.876988,
      "deaths_rate_per_100k": 8.76988,
      "total_tested": 12101,
      "test_rate_per_10k": 3537.48,
      "test_rate_per_100k": 35374.8,
      "total_population": 34208,
      "latitude": 39.062200,
      "longitude": -88.556500
    },
    {
      "County": "Fayette",
      "confirmed_cases": 437,
      "confirmed_rate_per_10k": 204.053,
      "confirmed_rate_per_100k": 2040.53,
      "deaths": 6,
      "deaths_rate_per_10k": 2.80164,
      "deaths_rate_per_100k": 28.0164,
      "total_tested": 6386,
      "test_rate_per_10k": 2981.88,
      "test_rate_per_100k": 29818.8,
      "total_population": 21416,
      "latitude": 39.067000,
      "longitude": -89.017900
    },
    {
      "County": "Ford",
      "confirmed_cases": 108,
      "confirmed_rate_per_10k": 81.4234,
      "confirmed_rate_per_100k": 814.234,
      "deaths": 5,
      "deaths_rate_per_10k": 3.7696,
      "deaths_rate_per_100k": 37.696,
      "total_tested": 5094,
      "test_rate_per_10k": 3840.47,
      "test_rate_per_100k": 38404.7,
      "total_population": 13264,
      "latitude": 40.498900,
      "longitude": -88.207200
    },
    {
      "County": "Franklin",
      "confirmed_cases": 552,
      "confirmed_rate_per_10k": 142.632,
      "confirmed_rate_per_100k": 1426.32,
      "deaths": 3,
      "deaths_rate_per_10k": 0.775174,
      "deaths_rate_per_100k": 7.75174,
      "total_tested": 11888,
      "test_rate_per_10k": 3071.76,
      "test_rate_per_100k": 30717.6,
      "total_population": 38701,
      "latitude": 38.015700,
      "longitude": -88.903100
    },
    {
      "County": "Fulton",
      "confirmed_cases": 190,
      "confirmed_rate_per_10k": 54.5288,
      "confirmed_rate_per_100k": 545.288,
      "deaths": 0,
      "deaths_rate_per_10k": 0,
      "deaths_rate_per_100k": 0,
      "total_tested": 10530,
      "test_rate_per_10k": 3022.04,
      "test_rate_per_100k": 30220.4,
      "total_population": 34844,
      "latitude": 40.553200,
      "longitude": -90.224500
    },
    {
      "County": "Gallatin",
      "confirmed_cases": 75,
      "confirmed_rate_per_10k": 148.28,
      "confirmed_rate_per_100k": 1482.8,
      "deaths": 2,
      "deaths_rate_per_10k": 3.95413,
      "deaths_rate_per_100k": 39.5413,
      "total_tested": 831,
      "test_rate_per_10k": 1642.94,
      "test_rate_per_100k": 16429.4,
      "total_population": 5058,
      "latitude": 37.710800,
      "longitude": -88.246100
    },
    {
      "County": "Greene",
      "confirmed_cases": 235,
      "confirmed_rate_per_10k": 180.159,
      "confirmed_rate_per_100k": 1801.59,
      "deaths": 13,
      "deaths_rate_per_10k": 9.96627,
      "deaths_rate_per_100k": 99.6627,
      "total_tested": 3935,
      "test_rate_per_10k": 3016.71,
      "test_rate_per_100k": 30167.1,
      "total_population": 13044,
      "latitude": 39.403000,
      "longitude": -90.374800
    },
    {
      "County": "Grundy",
      "confirmed_cases": 687,
      "confirmed_rate_per_10k": 134.78,
      "confirmed_rate_per_100k": 1347.8,
      "deaths": 6,
      "deaths_rate_per_10k": 1.17712,
      "deaths_rate_per_100k": 11.7712,
      "total_tested": 10928,
      "test_rate_per_10k": 2143.92,
      "test_rate_per_100k": 21439.2,
      "total_population": 50972,
      "latitude": 41.350100,
      "longitude": -88.401600
    },
    {
      "County": "Hamilton",
      "confirmed_cases": 74,
      "confirmed_rate_per_10k": 90.6529,
      "confirmed_rate_per_100k": 906.529,
      "deaths": 2,
      "deaths_rate_per_10k": 2.45008,
      "deaths_rate_per_100k": 24.5008,
      "total_tested": 1519,
      "test_rate_per_10k": 1860.84,
      "test_rate_per_100k": 18608.4,
      "total_population": 8163,
      "latitude": 38.054300,
      "longitude": -88.556500
    },
    {
      "County": "Hancock",
      "confirmed_cases": 228,
      "confirmed_rate_per_10k": 127.774,
      "confirmed_rate_per_100k": 1277.74,
      "deaths": 3,
      "deaths_rate_per_10k": 1.68124,
      "deaths_rate_per_100k": 16.8124,
      "total_tested": 5630,
      "test_rate_per_10k": 3155.12,
      "test_rate_per_100k": 31551.2,
      "total_population": 17844,
      "latitude": 40.384900,
      "longitude": -91.135300
    },
    {
      "County": "Hardin",
      "confirmed_cases": 39,
      "confirmed_rate_per_10k": 99.7442,
      "confirmed_rate_per_100k": 997.442,
      "deaths": 0,
      "deaths_rate_per_10k": 0,
      "deaths_rate_per_100k": 0,
      "total_tested": 1088,
      "test_rate_per_10k": 2782.61,
      "test_rate_per_100k": 27826.1,
      "total_population": 3910,
      "latitude": 37.499500,
      "longitude": -88.362800
    },
    {
      "County": "Henderson",
      "confirmed_cases": 71,
      "confirmed_rate_per_10k": 105.828,
      "confirmed_rate_per_100k": 1058.28,
      "deaths": 0,
      "deaths_rate_per_10k": 0,
      "deaths_rate_per_100k": 0,
      "total_tested": 1319,
      "test_rate_per_10k": 1966.02,
      "test_rate_per_100k": 19660.2,
      "total_population": 6709,
      "latitude": 40.833600,
      "longitude": -90.943800
    },
    {
      "County": "Henry",
      "confirmed_cases": 679,
      "confirmed_rate_per_10k": 138.317,
      "confirmed_rate_per_100k": 1383.17,
      "deaths": 5,
      "deaths_rate_per_10k": 1.01854,
      "deaths_rate_per_100k": 10.1854,
      "total_tested": 16558,
      "test_rate_per_10k": 3372.99,
      "test_rate_per_100k": 33729.9,
      "total_population": 49090,
      "latitude": 41.361100,
      "longitude": -90.074700
    },
    {
      "County": "Iroquois",
      "confirmed_cases": 368,
      "confirmed_rate_per_10k": 133.314,
      "confirmed_rate_per_100k": 1333.14,
      "deaths": 19,
      "deaths_rate_per_10k": 6.88306,
      "deaths_rate_per_100k": 68.8306,
      "total_tested": 11440,
      "test_rate_per_10k": 4144.33,
      "test_rate_per_100k": 41443.3,
      "total_population": 27604,
      "latitude": 40.774000,
      "longitude": -87.697600
    },
    {
      "County": "Jackson",
      "confirmed_cases": 1276,
      "confirmed_rate_per_10k": 222.226,
      "confirmed_rate_per_100k": 2222.26,
      "deaths": 25,
      "deaths_rate_per_10k": 4.35396,
      "deaths_rate_per_100k": 43.5396,
      "total_tested": 18599,
      "test_rate_per_10k": 3239.17,
      "test_rate_per_100k": 32391.7,
      "total_population": 57419,
      "latitude": 37.721800,
      "longitude": -89.322700
    },
    {
      "County": "Jasper",
      "confirmed_cases": 212,
      "confirmed_rate_per_10k": 220.581,
      "confirmed_rate_per_100k": 2205.81,
      "deaths": 10,
      "deaths_rate_per_10k": 10.4047,
      "deaths_rate_per_100k": 104.047,
      "total_tested": 2832,
      "test_rate_per_10k": 2946.62,
      "test_rate_per_100k": 29466.2,
      "total_population": 9611,
      "latitude": 39.055500,
      "longitude": -88.090100
    },
    {
      "County": "Jefferson",
      "confirmed_cases": 641,
      "confirmed_rate_per_10k": 169.487,
      "confirmed_rate_per_100k": 1694.87,
      "deaths": 38,
      "deaths_rate_per_10k": 10.0476,
      "deaths_rate_per_100k": 100.476,
      "total_tested": 9794,
      "test_rate_per_10k": 2589.64,
      "test_rate_per_100k": 25896.4,
      "total_population": 37820,
      "latitude": 38.226700,
      "longitude": -88.864700
    },
    {
      "County": "Jersey",
      "confirmed_cases": 398,
      "confirmed_rate_per_10k": 182.176,
      "confirmed_rate_per_100k": 1821.76,
      "deaths": 17,
      "deaths_rate_per_10k": 7.78139,
      "deaths_rate_per_100k": 77.8139,
      "total_tested": 6374,
      "test_rate_per_10k": 2917.56,
      "test_rate_per_100k": 29175.6,
      "total_population": 21847,
      "latitude": 39.070500,
      "longitude": -90.374800
    },
    {
      "County": "Jo Daviess",
      "confirmed_cases": 275,
      "confirmed_rate_per_10k": 128.709,
      "confirmed_rate_per_100k": 1287.09,
      "deaths": 2,
      "deaths_rate_per_10k": 0.936067,
      "deaths_rate_per_100k": 9.36067,
      "total_tested": 5424,
      "test_rate_per_10k": 2538.61,
      "test_rate_per_100k": 25386.1,
      "total_population": 21366,
      "latitude": 42.314900,
      "longitude": -90.224500
    },
    {
      "County": "Johnson",
      "confirmed_cases": 163,
      "confirmed_rate_per_10k": 130.861,
      "confirmed_rate_per_100k": 1308.61,
      "deaths": 0,
      "deaths_rate_per_10k": 0,
      "deaths_rate_per_100k": 0,
      "total_tested": 2770,
      "test_rate_per_10k": 2223.83,
      "test_rate_per_100k": 22238.3,
      "total_population": 12456,
      "latitude": 37.420400,
      "longitude": -88.903100
    },
    {
      "County": "Kane",
      "confirmed_cases": 13285,
      "confirmed_rate_per_10k": 248.682,
      "confirmed_rate_per_100k": 2486.82,
      "deaths": 326,
      "deaths_rate_per_10k": 6.1024,
      "deaths_rate_per_100k": 61.024,
      "total_tested": 178229,
      "test_rate_per_10k": 3336.27,
      "test_rate_per_100k": 33362.7,
      "total_population": 534216,
      "latitude": 41.987900,
      "longitude": -88.401600
    },
    {
      "County": "Kankakee",
      "confirmed_cases": 2776,
      "confirmed_rate_per_10k": 252.309,
      "confirmed_rate_per_100k": 2523.09,
      "deaths": 77,
      "deaths_rate_per_10k": 6.99847,
      "deaths_rate_per_100k": 69.9847,
      "total_tested": 52254,
      "test_rate_per_10k": 4749.33,
      "test_rate_per_100k": 47493.3,
      "total_population": 110024,
      "latitude": 41.179100,
      "longitude": -87.776300
    },
    {
      "County": "Kendall",
      "confirmed_cases": 2054,
      "confirmed_rate_per_10k": 160.575,
      "confirmed_rate_per_100k": 1605.75,
      "deaths": 25,
      "deaths_rate_per_10k": 1.95442,
      "deaths_rate_per_100k": 19.5442,
      "total_tested": 34701,
      "test_rate_per_10k": 2712.82,
      "test_rate_per_100k": 27128.2,
      "total_population": 127915,
      "latitude": 41.550700,
      "longitude": -88.440400
    },
    {
      "County": "Knox",
      "confirmed_cases": 704,
      "confirmed_rate_per_10k": 140.485,
      "confirmed_rate_per_100k": 1404.85,
      "deaths": 3,
      "deaths_rate_per_10k": 0.598659,
      "deaths_rate_per_100k": 5.98659,
      "total_tested": 17960,
      "test_rate_per_10k": 3583.97,
      "test_rate_per_100k": 35839.7,
      "total_population": 50112,
      "latitude": 40.877600,
      "longitude": -90.224500
    },
    {
      "County": "Lake",
      "confirmed_cases": 17151,
      "confirmed_rate_per_10k": 244.723,
      "confirmed_rate_per_100k": 2447.23,
      "deaths": 488,
      "deaths_rate_per_10k": 6.96315,
      "deaths_rate_per_100k": 69.6315,
      "total_tested": 252450,
      "test_rate_per_10k": 3602.15,
      "test_rate_per_100k": 36021.5,
      "total_population": 700832,
      "latitude": 42.368900,
      "longitude": -87.827200
    },
    {
      "County": "LaSalle",
      "confirmed_cases": 1758,
      "confirmed_rate_per_10k": 160.651,
      "confirmed_rate_per_100k": 1606.51,
      "deaths": 57,
      "deaths_rate_per_10k": 5.20881,
      "deaths_rate_per_100k": 52.0881,
      "total_tested": 30627,
      "test_rate_per_10k": 2798.78,
      "test_rate_per_100k": 27987.8,
      "total_population": 109430,
      "latitude": 41.436400,
      "longitude": -88.941400
    },
    {
      "County": "Lawrence",
      "confirmed_cases": 263,
      "confirmed_rate_per_10k": 166.825,
      "confirmed_rate_per_100k": 1668.25,
      "deaths": 3,
      "deaths_rate_per_10k": 1.90295,
      "deaths_rate_per_100k": 19.0295,
      "total_tested": 5054,
      "test_rate_per_10k": 3205.84,
      "test_rate_per_100k": 32058.4,
      "total_population": 15765,
      "latitude": 38.715800,
      "longitude": -87.776300
    },
    {
      "County": "Lee",
      "confirmed_cases": 394,
      "confirmed_rate_per_10k": 115.127,
      "confirmed_rate_per_100k": 1151.27,
      "deaths": 1,
      "deaths_rate_per_10k": 0.292201,
      "deaths_rate_per_100k": 2.92201,
      "total_tested": 7609,
      "test_rate_per_10k": 2223.36,
      "test_rate_per_100k": 22233.6,
      "total_population": 34223,
      "latitude": 41.679000,
      "longitude": -89.322700
    },
    {
      "County": "Livingston",
      "confirmed_cases": 408,
      "confirmed_rate_per_10k": 114.091,
      "confirmed_rate_per_100k": 1140.91,
      "deaths": 6,
      "deaths_rate_per_10k": 1.67781,
      "deaths_rate_per_100k": 16.7781,
      "total_tested": 11960,
      "test_rate_per_10k": 3344.43,
      "test_rate_per_100k": 33444.3,
      "total_population": 35761,
      "latitude": 40.868900,
      "longitude": -88.556500
    },
    {
      "County": "Logan",
      "confirmed_cases": 469,
      "confirmed_rate_per_10k": 162.143,
      "confirmed_rate_per_100k": 1621.43,
      "deaths": 1,
      "deaths_rate_per_10k": 0.345722,
      "deaths_rate_per_100k": 3.45722,
      "total_tested": 14801,
      "test_rate_per_10k": 5117.03,
      "test_rate_per_100k": 51170.3,
      "total_population": 28925,
      "latitude": 40.061300,
      "longitude": -89.322700
    },
    {
      "County": "Macon",
      "confirmed_cases": 1636,
      "confirmed_rate_per_10k": 156.238,
      "confirmed_rate_per_100k": 1562.38,
      "deaths": 45,
      "deaths_rate_per_10k": 4.2975,
      "deaths_rate_per_100k": 42.975,
      "total_tested": 38408,
      "test_rate_per_10k": 3667.97,
      "test_rate_per_100k": 36679.7,
      "total_population": 104712,
      "latitude": 39.894900,
      "longitude": -89.017900
    },
    {
      "County": "Macoupin",
      "confirmed_cases": 567,
      "confirmed_rate_per_10k": 125.13,
      "confirmed_rate_per_100k": 1251.3,
      "deaths": 7,
      "deaths_rate_per_10k": 1.54481,
      "deaths_rate_per_100k": 15.4481,
      "total_tested": 19022,
      "test_rate_per_10k": 4197.91,
      "test_rate_per_100k": 41979.1,
      "total_population": 45313,
      "latitude": 39.237500,
      "longitude": -89.925300
    },
    {
      "County": "Madison",
      "confirmed_cases": 5828,
      "confirmed_rate_per_10k": 220.373,
      "confirmed_rate_per_100k": 2203.73,
      "deaths": 143,
      "deaths_rate_per_10k": 5.40722,
      "deaths_rate_per_100k": 54.0722,
      "total_tested": 77630,
      "test_rate_per_10k": 2935.4,
      "test_rate_per_100k": 29354,
      "total_population": 264461,
      "latitude": 38.904100,
      "longitude": -89.925300
    },
    {
      "County": "Marion",
      "confirmed_cases": 573,
      "confirmed_rate_per_10k": 152.313,
      "confirmed_rate_per_100k": 1523.13,
      "deaths": 2,
      "deaths_rate_per_10k": 0.531632,
      "deaths_rate_per_100k": 5.31632,
      "total_tested": 12746,
      "test_rate_per_10k": 3388.09,
      "test_rate_per_100k": 33880.9,
      "total_population": 37620,
      "latitude": 38.731300,
      "longitude": -88.864700
    },
    {
      "County": "Marshall",
      "confirmed_cases": 111,
      "confirmed_rate_per_10k": 96.2372,
      "confirmed_rate_per_100k": 962.372,
      "deaths": 0,
      "deaths_rate_per_10k": 0,
      "deaths_rate_per_100k": 0,
      "total_tested": 4028,
      "test_rate_per_10k": 3492.28,
      "test_rate_per_100k": 34922.8,
      "total_population": 11534,
      "latitude": 40.997300,
      "longitude": -89.360600
    },
    {
      "County": "Mason",
      "confirmed_cases": 161,
      "confirmed_rate_per_10k": 118.688,
      "confirmed_rate_per_100k": 1186.88,
      "deaths": 1,
      "deaths_rate_per_10k": 0.737191,
      "deaths_rate_per_100k": 7.37191,
      "total_tested": 4764,
      "test_rate_per_10k": 3511.98,
      "test_rate_per_100k": 35119.8,
      "total_population": 13565,
      "latitude": 40.227100,
      "longitude": -89.925300
    },
    {
      "County": "Massac",
      "confirmed_cases": 117,
      "confirmed_rate_per_10k": 83.0966,
      "confirmed_rate_per_100k": 830.966,
      "deaths": 2,
      "deaths_rate_per_10k": 1.42045,
      "deaths_rate_per_100k": 14.2045,
      "total_tested": 2819,
      "test_rate_per_10k": 2002.13,
      "test_rate_per_100k": 20021.3,
      "total_population": 14080,
      "latitude": 37.247800,
      "longitude": -88.749400
    },
    {
      "County": "McDonough",
      "confirmed_cases": 490,
      "confirmed_rate_per_10k": 163.579,
      "confirmed_rate_per_100k": 1635.79,
      "deaths": 15,
      "deaths_rate_per_10k": 5.00751,
      "deaths_rate_per_100k": 50.0751,
      "total_tested": 8687,
      "test_rate_per_10k": 2900.02,
      "test_rate_per_100k": 29000.2,
      "total_population": 29955,
      "latitude": 40.388500,
      "longitude": -90.677300
    },
    {
      "County": "McHenry",
      "confirmed_cases": 4653,
      "confirmed_rate_per_10k": 150.792,
      "confirmed_rate_per_100k": 1507.92,
      "deaths": 118,
      "deaths_rate_per_10k": 3.82409,
      "deaths_rate_per_100k": 38.2409,
      "total_tested": 77602,
      "test_rate_per_10k": 2514.89,
      "test_rate_per_100k": 25148.9,
      "total_population": 308570,
      "latitude": 42.304000,
      "longitude": -88.401600
    },
    {
      "County": "McLean",
      "confirmed_cases": 3325,
      "confirmed_rate_per_10k": 192.388,
      "confirmed_rate_per_100k": 1923.88,
      "deaths": 23,
      "deaths_rate_per_10k": 1.3308,
      "deaths_rate_per_100k": 13.308,
      "total_tested": 75636,
      "test_rate_per_10k": 4376.37,
      "test_rate_per_100k": 43763.7,
      "total_population": 172828,
      "latitude": 40.547800,
      "longitude": -88.864700
    },
    {
      "County": "Menard",
      "confirmed_cases": 128,
      "confirmed_rate_per_10k": 104.167,
      "confirmed_rate_per_100k": 1041.67,
      "deaths": 1,
      "deaths_rate_per_10k": 0.813802,
      "deaths_rate_per_100k": 8.13802,
      "total_tested": 4759,
      "test_rate_per_10k": 3872.88,
      "test_rate_per_100k": 38728.8,
      "total_population": 12288,
      "latitude": 40.022100,
      "longitude": -89.813000
    },
    {
      "County": "Mercer",
      "confirmed_cases": 141,
      "confirmed_rate_per_10k": 90.3788,
      "confirmed_rate_per_100k": 903.788,
      "deaths": 5,
      "deaths_rate_per_10k": 3.20492,
      "deaths_rate_per_100k": 32.0492,
      "total_tested": 4853,
      "test_rate_per_10k": 3110.7,
      "test_rate_per_100k": 31107,
      "total_population": 15601,
      "latitude": 41.198500,
      "longitude": -90.677300
    },
    {
      "County": "Monroe",
      "confirmed_cases": 690,
      "confirmed_rate_per_10k": 200.961,
      "confirmed_rate_per_100k": 2009.61,
      "deaths": 16,
      "deaths_rate_per_10k": 4.65997,
      "deaths_rate_per_100k": 46.5997,
      "total_tested": 8036,
      "test_rate_per_10k": 2340.47,
      "test_rate_per_100k": 23404.7,
      "total_population": 34335,
      "latitude": 38.274300,
      "longitude": -90.187000
    },
    {
      "County": "Montgomery",
      "confirmed_cases": 389,
      "confirmed_rate_per_10k": 136.009,
      "confirmed_rate_per_100k": 1360.09,
      "deaths": 13,
      "deaths_rate_per_10k": 4.5453,
      "deaths_rate_per_100k": 45.453,
      "total_tested": 13723,
      "test_rate_per_10k": 4798.08,
      "test_rate_per_100k": 47980.8,
      "total_population": 28601,
      "latitude": 39.236400,
      "longitude": -89.474200
    },
    {
      "County": "Morgan",
      "confirmed_cases": 674,
      "confirmed_rate_per_10k": 198.375,
      "confirmed_rate_per_100k": 1983.75,
      "deaths": 23,
      "deaths_rate_per_10k": 6.76948,
      "deaths_rate_per_100k": 67.6948,
      "total_tested": 13425,
      "test_rate_per_10k": 3951.32,
      "test_rate_per_100k": 39513.2,
      "total_population": 33976,
      "latitude": 39.734100,
      "longitude": -90.224500
    },
    {
      "County": "Moultrie",
      "confirmed_cases": 222,
      "confirmed_rate_per_10k": 150.846,
      "confirmed_rate_per_100k": 1508.46,
      "deaths": 4,
      "deaths_rate_per_10k": 2.71795,
      "deaths_rate_per_100k": 27.1795,
      "total_tested": 4973,
      "test_rate_per_10k": 3379.09,
      "test_rate_per_100k": 33790.9,
      "total_population": 14717,
      "latitude": 39.602100,
      "longitude": -88.595200
    },
    {
      "County": "Ogle",
      "confirmed_cases": 748,
      "confirmed_rate_per_10k": 146.888,
      "confirmed_rate_per_100k": 1468.88,
      "deaths": 6,
      "deaths_rate_per_10k": 1.17825,
      "deaths_rate_per_100k": 11.7825,
      "total_tested": 14863,
      "test_rate_per_10k": 2918.72,
      "test_rate_per_100k": 29187.2,
      "total_population": 50923,
      "latitude": 41.997000,
      "longitude": -89.322700
    },
    {
      "County": "Peoria",
      "confirmed_cases": 3555,
      "confirmed_rate_per_10k": 196.821,
      "confirmed_rate_per_100k": 1968.21,
      "deaths": 52,
      "deaths_rate_per_10k": 2.87896,
      "deaths_rate_per_100k": 28.7896,
      "total_tested": 89579,
      "test_rate_per_10k": 4959.5,
      "test_rate_per_100k": 49595,
      "total_population": 180621,
      "latitude": 40.715600,
      "longitude": -89.775500
    },
    {
      "County": "Perry",
      "confirmed_cases": 358,
      "confirmed_rate_per_10k": 169.075,
      "confirmed_rate_per_100k": 1690.75,
      "deaths": 15,
      "deaths_rate_per_10k": 7.08416,
      "deaths_rate_per_100k": 70.8416,
      "total_tested": 6526,
      "test_rate_per_10k": 3082.08,
      "test_rate_per_100k": 30820.8,
      "total_population": 21174,
      "latitude": 38.061200,
      "longitude": -89.322700
    },
    {
      "County": "Piatt",
      "confirmed_cases": 143,
      "confirmed_rate_per_10k": 87.2164,
      "confirmed_rate_per_100k": 872.164,
      "deaths": 0,
      "deaths_rate_per_10k": 0,
      "deaths_rate_per_100k": 0,
      "total_tested": 8132,
      "test_rate_per_10k": 4959.75,
      "test_rate_per_100k": 49597.5,
      "total_population": 16396,
      "latitude": 40.054400,
      "longitude": -88.855650
    },
    {
      "County": "Pike",
      "confirmed_cases": 139,
      "confirmed_rate_per_10k": 89.0398,
      "confirmed_rate_per_100k": 890.398,
      "deaths": 1,
      "deaths_rate_per_10k": 0.640574,
      "deaths_rate_per_100k": 6.40574,
      "total_tested": 3645,
      "test_rate_per_10k": 2334.89,
      "test_rate_per_100k": 23348.9,
      "total_population": 15611,
      "latitude": 39.566200,
      "longitude": -90.829400
    },
    {
      "County": "Pope",
      "confirmed_cases": 30,
      "confirmed_rate_per_10k": 71.2251,
      "confirmed_rate_per_100k": 712.251,
      "deaths": 1,
      "deaths_rate_per_10k": 2.37417,
      "deaths_rate_per_100k": 23.7417,
      "total_tested": 621,
      "test_rate_per_10k": 1474.36,
      "test_rate_per_100k": 14743.6,
      "total_population": 4212,
      "latitude": 37.417100,
      "longitude": -88.595200
    },
    {
      "County": "Pulaski",
      "confirmed_cases": 183,
      "confirmed_rate_per_10k": 334.981,
      "confirmed_rate_per_100k": 3349.81,
      "deaths": 1,
      "deaths_rate_per_10k": 1.8305,
      "deaths_rate_per_100k": 18.305,
      "total_tested": 1553,
      "test_rate_per_10k": 2842.76,
      "test_rate_per_100k": 28427.6,
      "total_population": 5463,
      "latitude": 37.251200,
      "longitude": -89.132500
    },
    {
      "County": "Putnam",
      "confirmed_cases": 63,
      "confirmed_rate_per_10k": 109.756,
      "confirmed_rate_per_100k": 1097.56,
      "deaths": 0,
      "deaths_rate_per_10k": 0,
      "deaths_rate_per_100k": 0,
      "total_tested": 1192,
      "test_rate_per_10k": 2076.66,
      "test_rate_per_100k": 20766.6,
      "total_population": 5740,
      "latitude": 41.238500,
      "longitude": -89.284700
    },
    {
      "County": "Randolph",
      "confirmed_cases": 958,
      "confirmed_rate_per_10k": 298.387,
      "confirmed_rate_per_100k": 2983.87,
      "deaths": 11,
      "deaths_rate_per_10k": 3.42615,
      "deaths_rate_per_100k": 34.2615,
      "total_tested": 12060,
      "test_rate_per_10k": 3756.31,
      "test_rate_per_100k": 37563.1,
      "total_population": 32106,
      "latitude": 38.062900,
      "longitude": -89.775500
    },
    {
      "County": "Richland",
      "confirmed_cases": 220,
      "confirmed_rate_per_10k": 139.567,
      "confirmed_rate_per_100k": 1395.67,
      "deaths": 6,
      "deaths_rate_per_10k": 3.80638,
      "deaths_rate_per_100k": 38.0638,
      "total_tested": 6086,
      "test_rate_per_10k": 3860.94,
      "test_rate_per_100k": 38609.4,
      "total_population": 15763,
      "latitude": 38.721300,
      "longitude": -88.090100
    },
    {
      "County": "Rock Island",
      "confirmed_cases": 3071,
      "confirmed_rate_per_10k": 214.041,
      "confirmed_rate_per_100k": 2140.41,
      "deaths": 77,
      "deaths_rate_per_10k": 5.36671,
      "deaths_rate_per_100k": 53.6671,
      "total_tested": 60757,
      "test_rate_per_10k": 4234.62,
      "test_rate_per_100k": 42346.2,
      "total_population": 143477,
      "latitude": 41.509500,
      "longitude": -90.578700
    },
    {
      "County": "Saline",
      "confirmed_cases": 362,
      "confirmed_rate_per_10k": 151.426,
      "confirmed_rate_per_100k": 1514.26,
      "deaths": 4,
      "deaths_rate_per_10k": 1.67322,
      "deaths_rate_per_100k": 16.7322,
      "total_tested": 6731,
      "test_rate_per_10k": 2815.61,
      "test_rate_per_100k": 28156.1,
      "total_population": 23906,
      "latitude": 37.715000,
      "longitude": -88.556500
    },
    {
      "County": "Sangamon",
      "confirmed_cases": 2479,
      "confirmed_rate_per_10k": 126.902,
      "confirmed_rate_per_100k": 1269.02,
      "deaths": 45,
      "deaths_rate_per_10k": 2.30358,
      "deaths_rate_per_100k": 23.0358,
      "total_tested": 104480,
      "test_rate_per_10k": 5348.4,
      "test_rate_per_100k": 53484,
      "total_population": 195348,
      "latitude": 39.733700,
      "longitude": -89.625200
    },
    {
      "County": "Schuyler",
      "confirmed_cases": 50,
      "confirmed_rate_per_10k": 72.3903,
      "confirmed_rate_per_100k": 723.903,
      "deaths": 0,
      "deaths_rate_per_10k": 0,
      "deaths_rate_per_100k": 0,
      "total_tested": 1930,
      "test_rate_per_10k": 2794.27,
      "test_rate_per_100k": 27942.7,
      "total_population": 6907,
      "latitude": 40.184500,
      "longitude": -90.639400
    },
    {
      "County": "Scott",
      "confirmed_cases": 80,
      "confirmed_rate_per_10k": 162.404,
      "confirmed_rate_per_100k": 1624.04,
      "deaths": 0,
      "deaths_rate_per_10k": 0,
      "deaths_rate_per_100k": 0,
      "total_tested": 2223,
      "test_rate_per_10k": 4512.79,
      "test_rate_per_100k": 45127.9,
      "total_population": 4926,
      "latitude": 39.609500,
      "longitude": -90.488000
    },
    {
      "County": "Shelby",
      "confirmed_cases": 408,
      "confirmed_rate_per_10k": 187.664,
      "confirmed_rate_per_100k": 1876.64,
      "deaths": 4,
      "deaths_rate_per_10k": 1.83984,
      "deaths_rate_per_100k": 18.3984,
      "total_tested": 7113,
      "test_rate_per_10k": 3271.7,
      "test_rate_per_100k": 32717,
      "total_population": 21741,
      "latitude": 39.398100,
      "longitude": -88.864700
    },
    {
      "County": "St. Clair",
      "confirmed_cases": 6747,
      "confirmed_rate_per_10k": 258.447,
      "confirmed_rate_per_100k": 2584.47,
      "deaths": 192,
      "deaths_rate_per_10k": 7.35466,
      "deaths_rate_per_100k": 73.5466,
      "total_tested": 82208,
      "test_rate_per_10k": 3149.02,
      "test_rate_per_100k": 31490.2,
      "total_population": 261059,
      "latitude": 38.400800,
      "longitude": -89.925300
    },
    {
      "County": "Stark",
      "confirmed_cases": 56,
      "confirmed_rate_per_10k": 103.188,
      "confirmed_rate_per_100k": 1031.88,
      "deaths": 2,
      "deaths_rate_per_10k": 3.68528,
      "deaths_rate_per_100k": 36.8528,
      "total_tested": 2075,
      "test_rate_per_10k": 3823.48,
      "test_rate_per_100k": 38234.8,
      "total_population": 5427,
      "latitude": 41.079600,
      "longitude": -89.813000
    },
    {
      "County": "Stephenson",
      "confirmed_cases": 548,
      "confirmed_rate_per_10k": 122.45,
      "confirmed_rate_per_100k": 1224.5,
      "deaths": 6,
      "deaths_rate_per_10k": 1.34069,
      "deaths_rate_per_100k": 13.4069,
      "total_tested": 12502,
      "test_rate_per_10k": 2793.56,
      "test_rate_per_100k": 27935.6,
      "total_population": 44753,
      "latitude": 42.314500,
      "longitude": -89.625200
    },
    {
      "County": "Tazewell",
      "confirmed_cases": 1809,
      "confirmed_rate_per_10k": 136.706,
      "confirmed_rate_per_100k": 1367.06,
      "deaths": 27,
      "deaths_rate_per_10k": 2.04038,
      "deaths_rate_per_100k": 20.4038,
      "total_tested": 60042,
      "test_rate_per_10k": 4537.36,
      "test_rate_per_100k": 45373.6,
      "total_population": 132328,
      "latitude": 40.552200,
      "longitude": -89.474200
    },
    {
      "County": "Union",
      "confirmed_cases": 524,
      "confirmed_rate_per_10k": 311.145,
      "confirmed_rate_per_100k": 3111.45,
      "deaths": 24,
      "deaths_rate_per_10k": 14.2509,
      "deaths_rate_per_100k": 142.509,
      "total_tested": 6478,
      "test_rate_per_10k": 3846.56,
      "test_rate_per_100k": 38465.6,
      "total_population": 16841,
      "latitude": 37.508700,
      "longitude": -89.284700
    },
    {
      "County": "Vermilion",
      "confirmed_cases": 830,
      "confirmed_rate_per_10k": 108.064,
      "confirmed_rate_per_100k": 1080.64,
      "deaths": 4,
      "deaths_rate_per_10k": 0.520793,
      "deaths_rate_per_100k": 5.20793,
      "total_tested": 27027,
      "test_rate_per_10k": 3518.87,
      "test_rate_per_100k": 35188.7,
      "total_population": 76806,
      "latitude": 40.122500,
      "longitude": -87.697600
    },
    {
      "County": "Wabash",
      "confirmed_cases": 162,
      "confirmed_rate_per_10k": 140.272,
      "confirmed_rate_per_100k": 1402.72,
      "deaths": 3,
      "deaths_rate_per_10k": 2.59763,
      "deaths_rate_per_100k": 25.9763,
      "total_tested": 2385,
      "test_rate_per_10k": 2065.11,
      "test_rate_per_100k": 20651.1,
      "total_population": 11549,
      "latitude": 38.422600,
      "longitude": -87.815700
    },
    {
      "County": "Warren",
      "confirmed_cases": 334,
      "confirmed_rate_per_10k": 196.101,
      "confirmed_rate_per_100k": 1961.01,
      "deaths": 2,
      "deaths_rate_per_10k": 1.17426,
      "deaths_rate_per_100k": 11.7426,
      "total_tested": 4040,
      "test_rate_per_10k": 2372.01,
      "test_rate_per_100k": 23720.1,
      "total_population": 17032,
      "latitude": 40.875900,
      "longitude": -90.677300
    },
    {
      "County": "Washington",
      "confirmed_cases": 219,
      "confirmed_rate_per_10k": 156.484,
      "confirmed_rate_per_100k": 1564.84,
      "deaths": 1,
      "deaths_rate_per_10k": 0.714541,
      "deaths_rate_per_100k": 7.14541,
      "total_tested": 3116,
      "test_rate_per_10k": 2226.51,
      "test_rate_per_100k": 22265.1,
      "total_population": 13995,
      "latitude": 38.398900,
      "longitude": -89.322700
    },
    {
      "County": "Wayne",
      "confirmed_cases": 300,
      "confirmed_rate_per_10k": 183.688,
      "confirmed_rate_per_100k": 1836.88,
      "deaths": 5,
      "deaths_rate_per_10k": 3.06147,
      "deaths_rate_per_100k": 30.6147,
      "total_tested": 4091,
      "test_rate_per_10k": 2504.9,
      "test_rate_per_100k": 25049,
      "total_population": 16332,
      "latitude": 38.390000,
      "longitude": -88.401600
    },
    {
      "County": "White",
      "confirmed_cases": 176,
      "confirmed_rate_per_10k": 128.796,
      "confirmed_rate_per_100k": 1287.96,
      "deaths": 0,
      "deaths_rate_per_10k": 0,
      "deaths_rate_per_100k": 0,
      "total_tested": 4733,
      "test_rate_per_10k": 3463.59,
      "test_rate_per_100k": 34635.9,
      "total_population": 13665,
      "latitude": 38.050100,
      "longitude": -88.246100
    },
    {
      "County": "Whiteside",
      "confirmed_cases": 784,
      "confirmed_rate_per_10k": 140.941,
      "confirmed_rate_per_100k": 1409.41,
      "deaths": 21,
      "deaths_rate_per_10k": 3.77521,
      "deaths_rate_per_100k": 37.7521,
      "total_tested": 14593,
      "test_rate_per_10k": 2623.41,
      "test_rate_per_100k": 26234.1,
      "total_population": 55626,
      "latitude": 41.760600,
      "longitude": -89.850500
    },
    {
      "County": "Will",
      "confirmed_cases": 14239,
      "confirmed_rate_per_10k": 205.674,
      "confirmed_rate_per_100k": 2056.74,
      "deaths": 382,
      "deaths_rate_per_10k": 5.51776,
      "deaths_rate_per_100k": 55.1776,
      "total_tested": 217754,
      "test_rate_per_10k": 3145.33,
      "test_rate_per_100k": 31453.3,
      "total_population": 692310,
      "latitude": 41.505500,
      "longitude": -88.090100
    },
    {
      "County": "Williamson",
      "confirmed_cases": 1426,
      "confirmed_rate_per_10k": 212.658,
      "confirmed_rate_per_100k": 2126.58,
      "deaths": 49,
      "deaths_rate_per_10k": 7.30733,
      "deaths_rate_per_100k": 73.0733,
      "total_tested": 26243,
      "test_rate_per_10k": 3913.59,
      "test_rate_per_100k": 39135.9,
      "total_population": 67056,
      "latitude": 37.718300,
      "longitude": -88.864700
    },
    {
      "County": "Winnebago",
      "confirmed_cases": 6300,
      "confirmed_rate_per_10k": 221.768,
      "confirmed_rate_per_100k": 2217.68,
      "deaths": 151,
      "deaths_rate_per_10k": 5.31539,
      "deaths_rate_per_100k": 53.1539,
      "total_tested": 95656,
      "test_rate_per_10k": 3367.21,
      "test_rate_per_100k": 33672.1,
      "total_population": 284081,
      "latitude": 42.312100,
      "longitude": -89.170600
    },
    {
      "County": "Woodford",
      "confirmed_cases": 432,
      "confirmed_rate_per_10k": 112.316,
      "confirmed_rate_per_100k": 1123.16,
      "deaths": 7,
      "deaths_rate_per_10k": 1.81993,
      "deaths_rate_per_100k": 18.1993,
      "total_tested": 13117,
      "test_rate_per_10k": 3410.29,
      "test_rate_per_100k": 34102.9,
      "total_population": 38463,
      "latitude": 40.712900,
      "longitude": -89.170600
    }
  ]
}
