{
	"lastUpdatedDate": {
		"year": 2021,
		"month": 2,
		"day": 15
	},
	"characteristics_by_county": [
		{
			"CountyName": "Illinois",
			"tested": 17224247,
			"confirmed_cases": 1163574,
			"deaths": 20002,
			"latitude": 39.839888,
			"longitude": -89.510168
		},
		{
			"CountyName": "Adams",
			"tested": 121217,
			"confirmed_cases": 7887,
			"deaths": 111,
			"latitude": 40.0578,
			"longitude": -91.1353
		},
		{
			"CountyName": "Alexander",
			"tested": 4709,
			"confirmed_cases": 436,
			"deaths": 8,
			"latitude": 37.167,
			"longitude": -89.3606
		},
		{
			"CountyName": "Bond",
			"tested": 22614,
			"confirmed_cases": 1863,
			"deaths": 23,
			"latitude": 38.903,
			"longitude": -89.4742
		},
		{
			"CountyName": "Boone",
			"tested": 49241,
			"confirmed_cases": 5858,
			"deaths": 71,
			"latitude": 42.3485,
			"longitude": -88.8263
		},
		{
			"CountyName": "Brown",
			"tested": 20879,
			"confirmed_cases": 648,
			"deaths": 6,
			"latitude": 39.938,
			"longitude": -90.7153
		},
		{
			"CountyName": "Bureau",
			"tested": 34370,
			"confirmed_cases": 3225,
			"deaths": 73,
			"latitude": 41.3599,
			"longitude": -89.4742
		},
		{
			"CountyName": "Calhoun",
			"tested": 4847,
			"confirmed_cases": 469,
			"deaths": 2,
			"latitude": 39.1733,
			"longitude": -90.6583
		},
		{
			"CountyName": "Carroll",
			"tested": 16865,
			"confirmed_cases": 1541,
			"deaths": 33,
			"latitude": 42.0386,
			"longitude": -89.9627
		},
		{
			"CountyName": "Cass",
			"tested": 16763,
			"confirmed_cases": 1859,
			"deaths": 22,
			"latitude": 39.9399,
			"longitude": -90.262
		},
		{
			"CountyName": "Champaign",
			"tested": 1628917,
			"confirmed_cases": 17488,
			"deaths": 119,
			"latitude": 40.2139,
			"longitude": -88.2461
		},
		{
			"CountyName": "Chicago",
			"tested": 3203678,
			"confirmed_cases": 240933,
			"deaths": 4782,
			"latitude": 41.789896,
			"longitude": -87.627734
		},
		{
			"CountyName": "Christian",
			"tested": 41011,
			"confirmed_cases": 3243,
			"deaths": 62,
			"latitude": 39.5672,
			"longitude": -89.3227
		},
		{
			"CountyName": "Clark",
			"tested": 13436,
			"confirmed_cases": 1646,
			"deaths": 29,
			"latitude": 39.3824,
			"longitude": -87.7763
		},
		{
			"CountyName": "Clay",
			"tested": 13242,
			"confirmed_cases": 1411,
			"deaths": 41,
			"latitude": 38.7279,
			"longitude": -88.5565
		},
		{
			"CountyName": "Clinton",
			"tested": 51543,
			"confirmed_cases": 5522,
			"deaths": 88,
			"latitude": 38.5684,
			"longitude": -89.6252
		},
		{
			"CountyName": "Coles",
			"tested": 62427,
			"confirmed_cases": 5080,
			"deaths": 89,
			"latitude": 39.556,
			"longitude": -88.2461
		},
		{
			"CountyName": "Cook",
			"tested": 2930632,
			"confirmed_cases": 225489,
			"deaths": 4377,
			"latitude": 42.050784,
			"longitude": -87.963759
		},
		{
			"CountyName": "Crawford",
			"tested": 28245,
			"confirmed_cases": 1980,
			"deaths": 21,
			"latitude": 39.05,
			"longitude": -87.7763
		},
		{
			"CountyName": "Cumberland",
			"tested": 9953,
			"confirmed_cases": 1168,
			"deaths": 17,
			"latitude": 39.2654,
			"longitude": -88.2072
		},
		{
			"CountyName": "De Witt",
			"tested": 17085,
			"confirmed_cases": 1260,
			"deaths": 22,
			"latitude": 40.181,
			"longitude": -88.9031
		},
		{
			"CountyName": "DeKalb",
			"tested": 103737,
			"confirmed_cases": 8070,
			"deaths": 109,
			"latitude": 41.833,
			"longitude": -88.7109
		},
		{
			"CountyName": "Douglas",
			"tested": 25767,
			"confirmed_cases": 2284,
			"deaths": 30,
			"latitude": 39.7618,
			"longitude": -88.2072
		},
		{
			"CountyName": "DuPage",
			"tested": 996998,
			"confirmed_cases": 74991,
			"deaths": 1156,
			"latitude": 41.8244,
			"longitude": -88.0901
		},
		{
			"CountyName": "Edgar",
			"tested": 12401,
			"confirmed_cases": 1529,
			"deaths": 36,
			"latitude": 39.7131,
			"longitude": -87.7763
		},
		{
			"CountyName": "Edwards",
			"tested": 3506,
			"confirmed_cases": 515,
			"deaths": 10,
			"latitude": 38.4268,
			"longitude": -88.051
		},
		{
			"CountyName": "Effingham",
			"tested": 36229,
			"confirmed_cases": 4461,
			"deaths": 68,
			"latitude": 39.0622,
			"longitude": -88.5565
		},
		{
			"CountyName": "Fayette",
			"tested": 24503,
			"confirmed_cases": 3049,
			"deaths": 52,
			"latitude": 39.067,
			"longitude": -89.0179
		},
		{
			"CountyName": "Ford",
			"tested": 23161,
			"confirmed_cases": 1516,
			"deaths": 43,
			"latitude": 40.4989,
			"longitude": -88.2072
		},
		{
			"CountyName": "Franklin",
			"tested": 41240,
			"confirmed_cases": 4101,
			"deaths": 65,
			"latitude": 38.0157,
			"longitude": -88.9031
		},
		{
			"CountyName": "Fulton",
			"tested": 61745,
			"confirmed_cases": 2789,
			"deaths": 44,
			"latitude": 40.5532,
			"longitude": -90.2245
		},
		{
			"CountyName": "Gallatin",
			"tested": 3437,
			"confirmed_cases": 430,
			"deaths": 4,
			"latitude": 37.7108,
			"longitude": -88.2461
		},
		{
			"CountyName": "Greene",
			"tested": 11939,
			"confirmed_cases": 1368,
			"deaths": 31,
			"latitude": 39.403,
			"longitude": -90.3748
		},
		{
			"CountyName": "Grundy",
			"tested": 42724,
			"confirmed_cases": 4933,
			"deaths": 61,
			"latitude": 41.3501,
			"longitude": -88.4016
		},
		{
			"CountyName": "Hamilton",
			"tested": 6026,
			"confirmed_cases": 776,
			"deaths": 15,
			"latitude": 38.0543,
			"longitude": -88.5565
		},
		{
			"CountyName": "Hancock",
			"tested": 15709,
			"confirmed_cases": 1643,
			"deaths": 28,
			"latitude": 40.3849,
			"longitude": -91.1353
		},
		{
			"CountyName": "Hardin",
			"tested": 4413,
			"confirmed_cases": 340,
			"deaths": 11,
			"latitude": 37.4995,
			"longitude": -88.3628
		},
		{
			"CountyName": "Henderson",
			"tested": 5921,
			"confirmed_cases": 490,
			"deaths": 8,
			"latitude": 40.8336,
			"longitude": -90.9438
		},
		{
			"CountyName": "Henry",
			"tested": 55142,
			"confirmed_cases": 4274,
			"deaths": 53,
			"latitude": 41.3611,
			"longitude": -90.0747
		},
		{
			"CountyName": "Iroquois",
			"tested": 38365,
			"confirmed_cases": 2751,
			"deaths": 59,
			"latitude": 40.774,
			"longitude": -87.6976
		},
		{
			"CountyName": "Jackson",
			"tested": 61906,
			"confirmed_cases": 4549,
			"deaths": 60,
			"latitude": 37.7218,
			"longitude": -89.3227
		},
		{
			"CountyName": "Jasper",
			"tested": 9862,
			"confirmed_cases": 1099,
			"deaths": 17,
			"latitude": 39.0555,
			"longitude": -88.0901
		},
		{
			"CountyName": "Jefferson",
			"tested": 40421,
			"confirmed_cases": 3898,
			"deaths": 114,
			"latitude": 38.2267,
			"longitude": -88.8647
		},
		{
			"CountyName": "Jersey",
			"tested": 25469,
			"confirmed_cases": 2450,
			"deaths": 44,
			"latitude": 39.0705,
			"longitude": -90.3748
		},
		{
			"CountyName": "Jo Daviess",
			"tested": 17829,
			"confirmed_cases": 1582,
			"deaths": 22,
			"latitude": 42.3149,
			"longitude": -90.2245
		},
		{
			"CountyName": "Johnson",
			"tested": 29418,
			"confirmed_cases": 1335,
			"deaths": 11,
			"latitude": 37.4204,
			"longitude": -88.9031
		},
		{
			"CountyName": "Kane",
			"tested": 517588,
			"confirmed_cases": 49669,
			"deaths": 700,
			"latitude": 41.9879,
			"longitude": -88.4016
		},
		{
			"CountyName": "Kankakee",
			"tested": 175630,
			"confirmed_cases": 12200,
			"deaths": 186,
			"latitude": 41.1791,
			"longitude": -87.7763
		},
		{
			"CountyName": "Kendall",
			"tested": 104532,
			"confirmed_cases": 10793,
			"deaths": 81,
			"latitude": 41.5507,
			"longitude": -88.4404
		},
		{
			"CountyName": "Knox",
			"tested": 73287,
			"confirmed_cases": 4933,
			"deaths": 125,
			"latitude": 40.8776,
			"longitude": -90.2245
		},
		{
			"CountyName": "Lake",
			"tested": 752339,
			"confirmed_cases": 58086,
			"deaths": 905,
			"latitude": 42.3689,
			"longitude": -87.8272
		},
		{
			"CountyName": "LaSalle",
			"tested": 133535,
			"confirmed_cases": 10491,
			"deaths": 212,
			"latitude": 41.4364,
			"longitude": -88.9414
		},
		{
			"CountyName": "Lawrence",
			"tested": 29988,
			"confirmed_cases": 2259,
			"deaths": 24,
			"latitude": 38.7158,
			"longitude": -87.7763
		},
		{
			"CountyName": "Lee",
			"tested": 54133,
			"confirmed_cases": 3285,
			"deaths": 43,
			"latitude": 41.679,
			"longitude": -89.3227
		},
		{
			"CountyName": "Livingston",
			"tested": 72398,
			"confirmed_cases": 4073,
			"deaths": 72,
			"latitude": 40.8689,
			"longitude": -88.5565
		},
		{
			"CountyName": "Logan",
			"tested": 62695,
			"confirmed_cases": 3285,
			"deaths": 51,
			"latitude": 40.0613,
			"longitude": -89.3227
		},
		{
			"CountyName": "Macon",
			"tested": 134306,
			"confirmed_cases": 9353,
			"deaths": 180,
			"latitude": 39.8949,
			"longitude": -89.0179
		},
		{
			"CountyName": "Macoupin",
			"tested": 57940,
			"confirmed_cases": 4276,
			"deaths": 73,
			"latitude": 39.2375,
			"longitude": -89.9253
		},
		{
			"CountyName": "Madison",
			"tested": 251516,
			"confirmed_cases": 27389,
			"deaths": 442,
			"latitude": 38.9041,
			"longitude": -89.9253
		},
		{
			"CountyName": "Marion",
			"tested": 61786,
			"confirmed_cases": 4227,
			"deaths": 110,
			"latitude": 38.7313,
			"longitude": -88.8647
		},
		{
			"CountyName": "Marshall",
			"tested": 15432,
			"confirmed_cases": 822,
			"deaths": 14,
			"latitude": 40.9973,
			"longitude": -89.3606
		},
		{
			"CountyName": "Mason",
			"tested": 17628,
			"confirmed_cases": 1259,
			"deaths": 41,
			"latitude": 40.2271,
			"longitude": -89.9253
		},
		{
			"CountyName": "Massac",
			"tested": 9539,
			"confirmed_cases": 1230,
			"deaths": 31,
			"latitude": 37.2478,
			"longitude": -88.7494
		},
		{
			"CountyName": "McDonough",
			"tested": 36648,
			"confirmed_cases": 2289,
			"deaths": 40,
			"latitude": 40.3885,
			"longitude": -90.6773
		},
		{
			"CountyName": "McHenry",
			"tested": 254602,
			"confirmed_cases": 23686,
			"deaths": 259,
			"latitude": 42.304,
			"longitude": -88.4016
		},
		{
			"CountyName": "McLean",
			"tested": 240823,
			"confirmed_cases": 14288,
			"deaths": 153,
			"latitude": 40.5478,
			"longitude": -88.8647
		},
		{
			"CountyName": "Menard",
			"tested": 15261,
			"confirmed_cases": 1020,
			"deaths": 7,
			"latitude": 40.0221,
			"longitude": -89.813
		},
		{
			"CountyName": "Mercer",
			"tested": 14339,
			"confirmed_cases": 1256,
			"deaths": 31,
			"latitude": 41.1985,
			"longitude": -90.6773
		},
		{
			"CountyName": "Monroe",
			"tested": 34495,
			"confirmed_cases": 3983,
			"deaths": 80,
			"latitude": 38.2743,
			"longitude": -90.187
		},
		{
			"CountyName": "Montgomery",
			"tested": 54001,
			"confirmed_cases": 3408,
			"deaths": 67,
			"latitude": 39.2364,
			"longitude": -89.4742
		},
		{
			"CountyName": "Morgan",
			"tested": 45621,
			"confirmed_cases": 3520,
			"deaths": 75,
			"latitude": 39.7341,
			"longitude": -90.2245
		},
		{
			"CountyName": "Moultrie",
			"tested": 19426,
			"confirmed_cases": 1471,
			"deaths": 22,
			"latitude": 39.6021,
			"longitude": -88.5952
		},
		{
			"CountyName": "Ogle",
			"tested": 48079,
			"confirmed_cases": 4907,
			"deaths": 71,
			"latitude": 41.997,
			"longitude": -89.3227
		},
		{
			"CountyName": "Out Of State",
			"tested": 107255,
			"confirmed_cases": 6,
			"deaths": 0,
			"latitude": 0.0,
			"longitude": 0.0
		},
		{
			"CountyName": "Peoria",
			"tested": 243587,
			"confirmed_cases": 16556,
			"deaths": 256,
			"latitude": 40.7156,
			"longitude": -89.7755
		},
		{
			"CountyName": "Perry",
			"tested": 33442,
			"confirmed_cases": 2991,
			"deaths": 57,
			"latitude": 38.0612,
			"longitude": -89.3227
		},
		{
			"CountyName": "Piatt",
			"tested": 25071,
			"confirmed_cases": 1287,
			"deaths": 13,
			"latitude": 40.02861312,
			"longitude": -88.57328
		},
		{
			"CountyName": "Pike",
			"tested": 14941,
			"confirmed_cases": 1664,
			"deaths": 48,
			"latitude": 39.5662,
			"longitude": -90.8294
		},
		{
			"CountyName": "Pope",
			"tested": 2436,
			"confirmed_cases": 279,
			"deaths": 3,
			"latitude": 37.4171,
			"longitude": -88.5952
		},
		{
			"CountyName": "Pulaski",
			"tested": 5124,
			"confirmed_cases": 666,
			"deaths": 5,
			"latitude": 37.2512,
			"longitude": -89.1325
		},
		{
			"CountyName": "Putnam",
			"tested": 4771,
			"confirmed_cases": 398,
			"deaths": 3,
			"latitude": 41.2385,
			"longitude": -89.2847
		},
		{
			"CountyName": "Randolph",
			"tested": 43280,
			"confirmed_cases": 3933,
			"deaths": 76,
			"latitude": 38.0629,
			"longitude": -89.7755
		},
		{
			"CountyName": "Richland",
			"tested": 20532,
			"confirmed_cases": 1628,
			"deaths": 38,
			"latitude": 38.7213,
			"longitude": -88.0901
		},
		{
			"CountyName": "Rock Island",
			"tested": 154754,
			"confirmed_cases": 12829,
			"deaths": 280,
			"latitude": 41.5095,
			"longitude": -90.5787
		},
		{
			"CountyName": "Saline",
			"tested": 26776,
			"confirmed_cases": 2246,
			"deaths": 44,
			"latitude": 37.715,
			"longitude": -88.5565
		},
		{
			"CountyName": "Sangamon",
			"tested": 290421,
			"confirmed_cases": 15832,
			"deaths": 214,
			"latitude": 39.7337,
			"longitude": -89.6252
		},
		{
			"CountyName": "Schuyler",
			"tested": 9810,
			"confirmed_cases": 666,
			"deaths": 5,
			"latitude": 40.1845,
			"longitude": -90.6394
		},
		{
			"CountyName": "Scott",
			"tested": 6953,
			"confirmed_cases": 444,
			"deaths": 1,
			"latitude": 39.6095,
			"longitude": -90.488
		},
		{
			"CountyName": "Shelby",
			"tested": 20668,
			"confirmed_cases": 2096,
			"deaths": 33,
			"latitude": 39.3981,
			"longitude": -88.8647
		},
		{
			"CountyName": "St. Clair",
			"tested": 287597,
			"confirmed_cases": 24808,
			"deaths": 449,
			"latitude": 38.4008,
			"longitude": -89.9253
		},
		{
			"CountyName": "Stark",
			"tested": 7264,
			"confirmed_cases": 528,
			"deaths": 22,
			"latitude": 41.0796,
			"longitude": -89.813
		},
		{
			"CountyName": "Stephenson",
			"tested": 44800,
			"confirmed_cases": 3977,
			"deaths": 71,
			"latitude": 42.3145,
			"longitude": -89.6252
		},
		{
			"CountyName": "Tazewell",
			"tested": 171667,
			"confirmed_cases": 13175,
			"deaths": 235,
			"latitude": 40.5522,
			"longitude": -89.4742
		},
		{
			"CountyName": "Unassigned",
			"tested": 99459,
			"confirmed_cases": 61,
			"deaths": 0,
			"latitude": -89.510168,
			"longitude": 39.839888
		},
		{
			"CountyName": "Union",
			"tested": 27686,
			"confirmed_cases": 2168,
			"deaths": 31,
			"latitude": 37.5087,
			"longitude": -89.2847
		},
		{
			"CountyName": "Vermilion",
			"tested": 104140,
			"confirmed_cases": 8374,
			"deaths": 113,
			"latitude": 40.1225,
			"longitude": -87.6976
		},
		{
			"CountyName": "Wabash",
			"tested": 11572,
			"confirmed_cases": 1289,
			"deaths": 12,
			"latitude": 38.4226,
			"longitude": -87.8157
		},
		{
			"CountyName": "Warren",
			"tested": 14399,
			"confirmed_cases": 1655,
			"deaths": 43,
			"latitude": 40.8759,
			"longitude": -90.6773
		},
		{
			"CountyName": "Washington",
			"tested": 10813,
			"confirmed_cases": 1562,
			"deaths": 23,
			"latitude": 38.3989,
			"longitude": -89.3227
		},
		{
			"CountyName": "Wayne",
			"tested": 13570,
			"confirmed_cases": 1649,
			"deaths": 45,
			"latitude": 38.39,
			"longitude": -88.4016
		},
		{
			"CountyName": "White",
			"tested": 19681,
			"confirmed_cases": 1581,
			"deaths": 23,
			"latitude": 38.0501,
			"longitude": -88.2461
		},
		{
			"CountyName": "Whiteside",
			"tested": 53927,
			"confirmed_cases": 5794,
			"deaths": 143,
			"latitude": 41.7606,
			"longitude": -89.8505
		},
		{
			"CountyName": "Will",
			"tested": 683333,
			"confirmed_cases": 63481,
			"deaths": 873,
			"latitude": 41.5055,
			"longitude": -88.0901
		},
		{
			"CountyName": "Williamson",
			"tested": 82001,
			"confirmed_cases": 6701,
			"deaths": 116,
			"latitude": 37.7183,
			"longitude": -88.8647
		},
		{
			"CountyName": "Winnebago",
			"tested": 309688,
			"confirmed_cases": 27960,
			"deaths": 425,
			"latitude": 42.3121,
			"longitude": -89.1706
		},
		{
			"CountyName": "Woodford",
			"tested": 52865,
			"confirmed_cases": 3568,
			"deaths": 60,
			"latitude": 40.7129,
			"longitude": -89.1706
		}
	]
}