{
  "LastUpdateDate": {
    "year": 2020,
    "month": 9,
    "day": 13
  },
  "county_rates": [
    {
      "County": "Adams",
      "confirmed_cases": 876,
      "confirmed_rate_per_10k": 133.352,
      "confirmed_rate_per_100k": 1333.52,
      "deaths": 10,
      "deaths_rate_per_10k": 1.52228,
      "deaths_rate_per_100k": 15.2228,
      "total_tested": 27942,
      "test_rate_per_10k": 4253.55,
      "test_rate_per_100k": 42535.5,
      "total_population": 65691,
      "latitude": 40.057800,
      "longitude": -91.135300
    },
    {
      "County": "Alexander",
      "confirmed_cases": 60,
      "confirmed_rate_per_10k": 99.0099,
      "confirmed_rate_per_100k": 990.099,
      "deaths": 1,
      "deaths_rate_per_10k": 1.65017,
      "deaths_rate_per_100k": 16.5017,
      "total_tested": 1602,
      "test_rate_per_10k": 2643.56,
      "test_rate_per_100k": 26435.6,
      "total_population": 6060,
      "latitude": 37.167000,
      "longitude": -89.360600
    },
    {
      "County": "Bond",
      "confirmed_cases": 231,
      "confirmed_rate_per_10k": 138.906,
      "confirmed_rate_per_100k": 1389.06,
      "deaths": 4,
      "deaths_rate_per_10k": 2.40529,
      "deaths_rate_per_100k": 24.0529,
      "total_tested": 5306,
      "test_rate_per_10k": 3190.62,
      "test_rate_per_100k": 31906.2,
      "total_population": 16630,
      "latitude": 38.903000,
      "longitude": -89.474200
    },
    {
      "County": "Boone",
      "confirmed_cases": 955,
      "confirmed_rate_per_10k": 178.248,
      "confirmed_rate_per_100k": 1782.48,
      "deaths": 23,
      "deaths_rate_per_10k": 4.29289,
      "deaths_rate_per_100k": 42.9289,
      "total_tested": 13092,
      "test_rate_per_10k": 2443.59,
      "test_rate_per_100k": 24435.9,
      "total_population": 53577,
      "latitude": 42.348500,
      "longitude": -88.826300
    },
    {
      "County": "Brown",
      "confirmed_cases": 26,
      "confirmed_rate_per_10k": 39.6583,
      "confirmed_rate_per_100k": 396.583,
      "deaths": 0,
      "deaths_rate_per_10k": 0,
      "deaths_rate_per_100k": 0,
      "total_tested": 1361,
      "test_rate_per_10k": 2075.96,
      "test_rate_per_100k": 20759.6,
      "total_population": 6556,
      "latitude": 39.938000,
      "longitude": -90.715300
    },
    {
      "County": "Bureau",
      "confirmed_cases": 489,
      "confirmed_rate_per_10k": 148.213,
      "confirmed_rate_per_100k": 1482.13,
      "deaths": 9,
      "deaths_rate_per_10k": 2.72785,
      "deaths_rate_per_100k": 27.2785,
      "total_tested": 7219,
      "test_rate_per_10k": 2188.04,
      "test_rate_per_100k": 21880.4,
      "total_population": 32993,
      "latitude": 41.359900,
      "longitude": -89.474200
    },
    {
      "County": "Calhoun",
      "confirmed_cases": 34,
      "confirmed_rate_per_10k": 70.8038,
      "confirmed_rate_per_100k": 708.038,
      "deaths": 0,
      "deaths_rate_per_10k": 0,
      "deaths_rate_per_100k": 0,
      "total_tested": 935,
      "test_rate_per_10k": 1947.11,
      "test_rate_per_100k": 19471.1,
      "total_population": 4802,
      "latitude": 39.173300,
      "longitude": -90.658300
    },
    {
      "County": "Carroll",
      "confirmed_cases": 159,
      "confirmed_rate_per_10k": 111.096,
      "confirmed_rate_per_100k": 1110.96,
      "deaths": 4,
      "deaths_rate_per_10k": 2.79486,
      "deaths_rate_per_100k": 27.9486,
      "total_tested": 3051,
      "test_rate_per_10k": 2131.78,
      "test_rate_per_100k": 21317.8,
      "total_population": 14312,
      "latitude": 42.038600,
      "longitude": -89.962700
    },
    {
      "County": "Cass",
      "confirmed_cases": 351,
      "confirmed_rate_per_10k": 286.297,
      "confirmed_rate_per_100k": 2862.97,
      "deaths": 11,
      "deaths_rate_per_10k": 8.97227,
      "deaths_rate_per_100k": 89.7227,
      "total_tested": 4356,
      "test_rate_per_10k": 3553.02,
      "test_rate_per_100k": 35530.2,
      "total_population": 12260,
      "latitude": 39.939900,
      "longitude": -90.262000
    },
    {
      "County": "Champaign",
      "confirmed_cases": 4035,
      "confirmed_rate_per_10k": 192.158,
      "confirmed_rate_per_100k": 1921.58,
      "deaths": 20,
      "deaths_rate_per_10k": 0.952458,
      "deaths_rate_per_100k": 9.52458,
      "total_tested": 373244,
      "test_rate_per_10k": 17775,
      "test_rate_per_100k": 177750,
      "total_population": 209983,
      "latitude": 40.213900,
      "longitude": -88.246100
    },
    {
      "County": "Chicago",
      "confirmed_cases": 75152,
      "confirmed_rate_per_10k": 277.724,
      "confirmed_rate_per_100k": 2777.24,
      "deaths": 2916,
      "deaths_rate_per_10k": 10.7761,
      "deaths_rate_per_100k": 107.761,
      "total_tested": 1021655,
      "test_rate_per_10k": 3775.53,
      "test_rate_per_100k": 37755.3,
      "total_population": 2705994,
      "latitude": 41.789896,
      "longitude": -87.627734
    },
    {
      "County": "Christian",
      "confirmed_cases": 305,
      "confirmed_rate_per_10k": 93.3835,
      "confirmed_rate_per_100k": 933.835,
      "deaths": 9,
      "deaths_rate_per_10k": 2.75558,
      "deaths_rate_per_100k": 27.5558,
      "total_tested": 9910,
      "test_rate_per_10k": 3034.2,
      "test_rate_per_100k": 30342,
      "total_population": 32661,
      "latitude": 39.567200,
      "longitude": -89.322700
    },
    {
      "County": "Clark",
      "confirmed_cases": 137,
      "confirmed_rate_per_10k": 87.843,
      "confirmed_rate_per_100k": 878.43,
      "deaths": 2,
      "deaths_rate_per_10k": 1.28238,
      "deaths_rate_per_100k": 12.8238,
      "total_tested": 3994,
      "test_rate_per_10k": 2560.91,
      "test_rate_per_100k": 25609.1,
      "total_population": 15596,
      "latitude": 39.382400,
      "longitude": -87.776300
    },
    {
      "County": "Clay",
      "confirmed_cases": 129,
      "confirmed_rate_per_10k": 97.3365,
      "confirmed_rate_per_100k": 973.365,
      "deaths": 0,
      "deaths_rate_per_10k": 0,
      "deaths_rate_per_100k": 0,
      "total_tested": 2953,
      "test_rate_per_10k": 2228.17,
      "test_rate_per_100k": 22281.7,
      "total_population": 13253,
      "latitude": 38.727900,
      "longitude": -88.556500
    },
    {
      "County": "Clinton",
      "confirmed_cases": 950,
      "confirmed_rate_per_10k": 252.398,
      "confirmed_rate_per_100k": 2523.98,
      "deaths": 19,
      "deaths_rate_per_10k": 5.04796,
      "deaths_rate_per_100k": 50.4796,
      "total_tested": 10821,
      "test_rate_per_10k": 2874.94,
      "test_rate_per_100k": 28749.4,
      "total_population": 37639,
      "latitude": 38.568400,
      "longitude": -89.625200
    },
    {
      "County": "Coles",
      "confirmed_cases": 1237,
      "confirmed_rate_per_10k": 243.097,
      "confirmed_rate_per_100k": 2430.97,
      "deaths": 26,
      "deaths_rate_per_10k": 5.10956,
      "deaths_rate_per_100k": 51.0956,
      "total_tested": 21839,
      "test_rate_per_10k": 4291.83,
      "test_rate_per_100k": 42918.3,
      "total_population": 50885,
      "latitude": 39.556000,
      "longitude": -88.246100
    },
    {
      "County": "Cook",
      "confirmed_cases": 59649,
      "confirmed_rate_per_10k": 241.055,
      "confirmed_rate_per_100k": 2410.55,
      "deaths": 2217,
      "deaths_rate_per_10k": 8.95939,
      "deaths_rate_per_100k": 89.5939,
      "total_tested": 860582,
      "test_rate_per_10k": 3477.8,
      "test_rate_per_100k": 34778,
      "total_population": 2474499,
      "latitude": 42.050784,
      "longitude": -87.963759
    },
    {
      "County": "Crawford",
      "confirmed_cases": 255,
      "confirmed_rate_per_10k": 135.588,
      "confirmed_rate_per_100k": 1355.88,
      "deaths": 1,
      "deaths_rate_per_10k": 0.531717,
      "deaths_rate_per_100k": 5.31717,
      "total_tested": 3158,
      "test_rate_per_10k": 1679.16,
      "test_rate_per_100k": 16791.6,
      "total_population": 18807,
      "latitude": 41.833000,
      "longitude": -88.710900
    },
    {
      "County": "Cumberland",
      "confirmed_cases": 182,
      "confirmed_rate_per_10k": 168.394,
      "confirmed_rate_per_100k": 1683.94,
      "deaths": 4,
      "deaths_rate_per_10k": 3.70096,
      "deaths_rate_per_100k": 37.0096,
      "total_tested": 3498,
      "test_rate_per_10k": 3236.49,
      "test_rate_per_100k": 32364.9,
      "total_population": 10808,
      "latitude": 39.265400,
      "longitude": -88.207200
    },
    {
      "County": "De Witt",
      "confirmed_cases": 75,
      "confirmed_rate_per_10k": 47.5617,
      "confirmed_rate_per_100k": 475.617,
      "deaths": 1,
      "deaths_rate_per_10k": 0.634156,
      "deaths_rate_per_100k": 6.34156,
      "total_tested": 3142,
      "test_rate_per_10k": 1992.52,
      "test_rate_per_100k": 19925.2,
      "total_population": 15769,
      "latitude": 40.181000,
      "longitude": -88.903100
    },
    {
      "County": "DeKalb",
      "confirmed_cases": 1317,
      "confirmed_rate_per_10k": 126.461,
      "confirmed_rate_per_100k": 1264.61,
      "deaths": 36,
      "deaths_rate_per_10k": 3.45679,
      "deaths_rate_per_100k": 34.5679,
      "total_tested": 25819,
      "test_rate_per_10k": 2479.19,
      "test_rate_per_100k": 24791.9,
      "total_population": 104143,
      "latitude": 41.833000,
      "longitude": -88.710900
    },
    {
      "County": "Douglas",
      "confirmed_cases": 260,
      "confirmed_rate_per_10k": 133.477,
      "confirmed_rate_per_100k": 1334.77,
      "deaths": 5,
      "deaths_rate_per_10k": 2.56687,
      "deaths_rate_per_100k": 25.6687,
      "total_tested": 7169,
      "test_rate_per_10k": 3680.37,
      "test_rate_per_100k": 36803.7,
      "total_population": 19479,
      "latitude": 39.761800,
      "longitude": -88.207200
    },
    {
      "County": "DuPage",
      "confirmed_cases": 16022,
      "confirmed_rate_per_10k": 172.541,
      "confirmed_rate_per_100k": 1725.41,
      "deaths": 545,
      "deaths_rate_per_10k": 5.86912,
      "deaths_rate_per_100k": 58.6912,
      "total_tested": 286829,
      "test_rate_per_10k": 3088.87,
      "test_rate_per_100k": 30888.7,
      "total_population": 928589,
      "latitude": 41.824400,
      "longitude": -88.090100
    },
    {
      "County": "Edgar",
      "confirmed_cases": 104,
      "confirmed_rate_per_10k": 59.9078,
      "confirmed_rate_per_100k": 599.078,
      "deaths": 3,
      "deaths_rate_per_10k": 1.72811,
      "deaths_rate_per_100k": 17.2811,
      "total_tested": 2844,
      "test_rate_per_10k": 1638.25,
      "test_rate_per_100k": 16382.5,
      "total_population": 17360,
      "latitude": 39.713100,
      "longitude": -87.776300
    },
    {
      "County": "Edwards",
      "confirmed_cases": 55,
      "confirmed_rate_per_10k": 86.0451,
      "confirmed_rate_per_100k": 860.451,
      "deaths": 0,
      "deaths_rate_per_10k": 0,
      "deaths_rate_per_100k": 0,
      "total_tested": 733,
      "test_rate_per_10k": 1146.75,
      "test_rate_per_100k": 11467.5,
      "total_population": 6392,
      "latitude": 38.426800,
      "longitude": -88.051000
    },
    {
      "County": "Effingham",
      "confirmed_cases": 744,
      "confirmed_rate_per_10k": 217.493,
      "confirmed_rate_per_100k": 2174.93,
      "deaths": 1,
      "deaths_rate_per_10k": 0.292329,
      "deaths_rate_per_100k": 2.92329,
      "total_tested": 10211,
      "test_rate_per_10k": 2984.97,
      "test_rate_per_100k": 29849.7,
      "total_population": 34208,
      "latitude": 39.062200,
      "longitude": -88.556500
    },
    {
      "County": "Fayette",
      "confirmed_cases": 255,
      "confirmed_rate_per_10k": 119.07,
      "confirmed_rate_per_100k": 1190.7,
      "deaths": 3,
      "deaths_rate_per_10k": 1.40082,
      "deaths_rate_per_100k": 14.0082,
      "total_tested": 4913,
      "test_rate_per_10k": 2294.08,
      "test_rate_per_100k": 22940.8,
      "total_population": 21416,
      "latitude": 39.067000,
      "longitude": -89.017900
    },
    {
      "County": "Ford",
      "confirmed_cases": 86,
      "confirmed_rate_per_10k": 64.8372,
      "confirmed_rate_per_100k": 648.372,
      "deaths": 4,
      "deaths_rate_per_10k": 3.01568,
      "deaths_rate_per_100k": 30.1568,
      "total_tested": 4183,
      "test_rate_per_10k": 3153.65,
      "test_rate_per_100k": 31536.5,
      "total_population": 13264,
      "latitude": 40.498900,
      "longitude": -88.207200
    },
    {
      "County": "Franklin",
      "confirmed_cases": 427,
      "confirmed_rate_per_10k": 110.333,
      "confirmed_rate_per_100k": 1103.33,
      "deaths": 1,
      "deaths_rate_per_10k": 0.258391,
      "deaths_rate_per_100k": 2.58391,
      "total_tested": 10064,
      "test_rate_per_10k": 2600.45,
      "test_rate_per_100k": 26004.5,
      "total_population": 38701,
      "latitude": 38.015700,
      "longitude": -88.903100
    },
    {
      "County": "Fulton",
      "confirmed_cases": 119,
      "confirmed_rate_per_10k": 34.1522,
      "confirmed_rate_per_100k": 341.522,
      "deaths": 0,
      "deaths_rate_per_10k": 0,
      "deaths_rate_per_100k": 0,
      "total_tested": 8470,
      "test_rate_per_10k": 2430.83,
      "test_rate_per_100k": 24308.3,
      "total_population": 34844,
      "latitude": 40.553200,
      "longitude": -90.224500
    },
    {
      "County": "Gallatin",
      "confirmed_cases": 68,
      "confirmed_rate_per_10k": 134.44,
      "confirmed_rate_per_100k": 1344.4,
      "deaths": 2,
      "deaths_rate_per_10k": 3.95413,
      "deaths_rate_per_100k": 39.5413,
      "total_tested": 699,
      "test_rate_per_10k": 1381.97,
      "test_rate_per_100k": 13819.7,
      "total_population": 5058,
      "latitude": 37.710800,
      "longitude": -88.246100
    },
    {
      "County": "Greene",
      "confirmed_cases": 183,
      "confirmed_rate_per_10k": 140.294,
      "confirmed_rate_per_100k": 1402.94,
      "deaths": 2,
      "deaths_rate_per_10k": 1.53327,
      "deaths_rate_per_100k": 15.3327,
      "total_tested": 3102,
      "test_rate_per_10k": 2378.1,
      "test_rate_per_100k": 23781,
      "total_population": 13044,
      "latitude": 39.403000,
      "longitude": -90.374800
    },
    {
      "County": "Grundy",
      "confirmed_cases": 579,
      "confirmed_rate_per_10k": 113.592,
      "confirmed_rate_per_100k": 1135.92,
      "deaths": 5,
      "deaths_rate_per_10k": 0.980931,
      "deaths_rate_per_100k": 9.80931,
      "total_tested": 9540,
      "test_rate_per_10k": 1871.62,
      "test_rate_per_100k": 18716.2,
      "total_population": 50972,
      "latitude": 41.350100,
      "longitude": -88.401600
    },
    {
      "County": "Hamilton",
      "confirmed_cases": 52,
      "confirmed_rate_per_10k": 63.7021,
      "confirmed_rate_per_100k": 637.021,
      "deaths": 0,
      "deaths_rate_per_10k": 0,
      "deaths_rate_per_100k": 0,
      "total_tested": 1193,
      "test_rate_per_10k": 1461.47,
      "test_rate_per_100k": 14614.7,
      "total_population": 8163,
      "latitude": 38.054300,
      "longitude": -88.556500
    },
    {
      "County": "Hancock",
      "confirmed_cases": 170,
      "confirmed_rate_per_10k": 95.2701,
      "confirmed_rate_per_100k": 952.701,
      "deaths": 2,
      "deaths_rate_per_10k": 1.12082,
      "deaths_rate_per_100k": 11.2082,
      "total_tested": 4930,
      "test_rate_per_10k": 2762.83,
      "test_rate_per_100k": 27628.3,
      "total_population": 17844,
      "latitude": 40.384900,
      "longitude": -91.135300
    },
    {
      "County": "Hardin",
      "confirmed_cases": 26,
      "confirmed_rate_per_10k": 66.4962,
      "confirmed_rate_per_100k": 664.962,
      "deaths": 0,
      "deaths_rate_per_10k": 0,
      "deaths_rate_per_100k": 0,
      "total_tested": 776,
      "test_rate_per_10k": 1984.65,
      "test_rate_per_100k": 19846.5,
      "total_population": 3910,
      "latitude": 37.499500,
      "longitude": -88.362800
    },
    {
      "County": "Henderson",
      "confirmed_cases": 60,
      "confirmed_rate_per_10k": 89.4321,
      "confirmed_rate_per_100k": 894.321,
      "deaths": 0,
      "deaths_rate_per_10k": 0,
      "deaths_rate_per_100k": 0,
      "total_tested": 1089,
      "test_rate_per_10k": 1623.19,
      "test_rate_per_100k": 16231.9,
      "total_population": 6709,
      "latitude": 40.833600,
      "longitude": -90.943800
    },
    {
      "County": "Henry",
      "confirmed_cases": 576,
      "confirmed_rate_per_10k": 117.336,
      "confirmed_rate_per_100k": 1173.36,
      "deaths": 4,
      "deaths_rate_per_10k": 0.81483,
      "deaths_rate_per_100k": 8.1483,
      "total_tested": 14351,
      "test_rate_per_10k": 2923.41,
      "test_rate_per_100k": 29234.1,
      "total_population": 49090,
      "latitude": 41.361100,
      "longitude": -90.074700
    },
    {
      "County": "Iroquois",
      "confirmed_cases": 335,
      "confirmed_rate_per_10k": 121.359,
      "confirmed_rate_per_100k": 1213.59,
      "deaths": 19,
      "deaths_rate_per_10k": 6.88306,
      "deaths_rate_per_100k": 68.8306,
      "total_tested": 10030,
      "test_rate_per_10k": 3633.53,
      "test_rate_per_100k": 36335.3,
      "total_population": 27604,
      "latitude": 40.774000,
      "longitude": -87.697600
    },
    {
      "County": "Jackson",
      "confirmed_cases": 1144,
      "confirmed_rate_per_10k": 199.237,
      "confirmed_rate_per_100k": 1992.37,
      "deaths": 24,
      "deaths_rate_per_10k": 4.1798,
      "deaths_rate_per_100k": 41.798,
      "total_tested": 16350,
      "test_rate_per_10k": 2847.49,
      "test_rate_per_100k": 28474.9,
      "total_population": 57419,
      "latitude": 37.721800,
      "longitude": -89.322700
    },
    {
      "County": "Jasper",
      "confirmed_cases": 180,
      "confirmed_rate_per_10k": 187.285,
      "confirmed_rate_per_100k": 1872.85,
      "deaths": 7,
      "deaths_rate_per_10k": 7.28332,
      "deaths_rate_per_100k": 72.8332,
      "total_tested": 2398,
      "test_rate_per_10k": 2495.06,
      "test_rate_per_100k": 24950.6,
      "total_population": 9611,
      "latitude": 39.055500,
      "longitude": -88.090100
    },
    {
      "County": "Jefferson",
      "confirmed_cases": 513,
      "confirmed_rate_per_10k": 135.643,
      "confirmed_rate_per_100k": 1356.43,
      "deaths": 37,
      "deaths_rate_per_10k": 9.78318,
      "deaths_rate_per_100k": 97.8318,
      "total_tested": 7940,
      "test_rate_per_10k": 2099.42,
      "test_rate_per_100k": 20994.2,
      "total_population": 37820,
      "latitude": 38.226700,
      "longitude": -88.864700
    },
    {
      "County": "Jersey",
      "confirmed_cases": 356,
      "confirmed_rate_per_10k": 162.951,
      "confirmed_rate_per_100k": 1629.51,
      "deaths": 12,
      "deaths_rate_per_10k": 5.49274,
      "deaths_rate_per_100k": 54.9274,
      "total_tested": 5403,
      "test_rate_per_10k": 2473.11,
      "test_rate_per_100k": 24731.1,
      "total_population": 21847,
      "latitude": 39.070500,
      "longitude": -90.374800
    },
    {
      "County": "Jo Daviess",
      "confirmed_cases": 212,
      "confirmed_rate_per_10k": 99.2231,
      "confirmed_rate_per_100k": 992.231,
      "deaths": 2,
      "deaths_rate_per_10k": 0.936067,
      "deaths_rate_per_100k": 9.36067,
      "total_tested": 4649,
      "test_rate_per_10k": 2175.89,
      "test_rate_per_100k": 21758.9,
      "total_population": 21366,
      "latitude": 42.314900,
      "longitude": -90.224500
    },
    {
      "County": "Johnson",
      "confirmed_cases": 130,
      "confirmed_rate_per_10k": 104.367,
      "confirmed_rate_per_100k": 1043.67,
      "deaths": 0,
      "deaths_rate_per_10k": 0,
      "deaths_rate_per_100k": 0,
      "total_tested": 2356,
      "test_rate_per_10k": 1891.46,
      "test_rate_per_100k": 18914.6,
      "total_population": 12456,
      "latitude": 37.420400,
      "longitude": -88.903100
    },
    {
      "County": "Kane",
      "confirmed_cases": 12081,
      "confirmed_rate_per_10k": 226.144,
      "confirmed_rate_per_100k": 2261.44,
      "deaths": 323,
      "deaths_rate_per_10k": 6.04624,
      "deaths_rate_per_100k": 60.4624,
      "total_tested": 154373,
      "test_rate_per_10k": 2889.71,
      "test_rate_per_100k": 28897.1,
      "total_population": 534216,
      "latitude": 41.987900,
      "longitude": -88.401600
    },
    {
      "County": "Kankakee",
      "confirmed_cases": 2528,
      "confirmed_rate_per_10k": 229.768,
      "confirmed_rate_per_100k": 2297.68,
      "deaths": 72,
      "deaths_rate_per_10k": 6.54403,
      "deaths_rate_per_100k": 65.4403,
      "total_tested": 45289,
      "test_rate_per_10k": 4116.28,
      "test_rate_per_100k": 41162.8,
      "total_population": 110024,
      "latitude": 41.179100,
      "longitude": -87.776300
    },
    {
      "County": "Kendall",
      "confirmed_cases": 1806,
      "confirmed_rate_per_10k": 141.188,
      "confirmed_rate_per_100k": 1411.88,
      "deaths": 25,
      "deaths_rate_per_10k": 1.95442,
      "deaths_rate_per_100k": 19.5442,
      "total_tested": 29955,
      "test_rate_per_10k": 2341.79,
      "test_rate_per_100k": 23417.9,
      "total_population": 127915,
      "latitude": 41.550700,
      "longitude": -88.440400
    },
    {
      "County": "Knox",
      "confirmed_cases": 525,
      "confirmed_rate_per_10k": 104.765,
      "confirmed_rate_per_100k": 1047.65,
      "deaths": 3,
      "deaths_rate_per_10k": 0.598659,
      "deaths_rate_per_100k": 5.98659,
      "total_tested": 14455,
      "test_rate_per_10k": 2884.54,
      "test_rate_per_100k": 28845.4,
      "total_population": 50112,
      "latitude": 40.877600,
      "longitude": -90.224500
    },
    {
      "County": "Lake",
      "confirmed_cases": 15776,
      "confirmed_rate_per_10k": 225.104,
      "confirmed_rate_per_100k": 2251.04,
      "deaths": 481,
      "deaths_rate_per_10k": 6.86327,
      "deaths_rate_per_100k": 68.6327,
      "total_tested": 219769,
      "test_rate_per_10k": 3135.83,
      "test_rate_per_100k": 31358.3,
      "total_population": 700832,
      "latitude": 42.368900,
      "longitude": -87.827200
    },
    {
      "County": "LaSalle",
      "confirmed_cases": 1496,
      "confirmed_rate_per_10k": 136.708,
      "confirmed_rate_per_100k": 1367.08,
      "deaths": 54,
      "deaths_rate_per_10k": 4.93466,
      "deaths_rate_per_100k": 49.3466,
      "total_tested": 26601,
      "test_rate_per_10k": 2430.87,
      "test_rate_per_100k": 24308.7,
      "total_population": 109430,
      "latitude": 41.436400,
      "longitude": -88.941400
    },
    {
      "County": "Lawrence",
      "confirmed_cases": 233,
      "confirmed_rate_per_10k": 147.796,
      "confirmed_rate_per_100k": 1477.96,
      "deaths": 0,
      "deaths_rate_per_10k": 0,
      "deaths_rate_per_100k": 0,
      "total_tested": 4339,
      "test_rate_per_10k": 2752.3,
      "test_rate_per_100k": 27523,
      "total_population": 15765,
      "latitude": 38.715800,
      "longitude": -87.776300
    },
    {
      "County": "Lee",
      "confirmed_cases": 299,
      "confirmed_rate_per_10k": 87.3681,
      "confirmed_rate_per_100k": 873.681,
      "deaths": 1,
      "deaths_rate_per_10k": 0.292201,
      "deaths_rate_per_100k": 2.92201,
      "total_tested": 6457,
      "test_rate_per_10k": 1886.74,
      "test_rate_per_100k": 18867.4,
      "total_population": 34223,
      "latitude": 41.679000,
      "longitude": -89.322700
    },
    {
      "County": "Livingston",
      "confirmed_cases": 266,
      "confirmed_rate_per_10k": 74.3827,
      "confirmed_rate_per_100k": 743.827,
      "deaths": 4,
      "deaths_rate_per_10k": 1.11854,
      "deaths_rate_per_100k": 11.1854,
      "total_tested": 9548,
      "test_rate_per_10k": 2669.95,
      "test_rate_per_100k": 26699.5,
      "total_population": 35761,
      "latitude": 40.868900,
      "longitude": -88.556500
    },
    {
      "County": "Logan",
      "confirmed_cases": 386,
      "confirmed_rate_per_10k": 133.449,
      "confirmed_rate_per_100k": 1334.49,
      "deaths": 1,
      "deaths_rate_per_10k": 0.345722,
      "deaths_rate_per_100k": 3.45722,
      "total_tested": 12450,
      "test_rate_per_10k": 4304.24,
      "test_rate_per_100k": 43042.4,
      "total_population": 28925,
      "latitude": 40.061300,
      "longitude": -89.322700
    },
    {
      "County": "Macon",
      "confirmed_cases": 1224,
      "confirmed_rate_per_10k": 116.892,
      "confirmed_rate_per_100k": 1168.92,
      "deaths": 32,
      "deaths_rate_per_10k": 3.056,
      "deaths_rate_per_100k": 30.56,
      "total_tested": 31608,
      "test_rate_per_10k": 3018.57,
      "test_rate_per_100k": 30185.7,
      "total_population": 104712,
      "latitude": 39.894900,
      "longitude": -89.017900
    },
    {
      "County": "Macoupin",
      "confirmed_cases": 432,
      "confirmed_rate_per_10k": 95.3369,
      "confirmed_rate_per_100k": 953.369,
      "deaths": 6,
      "deaths_rate_per_10k": 1.32412,
      "deaths_rate_per_100k": 13.2412,
      "total_tested": 16154,
      "test_rate_per_10k": 3564.98,
      "test_rate_per_100k": 35649.8,
      "total_population": 45313,
      "latitude": 39.237500,
      "longitude": -89.925300
    },
    {
      "County": "Madison",
      "confirmed_cases": 4908,
      "confirmed_rate_per_10k": 185.585,
      "confirmed_rate_per_100k": 1855.85,
      "deaths": 119,
      "deaths_rate_per_10k": 4.49972,
      "deaths_rate_per_100k": 44.9972,
      "total_tested": 65918,
      "test_rate_per_10k": 2492.54,
      "test_rate_per_100k": 24925.4,
      "total_population": 264461,
      "latitude": 38.904100,
      "longitude": -89.925300
    },
    {
      "County": "Marion",
      "confirmed_cases": 427,
      "confirmed_rate_per_10k": 113.503,
      "confirmed_rate_per_100k": 1135.03,
      "deaths": 0,
      "deaths_rate_per_10k": 0,
      "deaths_rate_per_100k": 0,
      "total_tested": 9815,
      "test_rate_per_10k": 2608.98,
      "test_rate_per_100k": 26089.8,
      "total_population": 37620,
      "latitude": 38.731300,
      "longitude": -88.864700
    },
    {
      "County": "Marshall",
      "confirmed_cases": 71,
      "confirmed_rate_per_10k": 61.5571,
      "confirmed_rate_per_100k": 615.571,
      "deaths": 0,
      "deaths_rate_per_10k": 0,
      "deaths_rate_per_100k": 0,
      "total_tested": 2909,
      "test_rate_per_10k": 2522.11,
      "test_rate_per_100k": 25221.1,
      "total_population": 11534,
      "latitude": 40.997300,
      "longitude": -89.360600
    },
    {
      "County": "Mason",
      "confirmed_cases": 109,
      "confirmed_rate_per_10k": 80.3539,
      "confirmed_rate_per_100k": 803.539,
      "deaths": 1,
      "deaths_rate_per_10k": 0.737191,
      "deaths_rate_per_100k": 7.37191,
      "total_tested": 3962,
      "test_rate_per_10k": 2920.75,
      "test_rate_per_100k": 29207.5,
      "total_population": 13565,
      "latitude": 40.227100,
      "longitude": -89.925300
    },
    {
      "County": "Massac",
      "confirmed_cases": 83,
      "confirmed_rate_per_10k": 58.9489,
      "confirmed_rate_per_100k": 589.489,
      "deaths": 1,
      "deaths_rate_per_10k": 0.710227,
      "deaths_rate_per_100k": 7.10227,
      "total_tested": 2406,
      "test_rate_per_10k": 1708.81,
      "test_rate_per_100k": 17088.1,
      "total_population": 14080,
      "latitude": 37.247800,
      "longitude": -88.749400
    },
    {
      "County": "McDonough",
      "confirmed_cases": 404,
      "confirmed_rate_per_10k": 134.869,
      "confirmed_rate_per_100k": 1348.69,
      "deaths": 15,
      "deaths_rate_per_10k": 5.00751,
      "deaths_rate_per_100k": 50.0751,
      "total_tested": 7183,
      "test_rate_per_10k": 2397.93,
      "test_rate_per_100k": 23979.3,
      "total_population": 29955,
      "latitude": 40.388500,
      "longitude": -90.677300
    },
    {
      "County": "McHenry",
      "confirmed_cases": 4258,
      "confirmed_rate_per_10k": 137.991,
      "confirmed_rate_per_100k": 1379.91,
      "deaths": 117,
      "deaths_rate_per_10k": 3.79168,
      "deaths_rate_per_100k": 37.9168,
      "total_tested": 66887,
      "test_rate_per_10k": 2167.64,
      "test_rate_per_100k": 21676.4,
      "total_population": 308570,
      "latitude": 42.304000,
      "longitude": -88.401600
    },
    {
      "County": "McLean",
      "confirmed_cases": 2909,
      "confirmed_rate_per_10k": 168.318,
      "confirmed_rate_per_100k": 1683.18,
      "deaths": 18,
      "deaths_rate_per_10k": 1.0415,
      "deaths_rate_per_100k": 10.415,
      "total_tested": 62741,
      "test_rate_per_10k": 3630.26,
      "test_rate_per_100k": 36302.6,
      "total_population": 172828,
      "latitude": 40.547800,
      "longitude": -88.864700
    },
    {
      "County": "Menard",
      "confirmed_cases": 95,
      "confirmed_rate_per_10k": 77.3112,
      "confirmed_rate_per_100k": 773.112,
      "deaths": 0,
      "deaths_rate_per_10k": 0,
      "deaths_rate_per_100k": 0,
      "total_tested": 4088,
      "test_rate_per_10k": 3326.82,
      "test_rate_per_100k": 33268.2,
      "total_population": 12288,
      "latitude": 40.022100,
      "longitude": -89.813000
    },
    {
      "County": "Mercer",
      "confirmed_cases": 118,
      "confirmed_rate_per_10k": 75.6362,
      "confirmed_rate_per_100k": 756.362,
      "deaths": 5,
      "deaths_rate_per_10k": 3.20492,
      "deaths_rate_per_100k": 32.0492,
      "total_tested": 4067,
      "test_rate_per_10k": 2606.88,
      "test_rate_per_100k": 26068.8,
      "total_population": 15601,
      "latitude": 41.198500,
      "longitude": -90.677300
    },
    {
      "County": "Monroe",
      "confirmed_cases": 581,
      "confirmed_rate_per_10k": 169.215,
      "confirmed_rate_per_100k": 1692.15,
      "deaths": 15,
      "deaths_rate_per_10k": 4.36872,
      "deaths_rate_per_100k": 43.6872,
      "total_tested": 6538,
      "test_rate_per_10k": 1904.18,
      "test_rate_per_100k": 19041.8,
      "total_population": 34335,
      "latitude": 38.274300,
      "longitude": -90.187000
    },
    {
      "County": "Montgomery",
      "confirmed_cases": 287,
      "confirmed_rate_per_10k": 100.346,
      "confirmed_rate_per_100k": 1003.46,
      "deaths": 12,
      "deaths_rate_per_10k": 4.19566,
      "deaths_rate_per_100k": 41.9566,
      "total_tested": 11488,
      "test_rate_per_10k": 4016.64,
      "test_rate_per_100k": 40166.4,
      "total_population": 28601,
      "latitude": 39.236400,
      "longitude": -89.474200
    },
    {
      "County": "Morgan",
      "confirmed_cases": 591,
      "confirmed_rate_per_10k": 173.946,
      "confirmed_rate_per_100k": 1739.46,
      "deaths": 21,
      "deaths_rate_per_10k": 6.18083,
      "deaths_rate_per_100k": 61.8083,
      "total_tested": 11917,
      "test_rate_per_10k": 3507.48,
      "test_rate_per_100k": 35074.8,
      "total_population": 33976,
      "latitude": 39.734100,
      "longitude": -90.224500
    },
    {
      "County": "Moultrie",
      "confirmed_cases": 196,
      "confirmed_rate_per_10k": 133.179,
      "confirmed_rate_per_100k": 1331.79,
      "deaths": 3,
      "deaths_rate_per_10k": 2.03846,
      "deaths_rate_per_100k": 20.3846,
      "total_tested": 4136,
      "test_rate_per_10k": 2810.36,
      "test_rate_per_100k": 28103.6,
      "total_population": 14717,
      "latitude": 39.602100,
      "longitude": -88.595200
    },
    {
      "County": "Ogle",
      "confirmed_cases": 561,
      "confirmed_rate_per_10k": 110.166,
      "confirmed_rate_per_100k": 1101.66,
      "deaths": 5,
      "deaths_rate_per_10k": 0.981875,
      "deaths_rate_per_100k": 9.81875,
      "total_tested": 12424,
      "test_rate_per_10k": 2439.76,
      "test_rate_per_100k": 24397.6,
      "total_population": 50923,
      "latitude": 41.997000,
      "longitude": -89.322700
    },
    {
      "County": "Peoria",
      "confirmed_cases": 2898,
      "confirmed_rate_per_10k": 160.446,
      "confirmed_rate_per_100k": 1604.46,
      "deaths": 44,
      "deaths_rate_per_10k": 2.43604,
      "deaths_rate_per_100k": 24.3604,
      "total_tested": 75706,
      "test_rate_per_10k": 4191.43,
      "test_rate_per_100k": 41914.3,
      "total_population": 180621,
      "latitude": 40.715600,
      "longitude": -89.775500
    },
    {
      "County": "Perry",
      "confirmed_cases": 320,
      "confirmed_rate_per_10k": 151.129,
      "confirmed_rate_per_100k": 1511.29,
      "deaths": 13,
      "deaths_rate_per_10k": 6.13961,
      "deaths_rate_per_100k": 61.3961,
      "total_tested": 5707,
      "test_rate_per_10k": 2695.29,
      "test_rate_per_100k": 26952.9,
      "total_population": 21174,
      "latitude": 38.061200,
      "longitude": -89.322700
    },
    {
      "County": "Piatt",
      "confirmed_cases": 119,
      "confirmed_rate_per_10k": 72.5787,
      "confirmed_rate_per_100k": 725.787,
      "deaths": 0,
      "deaths_rate_per_10k": 0,
      "deaths_rate_per_100k": 0,
      "total_tested": 6840,
      "test_rate_per_10k": 4171.75,
      "test_rate_per_100k": 41717.5,
      "total_population": 16396,
      "latitude": 40.054400,
      "longitude": -88.855650
    },
    {
      "County": "Pike",
      "confirmed_cases": 99,
      "confirmed_rate_per_10k": 63.4168,
      "confirmed_rate_per_100k": 634.168,
      "deaths": 1,
      "deaths_rate_per_10k": 0.640574,
      "deaths_rate_per_100k": 6.40574,
      "total_tested": 2765,
      "test_rate_per_10k": 1771.19,
      "test_rate_per_100k": 17711.9,
      "total_population": 15611,
      "latitude": 39.566200,
      "longitude": -90.829400
    },
    {
      "County": "Pope",
      "confirmed_cases": 23,
      "confirmed_rate_per_10k": 54.6059,
      "confirmed_rate_per_100k": 546.059,
      "deaths": 1,
      "deaths_rate_per_10k": 2.37417,
      "deaths_rate_per_100k": 23.7417,
      "total_tested": 512,
      "test_rate_per_10k": 1215.57,
      "test_rate_per_100k": 12155.7,
      "total_population": 4212,
      "latitude": 37.417100,
      "longitude": -88.595200
    },
    {
      "County": "Pulaski",
      "confirmed_cases": 148,
      "confirmed_rate_per_10k": 270.913,
      "confirmed_rate_per_100k": 2709.13,
      "deaths": 1,
      "deaths_rate_per_10k": 1.8305,
      "deaths_rate_per_100k": 18.305,
      "total_tested": 1301,
      "test_rate_per_10k": 2381.48,
      "test_rate_per_100k": 23814.8,
      "total_population": 5463,
      "latitude": 37.251200,
      "longitude": -89.132500
    },
    {
      "County": "Putnam",
      "confirmed_cases": 31,
      "confirmed_rate_per_10k": 54.007,
      "confirmed_rate_per_100k": 540.07,
      "deaths": 0,
      "deaths_rate_per_10k": 0,
      "deaths_rate_per_100k": 0,
      "total_tested": 966,
      "test_rate_per_10k": 1682.93,
      "test_rate_per_100k": 16829.3,
      "total_population": 5740,
      "latitude": 41.238500,
      "longitude": -89.284700
    },
    {
      "County": "Randolph",
      "confirmed_cases": 854,
      "confirmed_rate_per_10k": 265.994,
      "confirmed_rate_per_100k": 2659.94,
      "deaths": 8,
      "deaths_rate_per_10k": 2.49175,
      "deaths_rate_per_100k": 24.9175,
      "total_tested": 10086,
      "test_rate_per_10k": 3141.47,
      "test_rate_per_100k": 31414.7,
      "total_population": 32106,
      "latitude": 38.062900,
      "longitude": -89.775500
    },
    {
      "County": "Richland",
      "confirmed_cases": 116,
      "confirmed_rate_per_10k": 73.5901,
      "confirmed_rate_per_100k": 735.901,
      "deaths": 4,
      "deaths_rate_per_10k": 2.53759,
      "deaths_rate_per_100k": 25.3759,
      "total_tested": 4389,
      "test_rate_per_10k": 2784.37,
      "test_rate_per_100k": 27843.7,
      "total_population": 15763,
      "latitude": 38.721300,
      "longitude": -88.090100
    },
    {
      "County": "Rock Island",
      "confirmed_cases": 2610,
      "confirmed_rate_per_10k": 181.911,
      "confirmed_rate_per_100k": 1819.11,
      "deaths": 67,
      "deaths_rate_per_10k": 4.66974,
      "deaths_rate_per_100k": 46.6974,
      "total_tested": 52233,
      "test_rate_per_10k": 3640.51,
      "test_rate_per_100k": 36405.1,
      "total_population": 143477,
      "latitude": 41.509500,
      "longitude": -90.578700
    },
    {
      "County": "Saline",
      "confirmed_cases": 211,
      "confirmed_rate_per_10k": 88.2624,
      "confirmed_rate_per_100k": 882.624,
      "deaths": 3,
      "deaths_rate_per_10k": 1.25492,
      "deaths_rate_per_100k": 12.5492,
      "total_tested": 5558,
      "test_rate_per_10k": 2324.94,
      "test_rate_per_100k": 23249.4,
      "total_population": 23906,
      "latitude": 37.715000,
      "longitude": -88.556500
    },
    {
      "County": "Sangamon",
      "confirmed_cases": 2113,
      "confirmed_rate_per_10k": 108.166,
      "confirmed_rate_per_100k": 1081.66,
      "deaths": 42,
      "deaths_rate_per_10k": 2.15001,
      "deaths_rate_per_100k": 21.5001,
      "total_tested": 89354,
      "test_rate_per_10k": 4574.09,
      "test_rate_per_100k": 45740.9,
      "total_population": 195348,
      "latitude": 39.733700,
      "longitude": -89.625200
    },
    {
      "County": "Schuyler",
      "confirmed_cases": 34,
      "confirmed_rate_per_10k": 49.2254,
      "confirmed_rate_per_100k": 492.254,
      "deaths": 0,
      "deaths_rate_per_10k": 0,
      "deaths_rate_per_100k": 0,
      "total_tested": 1577,
      "test_rate_per_10k": 2283.19,
      "test_rate_per_100k": 22831.9,
      "total_population": 6907,
      "latitude": 40.184500,
      "longitude": -90.639400
    },
    {
      "County": "Scott",
      "confirmed_cases": 62,
      "confirmed_rate_per_10k": 125.863,
      "confirmed_rate_per_100k": 1258.63,
      "deaths": 0,
      "deaths_rate_per_10k": 0,
      "deaths_rate_per_100k": 0,
      "total_tested": 1847,
      "test_rate_per_10k": 3749.49,
      "test_rate_per_100k": 37494.9,
      "total_population": 4926,
      "latitude": 39.609500,
      "longitude": -90.488000
    },
    {
      "County": "Shelby",
      "confirmed_cases": 304,
      "confirmed_rate_per_10k": 139.828,
      "confirmed_rate_per_100k": 1398.28,
      "deaths": 3,
      "deaths_rate_per_10k": 1.37988,
      "deaths_rate_per_100k": 13.7988,
      "total_tested": 6115,
      "test_rate_per_10k": 2812.66,
      "test_rate_per_100k": 28126.6,
      "total_population": 21741,
      "latitude": 39.398100,
      "longitude": -88.864700
    },
    {
      "County": "St. Clair",
      "confirmed_cases": 5983,
      "confirmed_rate_per_10k": 229.182,
      "confirmed_rate_per_100k": 2291.82,
      "deaths": 178,
      "deaths_rate_per_10k": 6.81838,
      "deaths_rate_per_100k": 68.1838,
      "total_tested": 70266,
      "test_rate_per_10k": 2691.58,
      "test_rate_per_100k": 26915.8,
      "total_population": 261059,
      "latitude": 38.400800,
      "longitude": -89.925300
    },
    {
      "County": "Stark",
      "confirmed_cases": 45,
      "confirmed_rate_per_10k": 82.9187,
      "confirmed_rate_per_100k": 829.187,
      "deaths": 1,
      "deaths_rate_per_10k": 1.84264,
      "deaths_rate_per_100k": 18.4264,
      "total_tested": 1652,
      "test_rate_per_10k": 3044.04,
      "test_rate_per_100k": 30440.4,
      "total_population": 5427,
      "latitude": 41.079600,
      "longitude": -89.813000
    },
    {
      "County": "Stephenson",
      "confirmed_cases": 424,
      "confirmed_rate_per_10k": 94.7423,
      "confirmed_rate_per_100k": 947.423,
      "deaths": 6,
      "deaths_rate_per_10k": 1.34069,
      "deaths_rate_per_100k": 13.4069,
      "total_tested": 10342,
      "test_rate_per_10k": 2310.91,
      "test_rate_per_100k": 23109.1,
      "total_population": 44753,
      "latitude": 42.314500,
      "longitude": -89.625200
    },
    {
      "County": "Tazewell",
      "confirmed_cases": 1381,
      "confirmed_rate_per_10k": 104.362,
      "confirmed_rate_per_100k": 1043.62,
      "deaths": 12,
      "deaths_rate_per_10k": 0.906838,
      "deaths_rate_per_100k": 9.06838,
      "total_tested": 50512,
      "test_rate_per_10k": 3817.18,
      "test_rate_per_100k": 38171.8,
      "total_population": 132328,
      "latitude": 40.552200,
      "longitude": -89.474200
    },
    {
      "County": "Union",
      "confirmed_cases": 471,
      "confirmed_rate_per_10k": 279.675,
      "confirmed_rate_per_100k": 2796.75,
      "deaths": 24,
      "deaths_rate_per_10k": 14.2509,
      "deaths_rate_per_100k": 142.509,
      "total_tested": 5483,
      "test_rate_per_10k": 3255.74,
      "test_rate_per_100k": 32557.4,
      "total_population": 16841,
      "latitude": 37.508700,
      "longitude": -89.284700
    },
    {
      "County": "Vermilion",
      "confirmed_cases": 470,
      "confirmed_rate_per_10k": 61.1931,
      "confirmed_rate_per_100k": 611.931,
      "deaths": 4,
      "deaths_rate_per_10k": 0.520793,
      "deaths_rate_per_100k": 5.20793,
      "total_tested": 22034,
      "test_rate_per_10k": 2868.79,
      "test_rate_per_100k": 28687.9,
      "total_population": 76806,
      "latitude": 40.122500,
      "longitude": -87.697600
    },
    {
      "County": "Wabash",
      "confirmed_cases": 133,
      "confirmed_rate_per_10k": 115.161,
      "confirmed_rate_per_100k": 1151.61,
      "deaths": 1,
      "deaths_rate_per_10k": 0.865876,
      "deaths_rate_per_100k": 8.65876,
      "total_tested": 2176,
      "test_rate_per_10k": 1884.15,
      "test_rate_per_100k": 18841.5,
      "total_population": 11549,
      "latitude": 38.422600,
      "longitude": -87.815700
    },
    {
      "County": "Warren",
      "confirmed_cases": 282,
      "confirmed_rate_per_10k": 165.571,
      "confirmed_rate_per_100k": 1655.71,
      "deaths": 1,
      "deaths_rate_per_10k": 0.58713,
      "deaths_rate_per_100k": 5.8713,
      "total_tested": 3496,
      "test_rate_per_10k": 2052.61,
      "test_rate_per_100k": 20526.1,
      "total_population": 17032,
      "latitude": 40.875900,
      "longitude": -90.677300
    },
    {
      "County": "Washington",
      "confirmed_cases": 158,
      "confirmed_rate_per_10k": 112.897,
      "confirmed_rate_per_100k": 1128.97,
      "deaths": 1,
      "deaths_rate_per_10k": 0.714541,
      "deaths_rate_per_100k": 7.14541,
      "total_tested": 2544,
      "test_rate_per_10k": 1817.79,
      "test_rate_per_100k": 18177.9,
      "total_population": 13995,
      "latitude": 38.398900,
      "longitude": -89.322700
    },
    {
      "County": "Wayne",
      "confirmed_cases": 218,
      "confirmed_rate_per_10k": 133.48,
      "confirmed_rate_per_100k": 1334.8,
      "deaths": 4,
      "deaths_rate_per_10k": 2.44918,
      "deaths_rate_per_100k": 24.4918,
      "total_tested": 3347,
      "test_rate_per_10k": 2049.35,
      "test_rate_per_100k": 20493.5,
      "total_population": 16332,
      "latitude": 38.390000,
      "longitude": -88.401600
    },
    {
      "County": "White",
      "confirmed_cases": 149,
      "confirmed_rate_per_10k": 109.038,
      "confirmed_rate_per_100k": 1090.38,
      "deaths": 0,
      "deaths_rate_per_10k": 0,
      "deaths_rate_per_100k": 0,
      "total_tested": 3627,
      "test_rate_per_10k": 2654.23,
      "test_rate_per_100k": 26542.3,
      "total_population": 13665,
      "latitude": 38.050100,
      "longitude": -88.246100
    },
    {
      "County": "Whiteside",
      "confirmed_cases": 634,
      "confirmed_rate_per_10k": 113.975,
      "confirmed_rate_per_100k": 1139.75,
      "deaths": 19,
      "deaths_rate_per_10k": 3.41567,
      "deaths_rate_per_100k": 34.1567,
      "total_tested": 12516,
      "test_rate_per_10k": 2250.03,
      "test_rate_per_100k": 22500.3,
      "total_population": 55626,
      "latitude": 41.760600,
      "longitude": -89.850500
    },
    {
      "County": "Will",
      "confirmed_cases": 12820,
      "confirmed_rate_per_10k": 185.177,
      "confirmed_rate_per_100k": 1851.77,
      "deaths": 367,
      "deaths_rate_per_10k": 5.30109,
      "deaths_rate_per_100k": 53.0109,
      "total_tested": 187996,
      "test_rate_per_10k": 2715.49,
      "test_rate_per_100k": 27154.9,
      "total_population": 692310,
      "latitude": 41.505500,
      "longitude": -88.090100
    },
    {
      "County": "Williamson",
      "confirmed_cases": 1160,
      "confirmed_rate_per_10k": 172.99,
      "confirmed_rate_per_100k": 1729.9,
      "deaths": 27,
      "deaths_rate_per_10k": 4.02649,
      "deaths_rate_per_100k": 40.2649,
      "total_tested": 22158,
      "test_rate_per_10k": 3304.4,
      "test_rate_per_100k": 33044,
      "total_population": 67056,
      "latitude": 37.718300,
      "longitude": -88.864700
    },
    {
      "County": "Winnebago",
      "confirmed_cases": 4790,
      "confirmed_rate_per_10k": 168.614,
      "confirmed_rate_per_100k": 1686.14,
      "deaths": 148,
      "deaths_rate_per_10k": 5.20978,
      "deaths_rate_per_100k": 52.0978,
      "total_tested": 77460,
      "test_rate_per_10k": 2726.69,
      "test_rate_per_100k": 27266.9,
      "total_population": 284081,
      "latitude": 42.312100,
      "longitude": -89.170600
    },
    {
      "County": "Woodford",
      "confirmed_cases": 351,
      "confirmed_rate_per_10k": 91.2565,
      "confirmed_rate_per_100k": 912.565,
      "deaths": 4,
      "deaths_rate_per_10k": 1.03996,
      "deaths_rate_per_100k": 10.3996,
      "total_tested": 10894,
      "test_rate_per_10k": 2832.33,
      "test_rate_per_100k": 28323.3,
      "total_population": 38463,
      "latitude": 40.712900,
      "longitude": -89.170600
    }
  ]
}
