{
  "LastUpdateDate": {
    "year": 2020,
    "month": 11,
    "day": 7
  },
  "county_rates": [
    {
      "County": "Adams",
      "confirmed_cases": 2733,
      "confirmed_rate_per_10k": 416.039,
      "confirmed_rate_per_100k": 4160.39,
      "deaths": 29,
      "deaths_rate_per_10k": 4.41461,
      "deaths_rate_per_100k": 44.1461,
      "total_tested": 43869,
      "test_rate_per_10k": 6678.08,
      "test_rate_per_100k": 66780.8,
      "total_population": 65691,
      "latitude": 40.057800,
      "longitude": -91.135300
    },
    {
      "County": "Alexander",
      "confirmed_cases": 178,
      "confirmed_rate_per_10k": 293.729,
      "confirmed_rate_per_100k": 2937.29,
      "deaths": 2,
      "deaths_rate_per_10k": 3.30033,
      "deaths_rate_per_100k": 33.0033,
      "total_tested": 2635,
      "test_rate_per_10k": 4348.18,
      "test_rate_per_100k": 43481.8,
      "total_population": 6060,
      "latitude": 37.167000,
      "longitude": -89.360600
    },
    {
      "County": "Bond",
      "confirmed_cases": 644,
      "confirmed_rate_per_10k": 387.252,
      "confirmed_rate_per_100k": 3872.52,
      "deaths": 9,
      "deaths_rate_per_10k": 5.41191,
      "deaths_rate_per_100k": 54.1191,
      "total_tested": 8775,
      "test_rate_per_10k": 5276.61,
      "test_rate_per_100k": 52766.1,
      "total_population": 16630,
      "latitude": 38.903000,
      "longitude": -89.474200
    },
    {
      "County": "Boone",
      "confirmed_cases": 2494,
      "confirmed_rate_per_10k": 465.498,
      "confirmed_rate_per_100k": 4654.98,
      "deaths": 26,
      "deaths_rate_per_10k": 4.85283,
      "deaths_rate_per_100k": 48.5283,
      "total_tested": 25345,
      "test_rate_per_10k": 4730.57,
      "test_rate_per_100k": 47305.7,
      "total_population": 53577,
      "latitude": 42.348500,
      "longitude": -88.826300
    },
    {
      "County": "Brown",
      "confirmed_cases": 171,
      "confirmed_rate_per_10k": 260.83,
      "confirmed_rate_per_100k": 2608.3,
      "deaths": 0,
      "deaths_rate_per_10k": 0,
      "deaths_rate_per_100k": 0,
      "total_tested": 2533,
      "test_rate_per_10k": 3863.64,
      "test_rate_per_100k": 38636.4,
      "total_population": 6556,
      "latitude": 39.938000,
      "longitude": -90.715300
    },
    {
      "County": "Bureau",
      "confirmed_cases": 1226,
      "confirmed_rate_per_10k": 371.594,
      "confirmed_rate_per_100k": 3715.94,
      "deaths": 19,
      "deaths_rate_per_10k": 5.7588,
      "deaths_rate_per_100k": 57.588,
      "total_tested": 14942,
      "test_rate_per_10k": 4528.84,
      "test_rate_per_100k": 45288.4,
      "total_population": 32993,
      "latitude": 41.359900,
      "longitude": -89.474200
    },
    {
      "County": "Calhoun",
      "confirmed_cases": 117,
      "confirmed_rate_per_10k": 243.648,
      "confirmed_rate_per_100k": 2436.48,
      "deaths": 0,
      "deaths_rate_per_10k": 0,
      "deaths_rate_per_100k": 0,
      "total_tested": 1888,
      "test_rate_per_10k": 3931.7,
      "test_rate_per_100k": 39317,
      "total_population": 4802,
      "latitude": 39.173300,
      "longitude": -90.658300
    },
    {
      "County": "Carroll",
      "confirmed_cases": 670,
      "confirmed_rate_per_10k": 468.139,
      "confirmed_rate_per_100k": 4681.39,
      "deaths": 17,
      "deaths_rate_per_10k": 11.8781,
      "deaths_rate_per_100k": 118.781,
      "total_tested": 8269,
      "test_rate_per_10k": 5777.67,
      "test_rate_per_100k": 57776.7,
      "total_population": 14312,
      "latitude": 42.038600,
      "longitude": -89.962700
    },
    {
      "County": "Cass",
      "confirmed_cases": 564,
      "confirmed_rate_per_10k": 460.033,
      "confirmed_rate_per_100k": 4600.33,
      "deaths": 11,
      "deaths_rate_per_10k": 8.97227,
      "deaths_rate_per_100k": 89.7227,
      "total_tested": 6323,
      "test_rate_per_10k": 5157.42,
      "test_rate_per_100k": 51574.2,
      "total_population": 12260,
      "latitude": 39.939900,
      "longitude": -90.262000
    },
    {
      "County": "Champaign",
      "confirmed_cases": 7744,
      "confirmed_rate_per_10k": 368.792,
      "confirmed_rate_per_100k": 3687.92,
      "deaths": 31,
      "deaths_rate_per_10k": 1.47631,
      "deaths_rate_per_100k": 14.7631,
      "total_tested": 876867,
      "test_rate_per_10k": 41759,
      "test_rate_per_100k": 417590,
      "total_population": 209983,
      "latitude": 40.213900,
      "longitude": -88.246100
    },
    {
      "County": "Chicago",
      "confirmed_cases": 115635,
      "confirmed_rate_per_10k": 427.329,
      "confirmed_rate_per_100k": 4273.29,
      "deaths": 3130,
      "deaths_rate_per_10k": 11.5669,
      "deaths_rate_per_100k": 115.669,
      "total_tested": 1651982,
      "test_rate_per_10k": 6104.9,
      "test_rate_per_100k": 61049,
      "total_population": 2705994,
      "latitude": 41.789896,
      "longitude": -87.627734
    },
    {
      "County": "Christian",
      "confirmed_cases": 1129,
      "confirmed_rate_per_10k": 345.672,
      "confirmed_rate_per_100k": 3456.72,
      "deaths": 31,
      "deaths_rate_per_10k": 9.49144,
      "deaths_rate_per_100k": 94.9144,
      "total_tested": 15799,
      "test_rate_per_10k": 4837.27,
      "test_rate_per_100k": 48372.7,
      "total_population": 32661,
      "latitude": 39.567200,
      "longitude": -89.322700
    },
    {
      "County": "Clark",
      "confirmed_cases": 472,
      "confirmed_rate_per_10k": 302.642,
      "confirmed_rate_per_100k": 3026.42,
      "deaths": 19,
      "deaths_rate_per_10k": 12.1826,
      "deaths_rate_per_100k": 121.826,
      "total_tested": 5935,
      "test_rate_per_10k": 3805.46,
      "test_rate_per_100k": 38054.6,
      "total_population": 15596,
      "latitude": 39.382400,
      "longitude": -87.776300
    },
    {
      "County": "Clay",
      "confirmed_cases": 422,
      "confirmed_rate_per_10k": 318.418,
      "confirmed_rate_per_100k": 3184.18,
      "deaths": 16,
      "deaths_rate_per_10k": 12.0727,
      "deaths_rate_per_100k": 120.727,
      "total_tested": 4985,
      "test_rate_per_10k": 3761.41,
      "test_rate_per_100k": 37614.1,
      "total_population": 13253,
      "latitude": 38.727900,
      "longitude": -88.556500
    },
    {
      "County": "Clinton",
      "confirmed_cases": 2142,
      "confirmed_rate_per_10k": 569.091,
      "confirmed_rate_per_100k": 5690.91,
      "deaths": 35,
      "deaths_rate_per_10k": 9.29887,
      "deaths_rate_per_100k": 92.9887,
      "total_tested": 20192,
      "test_rate_per_10k": 5364.65,
      "test_rate_per_100k": 53646.5,
      "total_population": 37639,
      "latitude": 38.568400,
      "longitude": -89.625200
    },
    {
      "County": "Coles",
      "confirmed_cases": 2451,
      "confirmed_rate_per_10k": 481.674,
      "confirmed_rate_per_100k": 4816.74,
      "deaths": 47,
      "deaths_rate_per_10k": 9.23651,
      "deaths_rate_per_100k": 92.3651,
      "total_tested": 29638,
      "test_rate_per_10k": 5824.51,
      "test_rate_per_100k": 58245.1,
      "total_population": 50885,
      "latitude": 39.556000,
      "longitude": -88.246100
    },
    {
      "County": "Cook",
      "confirmed_cases": 99289,
      "confirmed_rate_per_10k": 401.249,
      "confirmed_rate_per_100k": 4012.49,
      "deaths": 2482,
      "deaths_rate_per_10k": 10.0303,
      "deaths_rate_per_100k": 100.303,
      "total_tested": 1447888,
      "test_rate_per_10k": 5851.24,
      "test_rate_per_100k": 58512.4,
      "total_population": 2474499,
      "latitude": 42.050784,
      "longitude": -87.963759
    },
    {
      "County": "Crawford",
      "confirmed_cases": 739,
      "confirmed_rate_per_10k": 392.939,
      "confirmed_rate_per_100k": 3929.39,
      "deaths": 6,
      "deaths_rate_per_10k": 3.1903,
      "deaths_rate_per_100k": 31.903,
      "total_tested": 6607,
      "test_rate_per_10k": 3513.05,
      "test_rate_per_100k": 35130.5,
      "total_population": 18807,
      "latitude": 39.050000,
      "longitude": -87.776300
    },
    {
      "County": "Cumberland",
      "confirmed_cases": 410,
      "confirmed_rate_per_10k": 379.349,
      "confirmed_rate_per_100k": 3793.49,
      "deaths": 6,
      "deaths_rate_per_10k": 5.55144,
      "deaths_rate_per_100k": 55.5144,
      "total_tested": 5012,
      "test_rate_per_10k": 4637.31,
      "test_rate_per_100k": 46373.1,
      "total_population": 10808,
      "latitude": 39.265400,
      "longitude": -88.207200
    },
    {
      "County": "De Witt",
      "confirmed_cases": 412,
      "confirmed_rate_per_10k": 261.272,
      "confirmed_rate_per_100k": 2612.72,
      "deaths": 7,
      "deaths_rate_per_10k": 4.43909,
      "deaths_rate_per_100k": 44.3909,
      "total_tested": 6851,
      "test_rate_per_10k": 4344.6,
      "test_rate_per_100k": 43446,
      "total_population": 15769,
      "latitude": 40.181000,
      "longitude": -88.903100
    },
    {
      "County": "DeKalb",
      "confirmed_cases": 3251,
      "confirmed_rate_per_10k": 312.167,
      "confirmed_rate_per_100k": 3121.67,
      "deaths": 43,
      "deaths_rate_per_10k": 4.12894,
      "deaths_rate_per_100k": 41.2894,
      "total_tested": 52263,
      "test_rate_per_10k": 5018.39,
      "test_rate_per_100k": 50183.9,
      "total_population": 104143,
      "latitude": 41.833000,
      "longitude": -88.710900
    },
    {
      "County": "Douglas",
      "confirmed_cases": 966,
      "confirmed_rate_per_10k": 495.919,
      "confirmed_rate_per_100k": 4959.19,
      "deaths": 10,
      "deaths_rate_per_10k": 5.13373,
      "deaths_rate_per_100k": 51.3373,
      "total_tested": 12601,
      "test_rate_per_10k": 6469.02,
      "test_rate_per_100k": 64690.2,
      "total_population": 19479,
      "latitude": 39.761800,
      "longitude": -88.207200
    },
    {
      "County": "DuPage",
      "confirmed_cases": 29541,
      "confirmed_rate_per_10k": 318.128,
      "confirmed_rate_per_100k": 3181.28,
      "deaths": 640,
      "deaths_rate_per_10k": 6.89218,
      "deaths_rate_per_100k": 68.9218,
      "total_tested": 475313,
      "test_rate_per_10k": 5118.66,
      "test_rate_per_100k": 51186.6,
      "total_population": 928589,
      "latitude": 41.824400,
      "longitude": -88.090100
    },
    {
      "County": "Edgar",
      "confirmed_cases": 481,
      "confirmed_rate_per_10k": 277.074,
      "confirmed_rate_per_100k": 2770.74,
      "deaths": 12,
      "deaths_rate_per_10k": 6.91244,
      "deaths_rate_per_100k": 69.1244,
      "total_tested": 5400,
      "test_rate_per_10k": 3110.6,
      "test_rate_per_100k": 31106,
      "total_population": 17360,
      "latitude": 39.713100,
      "longitude": -87.776300
    },
    {
      "County": "Edwards",
      "confirmed_cases": 135,
      "confirmed_rate_per_10k": 211.202,
      "confirmed_rate_per_100k": 2112.02,
      "deaths": 0,
      "deaths_rate_per_10k": 0,
      "deaths_rate_per_100k": 0,
      "total_tested": 1272,
      "test_rate_per_10k": 1989.99,
      "test_rate_per_100k": 19899.9,
      "total_population": 6392,
      "latitude": 38.426800,
      "longitude": -88.051000
    },
    {
      "County": "Effingham",
      "confirmed_cases": 1647,
      "confirmed_rate_per_10k": 481.466,
      "confirmed_rate_per_100k": 4814.66,
      "deaths": 5,
      "deaths_rate_per_10k": 1.46165,
      "deaths_rate_per_100k": 14.6165,
      "total_tested": 16418,
      "test_rate_per_10k": 4799.46,
      "test_rate_per_100k": 47994.6,
      "total_population": 34208,
      "latitude": 39.062200,
      "longitude": -88.556500
    },
    {
      "County": "Fayette",
      "confirmed_cases": 938,
      "confirmed_rate_per_10k": 437.99,
      "confirmed_rate_per_100k": 4379.9,
      "deaths": 26,
      "deaths_rate_per_10k": 12.1405,
      "deaths_rate_per_100k": 121.405,
      "total_tested": 8877,
      "test_rate_per_10k": 4145.03,
      "test_rate_per_100k": 41450.3,
      "total_population": 21416,
      "latitude": 39.067000,
      "longitude": -89.017900
    },
    {
      "County": "Ford",
      "confirmed_cases": 375,
      "confirmed_rate_per_10k": 282.72,
      "confirmed_rate_per_100k": 2827.2,
      "deaths": 17,
      "deaths_rate_per_10k": 12.8166,
      "deaths_rate_per_100k": 128.166,
      "total_tested": 8687,
      "test_rate_per_10k": 6549.31,
      "test_rate_per_100k": 65493.1,
      "total_population": 13264,
      "latitude": 40.498900,
      "longitude": -88.207200
    },
    {
      "County": "Franklin",
      "confirmed_cases": 1265,
      "confirmed_rate_per_10k": 326.865,
      "confirmed_rate_per_100k": 3268.65,
      "deaths": 12,
      "deaths_rate_per_10k": 3.1007,
      "deaths_rate_per_100k": 31.007,
      "total_tested": 18346,
      "test_rate_per_10k": 4740.45,
      "test_rate_per_100k": 47404.5,
      "total_population": 38701,
      "latitude": 38.015700,
      "longitude": -88.903100
    },
    {
      "County": "Fulton",
      "confirmed_cases": 819,
      "confirmed_rate_per_10k": 235.048,
      "confirmed_rate_per_100k": 2350.48,
      "deaths": 4,
      "deaths_rate_per_10k": 1.14797,
      "deaths_rate_per_100k": 11.4797,
      "total_tested": 18560,
      "test_rate_per_10k": 5326.6,
      "test_rate_per_100k": 53266,
      "total_population": 34844,
      "latitude": 40.553200,
      "longitude": -90.224500
    },
    {
      "County": "Gallatin",
      "confirmed_cases": 132,
      "confirmed_rate_per_10k": 260.973,
      "confirmed_rate_per_100k": 2609.73,
      "deaths": 2,
      "deaths_rate_per_10k": 3.95413,
      "deaths_rate_per_100k": 39.5413,
      "total_tested": 1252,
      "test_rate_per_10k": 2475.29,
      "test_rate_per_100k": 24752.9,
      "total_population": 5058,
      "latitude": 37.710800,
      "longitude": -88.246100
    },
    {
      "County": "Greene",
      "confirmed_cases": 485,
      "confirmed_rate_per_10k": 371.818,
      "confirmed_rate_per_100k": 3718.18,
      "deaths": 18,
      "deaths_rate_per_10k": 13.7994,
      "deaths_rate_per_100k": 137.994,
      "total_tested": 5543,
      "test_rate_per_10k": 4249.46,
      "test_rate_per_100k": 42494.6,
      "total_population": 13044,
      "latitude": 39.403000,
      "longitude": -90.374800
    },
    {
      "County": "Grundy",
      "confirmed_cases": 1476,
      "confirmed_rate_per_10k": 289.571,
      "confirmed_rate_per_100k": 2895.71,
      "deaths": 8,
      "deaths_rate_per_10k": 1.56949,
      "deaths_rate_per_100k": 15.6949,
      "total_tested": 16990,
      "test_rate_per_10k": 3333.2,
      "test_rate_per_100k": 33332,
      "total_population": 50972,
      "latitude": 41.350100,
      "longitude": -88.401600
    },
    {
      "County": "Hamilton",
      "confirmed_cases": 186,
      "confirmed_rate_per_10k": 227.857,
      "confirmed_rate_per_100k": 2278.57,
      "deaths": 2,
      "deaths_rate_per_10k": 2.45008,
      "deaths_rate_per_100k": 24.5008,
      "total_tested": 2367,
      "test_rate_per_10k": 2899.67,
      "test_rate_per_100k": 28996.7,
      "total_population": 8163,
      "latitude": 38.054300,
      "longitude": -88.556500
    },
    {
      "County": "Hancock",
      "confirmed_cases": 518,
      "confirmed_rate_per_10k": 290.294,
      "confirmed_rate_per_100k": 2902.94,
      "deaths": 4,
      "deaths_rate_per_10k": 2.24165,
      "deaths_rate_per_100k": 22.4165,
      "total_tested": 7861,
      "test_rate_per_10k": 4405.4,
      "test_rate_per_100k": 44054,
      "total_population": 17844,
      "latitude": 40.384900,
      "longitude": -91.135300
    },
    {
      "County": "Hardin",
      "confirmed_cases": 68,
      "confirmed_rate_per_10k": 173.913,
      "confirmed_rate_per_100k": 1739.13,
      "deaths": 0,
      "deaths_rate_per_10k": 0,
      "deaths_rate_per_100k": 0,
      "total_tested": 1536,
      "test_rate_per_10k": 3928.39,
      "test_rate_per_100k": 39283.9,
      "total_population": 3910,
      "latitude": 37.499500,
      "longitude": -88.362800
    },
    {
      "County": "Henderson",
      "confirmed_cases": 169,
      "confirmed_rate_per_10k": 251.9,
      "confirmed_rate_per_100k": 2519,
      "deaths": 0,
      "deaths_rate_per_10k": 0,
      "deaths_rate_per_100k": 0,
      "total_tested": 2389,
      "test_rate_per_10k": 3560.89,
      "test_rate_per_100k": 35608.9,
      "total_population": 6709,
      "latitude": 40.833600,
      "longitude": -90.943800
    },
    {
      "County": "Henry",
      "confirmed_cases": 1304,
      "confirmed_rate_per_10k": 265.635,
      "confirmed_rate_per_100k": 2656.35,
      "deaths": 9,
      "deaths_rate_per_10k": 1.83337,
      "deaths_rate_per_100k": 18.3337,
      "total_tested": 24227,
      "test_rate_per_10k": 4935.22,
      "test_rate_per_100k": 49352.2,
      "total_population": 49090,
      "latitude": 41.361100,
      "longitude": -90.074700
    },
    {
      "County": "Iroquois",
      "confirmed_cases": 820,
      "confirmed_rate_per_10k": 297.058,
      "confirmed_rate_per_100k": 2970.58,
      "deaths": 20,
      "deaths_rate_per_10k": 7.24533,
      "deaths_rate_per_100k": 72.4533,
      "total_tested": 15994,
      "test_rate_per_10k": 5794.09,
      "test_rate_per_100k": 57940.9,
      "total_population": 27604,
      "latitude": 40.774000,
      "longitude": -87.697600
    },
    {
      "County": "Jackson",
      "confirmed_cases": 1818,
      "confirmed_rate_per_10k": 316.62,
      "confirmed_rate_per_100k": 3166.2,
      "deaths": 27,
      "deaths_rate_per_10k": 4.70228,
      "deaths_rate_per_100k": 47.0228,
      "total_tested": 25673,
      "test_rate_per_10k": 4471.17,
      "test_rate_per_100k": 44711.7,
      "total_population": 57419,
      "latitude": 37.721800,
      "longitude": -89.322700
    },
    {
      "County": "Jasper",
      "confirmed_cases": 415,
      "confirmed_rate_per_10k": 431.797,
      "confirmed_rate_per_100k": 4317.97,
      "deaths": 10,
      "deaths_rate_per_10k": 10.4047,
      "deaths_rate_per_100k": 104.047,
      "total_tested": 3846,
      "test_rate_per_10k": 4001.66,
      "test_rate_per_100k": 40016.6,
      "total_population": 9611,
      "latitude": 39.055500,
      "longitude": -88.090100
    },
    {
      "County": "Jefferson",
      "confirmed_cases": 1177,
      "confirmed_rate_per_10k": 311.211,
      "confirmed_rate_per_100k": 3112.11,
      "deaths": 55,
      "deaths_rate_per_10k": 14.5426,
      "deaths_rate_per_100k": 145.426,
      "total_tested": 15273,
      "test_rate_per_10k": 4038.34,
      "test_rate_per_100k": 40383.4,
      "total_population": 37820,
      "latitude": 38.226700,
      "longitude": -88.864700
    },
    {
      "County": "Jersey",
      "confirmed_cases": 724,
      "confirmed_rate_per_10k": 331.396,
      "confirmed_rate_per_100k": 3313.96,
      "deaths": 21,
      "deaths_rate_per_10k": 9.6123,
      "deaths_rate_per_100k": 96.123,
      "total_tested": 9372,
      "test_rate_per_10k": 4289.83,
      "test_rate_per_100k": 42898.3,
      "total_population": 21847,
      "latitude": 39.070500,
      "longitude": -90.374800
    },
    {
      "County": "Jo Daviess",
      "confirmed_cases": 676,
      "confirmed_rate_per_10k": 316.391,
      "confirmed_rate_per_100k": 3163.91,
      "deaths": 11,
      "deaths_rate_per_10k": 5.14837,
      "deaths_rate_per_100k": 51.4837,
      "total_tested": 8586,
      "test_rate_per_10k": 4018.53,
      "test_rate_per_100k": 40185.3,
      "total_population": 21366,
      "latitude": 42.314900,
      "longitude": -90.224500
    },
    {
      "County": "Johnson",
      "confirmed_cases": 478,
      "confirmed_rate_per_10k": 383.751,
      "confirmed_rate_per_100k": 3837.51,
      "deaths": 0,
      "deaths_rate_per_10k": 0,
      "deaths_rate_per_100k": 0,
      "total_tested": 4735,
      "test_rate_per_10k": 3801.38,
      "test_rate_per_100k": 38013.8,
      "total_population": 12456,
      "latitude": 37.420400,
      "longitude": -88.903100
    },
    {
      "County": "Kane",
      "confirmed_cases": 21780,
      "confirmed_rate_per_10k": 407.7,
      "confirmed_rate_per_100k": 4077,
      "deaths": 362,
      "deaths_rate_per_10k": 6.77629,
      "deaths_rate_per_100k": 67.7629,
      "total_tested": 255760,
      "test_rate_per_10k": 4787.58,
      "test_rate_per_100k": 47875.8,
      "total_population": 534216,
      "latitude": 41.987900,
      "longitude": -88.401600
    },
    {
      "County": "Kankakee",
      "confirmed_cases": 4784,
      "confirmed_rate_per_10k": 434.814,
      "confirmed_rate_per_100k": 4348.14,
      "deaths": 86,
      "deaths_rate_per_10k": 7.81648,
      "deaths_rate_per_100k": 78.1648,
      "total_tested": 76324,
      "test_rate_per_10k": 6937.03,
      "test_rate_per_100k": 69370.3,
      "total_population": 110024,
      "latitude": 41.179100,
      "longitude": -87.776300
    },
    {
      "County": "Kendall",
      "confirmed_cases": 3801,
      "confirmed_rate_per_10k": 297.15,
      "confirmed_rate_per_100k": 2971.5,
      "deaths": 31,
      "deaths_rate_per_10k": 2.42348,
      "deaths_rate_per_100k": 24.2348,
      "total_tested": 50712,
      "test_rate_per_10k": 3964.51,
      "test_rate_per_100k": 39645.1,
      "total_population": 127915,
      "latitude": 41.550700,
      "longitude": -88.440400
    },
    {
      "County": "Knox",
      "confirmed_cases": 1727,
      "confirmed_rate_per_10k": 344.628,
      "confirmed_rate_per_100k": 3446.28,
      "deaths": 29,
      "deaths_rate_per_10k": 5.78704,
      "deaths_rate_per_100k": 57.8704,
      "total_tested": 27346,
      "test_rate_per_10k": 5456.98,
      "test_rate_per_100k": 54569.8,
      "total_population": 50112,
      "latitude": 40.877600,
      "longitude": -90.224500
    },
    {
      "County": "Lake",
      "confirmed_cases": 25758,
      "confirmed_rate_per_10k": 367.535,
      "confirmed_rate_per_100k": 3675.35,
      "deaths": 530,
      "deaths_rate_per_10k": 7.56244,
      "deaths_rate_per_100k": 75.6244,
      "total_tested": 365935,
      "test_rate_per_10k": 5221.44,
      "test_rate_per_100k": 52214.4,
      "total_population": 700832,
      "latitude": 42.368900,
      "longitude": -87.827200
    },
    {
      "County": "LaSalle",
      "confirmed_cases": 3490,
      "confirmed_rate_per_10k": 318.925,
      "confirmed_rate_per_100k": 3189.25,
      "deaths": 74,
      "deaths_rate_per_10k": 6.76231,
      "deaths_rate_per_100k": 67.6231,
      "total_tested": 45596,
      "test_rate_per_10k": 4166.68,
      "test_rate_per_100k": 41666.8,
      "total_population": 109430,
      "latitude": 41.436400,
      "longitude": -88.941400
    },
    {
      "County": "Lawrence",
      "confirmed_cases": 437,
      "confirmed_rate_per_10k": 277.196,
      "confirmed_rate_per_100k": 2771.96,
      "deaths": 8,
      "deaths_rate_per_10k": 5.07453,
      "deaths_rate_per_100k": 50.7453,
      "total_tested": 7690,
      "test_rate_per_10k": 4877.89,
      "test_rate_per_100k": 48778.9,
      "total_population": 15765,
      "latitude": 38.715800,
      "longitude": -87.776300
    },
    {
      "County": "Lee",
      "confirmed_cases": 1103,
      "confirmed_rate_per_10k": 322.298,
      "confirmed_rate_per_100k": 3222.98,
      "deaths": 4,
      "deaths_rate_per_10k": 1.1688,
      "deaths_rate_per_100k": 11.688,
      "total_tested": 12990,
      "test_rate_per_10k": 3795.69,
      "test_rate_per_100k": 37956.9,
      "total_population": 34223,
      "latitude": 41.679000,
      "longitude": -89.322700
    },
    {
      "County": "Livingston",
      "confirmed_cases": 1060,
      "confirmed_rate_per_10k": 296.412,
      "confirmed_rate_per_100k": 2964.12,
      "deaths": 12,
      "deaths_rate_per_10k": 3.35561,
      "deaths_rate_per_100k": 33.5561,
      "total_tested": 20979,
      "test_rate_per_10k": 5866.45,
      "test_rate_per_100k": 58664.5,
      "total_population": 35761,
      "latitude": 40.868900,
      "longitude": -88.556500
    },
    {
      "County": "Logan",
      "confirmed_cases": 842,
      "confirmed_rate_per_10k": 291.098,
      "confirmed_rate_per_100k": 2910.98,
      "deaths": 5,
      "deaths_rate_per_10k": 1.72861,
      "deaths_rate_per_100k": 17.2861,
      "total_tested": 20730,
      "test_rate_per_10k": 7166.81,
      "test_rate_per_100k": 71668.1,
      "total_population": 28925,
      "latitude": 40.061300,
      "longitude": -89.322700
    },
    {
      "County": "Macon",
      "confirmed_cases": 4322,
      "confirmed_rate_per_10k": 412.751,
      "confirmed_rate_per_100k": 4127.51,
      "deaths": 71,
      "deaths_rate_per_10k": 6.7805,
      "deaths_rate_per_100k": 67.805,
      "total_tested": 61893,
      "test_rate_per_10k": 5910.78,
      "test_rate_per_100k": 59107.8,
      "total_population": 104712,
      "latitude": 39.894900,
      "longitude": -89.017900
    },
    {
      "County": "Macoupin",
      "confirmed_cases": 1054,
      "confirmed_rate_per_10k": 232.604,
      "confirmed_rate_per_100k": 2326.04,
      "deaths": 12,
      "deaths_rate_per_10k": 2.64825,
      "deaths_rate_per_100k": 26.4825,
      "total_tested": 24723,
      "test_rate_per_10k": 5456.05,
      "test_rate_per_100k": 54560.5,
      "total_population": 45313,
      "latitude": 39.237500,
      "longitude": -89.925300
    },
    {
      "County": "Madison",
      "confirmed_cases": 8976,
      "confirmed_rate_per_10k": 339.407,
      "confirmed_rate_per_100k": 3394.07,
      "deaths": 167,
      "deaths_rate_per_10k": 6.31473,
      "deaths_rate_per_100k": 63.1473,
      "total_tested": 110338,
      "test_rate_per_10k": 4172.18,
      "test_rate_per_100k": 41721.8,
      "total_population": 264461,
      "latitude": 38.904100,
      "longitude": -89.925300
    },
    {
      "County": "Marion",
      "confirmed_cases": 1376,
      "confirmed_rate_per_10k": 365.763,
      "confirmed_rate_per_100k": 3657.63,
      "deaths": 29,
      "deaths_rate_per_10k": 7.70867,
      "deaths_rate_per_100k": 77.0867,
      "total_tested": 22196,
      "test_rate_per_10k": 5900.05,
      "test_rate_per_100k": 59000.5,
      "total_population": 37620,
      "latitude": 38.731300,
      "longitude": -88.864700
    },
    {
      "County": "Marshall",
      "confirmed_cases": 205,
      "confirmed_rate_per_10k": 177.735,
      "confirmed_rate_per_100k": 1777.35,
      "deaths": 4,
      "deaths_rate_per_10k": 3.46801,
      "deaths_rate_per_100k": 34.6801,
      "total_tested": 6430,
      "test_rate_per_10k": 5574.82,
      "test_rate_per_100k": 55748.2,
      "total_population": 11534,
      "latitude": 40.997300,
      "longitude": -89.360600
    },
    {
      "County": "Mason",
      "confirmed_cases": 400,
      "confirmed_rate_per_10k": 294.877,
      "confirmed_rate_per_100k": 2948.77,
      "deaths": 13,
      "deaths_rate_per_10k": 9.58349,
      "deaths_rate_per_100k": 95.8349,
      "total_tested": 7085,
      "test_rate_per_10k": 5223,
      "test_rate_per_100k": 52230,
      "total_population": 13565,
      "latitude": 40.227100,
      "longitude": -89.925300
    },
    {
      "County": "Massac",
      "confirmed_cases": 221,
      "confirmed_rate_per_10k": 156.96,
      "confirmed_rate_per_100k": 1569.6,
      "deaths": 2,
      "deaths_rate_per_10k": 1.42045,
      "deaths_rate_per_100k": 14.2045,
      "total_tested": 3754,
      "test_rate_per_10k": 2666.19,
      "test_rate_per_100k": 26661.9,
      "total_population": 14080,
      "latitude": 37.247800,
      "longitude": -88.749400
    },
    {
      "County": "McDonough",
      "confirmed_cases": 1001,
      "confirmed_rate_per_10k": 334.168,
      "confirmed_rate_per_100k": 3341.68,
      "deaths": 24,
      "deaths_rate_per_10k": 8.01202,
      "deaths_rate_per_100k": 80.1202,
      "total_tested": 15243,
      "test_rate_per_10k": 5088.63,
      "test_rate_per_100k": 50886.3,
      "total_population": 29955,
      "latitude": 40.388500,
      "longitude": -90.677300
    },
    {
      "County": "McHenry",
      "confirmed_cases": 8895,
      "confirmed_rate_per_10k": 288.265,
      "confirmed_rate_per_100k": 2882.65,
      "deaths": 121,
      "deaths_rate_per_10k": 3.92131,
      "deaths_rate_per_100k": 39.2131,
      "total_tested": 116706,
      "test_rate_per_10k": 3782.16,
      "test_rate_per_100k": 37821.6,
      "total_population": 308570,
      "latitude": 42.304000,
      "longitude": -88.401600
    },
    {
      "County": "McLean",
      "confirmed_cases": 5348,
      "confirmed_rate_per_10k": 309.441,
      "confirmed_rate_per_100k": 3094.41,
      "deaths": 40,
      "deaths_rate_per_10k": 2.31444,
      "deaths_rate_per_100k": 23.1444,
      "total_tested": 112067,
      "test_rate_per_10k": 6484.31,
      "test_rate_per_100k": 64843.1,
      "total_population": 172828,
      "latitude": 40.547800,
      "longitude": -88.864700
    },
    {
      "County": "Menard",
      "confirmed_cases": 218,
      "confirmed_rate_per_10k": 177.409,
      "confirmed_rate_per_100k": 1774.09,
      "deaths": 1,
      "deaths_rate_per_10k": 0.813802,
      "deaths_rate_per_100k": 8.13802,
      "total_tested": 6699,
      "test_rate_per_10k": 5451.66,
      "test_rate_per_100k": 54516.6,
      "total_population": 12288,
      "latitude": 40.022100,
      "longitude": -89.813000
    },
    {
      "County": "Mercer",
      "confirmed_cases": 433,
      "confirmed_rate_per_10k": 277.546,
      "confirmed_rate_per_100k": 2775.46,
      "deaths": 7,
      "deaths_rate_per_10k": 4.48689,
      "deaths_rate_per_100k": 44.8689,
      "total_tested": 7363,
      "test_rate_per_10k": 4719.57,
      "test_rate_per_100k": 47195.7,
      "total_population": 15601,
      "latitude": 41.198500,
      "longitude": -90.677300
    },
    {
      "County": "Monroe",
      "confirmed_cases": 1241,
      "confirmed_rate_per_10k": 361.439,
      "confirmed_rate_per_100k": 3614.39,
      "deaths": 39,
      "deaths_rate_per_10k": 11.3587,
      "deaths_rate_per_100k": 113.587,
      "total_tested": 13039,
      "test_rate_per_10k": 3797.58,
      "test_rate_per_100k": 37975.8,
      "total_population": 34335,
      "latitude": 38.274300,
      "longitude": -90.187000
    },
    {
      "County": "Montgomery",
      "confirmed_cases": 767,
      "confirmed_rate_per_10k": 268.172,
      "confirmed_rate_per_100k": 2681.72,
      "deaths": 17,
      "deaths_rate_per_10k": 5.94385,
      "deaths_rate_per_100k": 59.4385,
      "total_tested": 19392,
      "test_rate_per_10k": 6780.18,
      "test_rate_per_100k": 67801.8,
      "total_population": 28601,
      "latitude": 39.236400,
      "longitude": -89.474200
    },
    {
      "County": "Morgan",
      "confirmed_cases": 1243,
      "confirmed_rate_per_10k": 365.846,
      "confirmed_rate_per_100k": 3658.46,
      "deaths": 27,
      "deaths_rate_per_10k": 7.94679,
      "deaths_rate_per_100k": 79.4679,
      "total_tested": 18004,
      "test_rate_per_10k": 5299.03,
      "test_rate_per_100k": 52990.3,
      "total_population": 33976,
      "latitude": 39.734100,
      "longitude": -90.224500
    },
    {
      "County": "Moultrie",
      "confirmed_cases": 588,
      "confirmed_rate_per_10k": 399.538,
      "confirmed_rate_per_100k": 3995.38,
      "deaths": 7,
      "deaths_rate_per_10k": 4.7564,
      "deaths_rate_per_100k": 47.564,
      "total_tested": 8099,
      "test_rate_per_10k": 5503.16,
      "test_rate_per_100k": 55031.6,
      "total_population": 14717,
      "latitude": 39.602100,
      "longitude": -88.595200
    },
    {
      "County": "Ogle",
      "confirmed_cases": 1755,
      "confirmed_rate_per_10k": 344.638,
      "confirmed_rate_per_100k": 3446.38,
      "deaths": 8,
      "deaths_rate_per_10k": 1.571,
      "deaths_rate_per_100k": 15.71,
      "total_tested": 23170,
      "test_rate_per_10k": 4550.01,
      "test_rate_per_100k": 45500.1,
      "total_population": 50923,
      "latitude": 41.997000,
      "longitude": -89.322700
    },
    {
      "County": "Peoria",
      "confirmed_cases": 5729,
      "confirmed_rate_per_10k": 317.183,
      "confirmed_rate_per_100k": 3171.83,
      "deaths": 91,
      "deaths_rate_per_10k": 5.03817,
      "deaths_rate_per_100k": 50.3817,
      "total_tested": 122339,
      "test_rate_per_10k": 6773.24,
      "test_rate_per_100k": 67732.4,
      "total_population": 180621,
      "latitude": 40.715600,
      "longitude": -89.775500
    },
    {
      "County": "Perry",
      "confirmed_cases": 606,
      "confirmed_rate_per_10k": 286.2,
      "confirmed_rate_per_100k": 2862,
      "deaths": 16,
      "deaths_rate_per_10k": 7.55644,
      "deaths_rate_per_100k": 75.5644,
      "total_tested": 8471,
      "test_rate_per_10k": 4000.66,
      "test_rate_per_100k": 40006.6,
      "total_population": 21174,
      "latitude": 38.061200,
      "longitude": -89.322700
    },
    {
      "County": "Piatt",
      "confirmed_cases": 400,
      "confirmed_rate_per_10k": 243.962,
      "confirmed_rate_per_100k": 2439.62,
      "deaths": 4,
      "deaths_rate_per_10k": 2.43962,
      "deaths_rate_per_100k": 24.3962,
      "total_tested": 12316,
      "test_rate_per_10k": 7511.59,
      "test_rate_per_100k": 75115.9,
      "total_population": 16396,
      "latitude": 40.054400,
      "longitude": -88.855650
    },
    {
      "County": "Pike",
      "confirmed_cases": 601,
      "confirmed_rate_per_10k": 384.985,
      "confirmed_rate_per_100k": 3849.85,
      "deaths": 11,
      "deaths_rate_per_10k": 7.04631,
      "deaths_rate_per_100k": 70.4631,
      "total_tested": 6613,
      "test_rate_per_10k": 4236.12,
      "test_rate_per_100k": 42361.2,
      "total_population": 15611,
      "latitude": 39.566200,
      "longitude": -90.829400
    },
    {
      "County": "Pope",
      "confirmed_cases": 52,
      "confirmed_rate_per_10k": 123.457,
      "confirmed_rate_per_100k": 1234.57,
      "deaths": 1,
      "deaths_rate_per_10k": 2.37417,
      "deaths_rate_per_100k": 23.7417,
      "total_tested": 936,
      "test_rate_per_10k": 2222.22,
      "test_rate_per_100k": 22222.2,
      "total_population": 4212,
      "latitude": 37.417100,
      "longitude": -88.595200
    },
    {
      "County": "Pulaski",
      "confirmed_cases": 276,
      "confirmed_rate_per_10k": 505.217,
      "confirmed_rate_per_100k": 5052.17,
      "deaths": 1,
      "deaths_rate_per_10k": 1.8305,
      "deaths_rate_per_100k": 18.305,
      "total_tested": 2331,
      "test_rate_per_10k": 4266.89,
      "test_rate_per_100k": 42668.9,
      "total_population": 5463,
      "latitude": 37.251200,
      "longitude": -89.132500
    },
    {
      "County": "Putnam",
      "confirmed_cases": 128,
      "confirmed_rate_per_10k": 222.997,
      "confirmed_rate_per_100k": 2229.97,
      "deaths": 0,
      "deaths_rate_per_10k": 0,
      "deaths_rate_per_100k": 0,
      "total_tested": 1808,
      "test_rate_per_10k": 3149.83,
      "test_rate_per_100k": 31498.3,
      "total_population": 5740,
      "latitude": 41.238500,
      "longitude": -89.284700
    },
    {
      "County": "Randolph",
      "confirmed_cases": 1534,
      "confirmed_rate_per_10k": 477.792,
      "confirmed_rate_per_100k": 4777.92,
      "deaths": 19,
      "deaths_rate_per_10k": 5.9179,
      "deaths_rate_per_100k": 59.179,
      "total_tested": 17718,
      "test_rate_per_10k": 5518.59,
      "test_rate_per_100k": 55185.9,
      "total_population": 32106,
      "latitude": 38.062900,
      "longitude": -89.775500
    },
    {
      "County": "Richland",
      "confirmed_cases": 407,
      "confirmed_rate_per_10k": 258.2,
      "confirmed_rate_per_100k": 2582,
      "deaths": 18,
      "deaths_rate_per_10k": 11.4191,
      "deaths_rate_per_100k": 114.191,
      "total_tested": 8676,
      "test_rate_per_10k": 5504.03,
      "test_rate_per_100k": 55040.3,
      "total_population": 15763,
      "latitude": 38.721300,
      "longitude": -88.090100
    },
    {
      "County": "Rock Island",
      "confirmed_cases": 5366,
      "confirmed_rate_per_10k": 373.997,
      "confirmed_rate_per_100k": 3739.97,
      "deaths": 101,
      "deaths_rate_per_10k": 7.03946,
      "deaths_rate_per_100k": 70.3946,
      "total_tested": 81790,
      "test_rate_per_10k": 5700.57,
      "test_rate_per_100k": 57005.7,
      "total_population": 143477,
      "latitude": 41.509500,
      "longitude": -90.578700
    },
    {
      "County": "Saline",
      "confirmed_cases": 740,
      "confirmed_rate_per_10k": 309.546,
      "confirmed_rate_per_100k": 3095.46,
      "deaths": 14,
      "deaths_rate_per_10k": 5.85627,
      "deaths_rate_per_100k": 58.5627,
      "total_tested": 9442,
      "test_rate_per_10k": 3949.64,
      "test_rate_per_100k": 39496.4,
      "total_population": 23906,
      "latitude": 37.715000,
      "longitude": -88.556500
    },
    {
      "County": "Sangamon",
      "confirmed_cases": 5683,
      "confirmed_rate_per_10k": 290.917,
      "confirmed_rate_per_100k": 2909.17,
      "deaths": 67,
      "deaths_rate_per_10k": 3.42978,
      "deaths_rate_per_100k": 34.2978,
      "total_tested": 149586,
      "test_rate_per_10k": 7657.41,
      "test_rate_per_100k": 76574.1,
      "total_population": 195348,
      "latitude": 39.733700,
      "longitude": -89.625200
    },
    {
      "County": "Schuyler",
      "confirmed_cases": 126,
      "confirmed_rate_per_10k": 182.424,
      "confirmed_rate_per_100k": 1824.24,
      "deaths": 1,
      "deaths_rate_per_10k": 1.44781,
      "deaths_rate_per_100k": 14.4781,
      "total_tested": 2492,
      "test_rate_per_10k": 3607.93,
      "test_rate_per_100k": 36079.3,
      "total_population": 6907,
      "latitude": 40.184500,
      "longitude": -90.639400
    },
    {
      "County": "Scott",
      "confirmed_cases": 146,
      "confirmed_rate_per_10k": 296.387,
      "confirmed_rate_per_100k": 2963.87,
      "deaths": 0,
      "deaths_rate_per_10k": 0,
      "deaths_rate_per_100k": 0,
      "total_tested": 3145,
      "test_rate_per_10k": 6384.49,
      "test_rate_per_100k": 63844.9,
      "total_population": 4926,
      "latitude": 39.609500,
      "longitude": -90.488000
    },
    {
      "County": "Shelby",
      "confirmed_cases": 893,
      "confirmed_rate_per_10k": 410.745,
      "confirmed_rate_per_100k": 4107.45,
      "deaths": 19,
      "deaths_rate_per_10k": 8.73925,
      "deaths_rate_per_100k": 87.3925,
      "total_tested": 9617,
      "test_rate_per_10k": 4423.44,
      "test_rate_per_100k": 44234.4,
      "total_population": 21741,
      "latitude": 39.398100,
      "longitude": -88.864700
    },
    {
      "County": "St. Clair",
      "confirmed_cases": 9099,
      "confirmed_rate_per_10k": 348.542,
      "confirmed_rate_per_100k": 3485.42,
      "deaths": 230,
      "deaths_rate_per_10k": 8.81027,
      "deaths_rate_per_100k": 88.1027,
      "total_tested": 117795,
      "test_rate_per_10k": 4512.2,
      "test_rate_per_100k": 45122,
      "total_population": 261059,
      "latitude": 38.400800,
      "longitude": -89.925300
    },
    {
      "County": "Stark",
      "confirmed_cases": 127,
      "confirmed_rate_per_10k": 234.015,
      "confirmed_rate_per_100k": 2340.15,
      "deaths": 3,
      "deaths_rate_per_10k": 5.52792,
      "deaths_rate_per_100k": 55.2792,
      "total_tested": 3196,
      "test_rate_per_10k": 5889.07,
      "test_rate_per_100k": 58890.7,
      "total_population": 5427,
      "latitude": 41.079600,
      "longitude": -89.813000
    },
    {
      "County": "Stephenson",
      "confirmed_cases": 1582,
      "confirmed_rate_per_10k": 353.496,
      "confirmed_rate_per_100k": 3534.96,
      "deaths": 13,
      "deaths_rate_per_10k": 2.90483,
      "deaths_rate_per_100k": 29.0483,
      "total_tested": 19770,
      "test_rate_per_10k": 4417.58,
      "test_rate_per_100k": 44175.8,
      "total_population": 44753,
      "latitude": 42.314500,
      "longitude": -89.625200
    },
    {
      "County": "Tazewell",
      "confirmed_cases": 3597,
      "confirmed_rate_per_10k": 271.825,
      "confirmed_rate_per_100k": 2718.25,
      "deaths": 63,
      "deaths_rate_per_10k": 4.7609,
      "deaths_rate_per_100k": 47.609,
      "total_tested": 83351,
      "test_rate_per_10k": 6298.82,
      "test_rate_per_100k": 62988.2,
      "total_population": 132328,
      "latitude": 40.552200,
      "longitude": -89.474200
    },
    {
      "County": "Union",
      "confirmed_cases": 872,
      "confirmed_rate_per_10k": 517.784,
      "confirmed_rate_per_100k": 5177.84,
      "deaths": 25,
      "deaths_rate_per_10k": 14.8447,
      "deaths_rate_per_100k": 148.447,
      "total_tested": 10012,
      "test_rate_per_10k": 5945.02,
      "test_rate_per_100k": 59450.2,
      "total_population": 16841,
      "latitude": 37.508700,
      "longitude": -89.284700
    },
    {
      "County": "Vermilion",
      "confirmed_cases": 2269,
      "confirmed_rate_per_10k": 295.42,
      "confirmed_rate_per_100k": 2954.2,
      "deaths": 19,
      "deaths_rate_per_10k": 2.47377,
      "deaths_rate_per_100k": 24.7377,
      "total_tested": 41404,
      "test_rate_per_10k": 5390.72,
      "test_rate_per_100k": 53907.2,
      "total_population": 76806,
      "latitude": 40.122500,
      "longitude": -87.697600
    },
    {
      "County": "Wabash",
      "confirmed_cases": 318,
      "confirmed_rate_per_10k": 275.349,
      "confirmed_rate_per_100k": 2753.49,
      "deaths": 6,
      "deaths_rate_per_10k": 5.19526,
      "deaths_rate_per_100k": 51.9526,
      "total_tested": 3275,
      "test_rate_per_10k": 2835.74,
      "test_rate_per_100k": 28357.4,
      "total_population": 11549,
      "latitude": 38.422600,
      "longitude": -87.815700
    },
    {
      "County": "Warren",
      "confirmed_cases": 678,
      "confirmed_rate_per_10k": 398.074,
      "confirmed_rate_per_100k": 3980.74,
      "deaths": 11,
      "deaths_rate_per_10k": 6.45843,
      "deaths_rate_per_100k": 64.5843,
      "total_tested": 6512,
      "test_rate_per_10k": 3823.39,
      "test_rate_per_100k": 38233.9,
      "total_population": 17032,
      "latitude": 40.875900,
      "longitude": -90.677300
    },
    {
      "County": "Washington",
      "confirmed_cases": 402,
      "confirmed_rate_per_10k": 287.245,
      "confirmed_rate_per_100k": 2872.45,
      "deaths": 2,
      "deaths_rate_per_10k": 1.42908,
      "deaths_rate_per_100k": 14.2908,
      "total_tested": 4653,
      "test_rate_per_10k": 3324.76,
      "test_rate_per_100k": 33247.6,
      "total_population": 13995,
      "latitude": 38.398900,
      "longitude": -89.322700
    },
    {
      "County": "Wayne",
      "confirmed_cases": 633,
      "confirmed_rate_per_10k": 387.583,
      "confirmed_rate_per_100k": 3875.83,
      "deaths": 20,
      "deaths_rate_per_10k": 12.2459,
      "deaths_rate_per_100k": 122.459,
      "total_tested": 6180,
      "test_rate_per_10k": 3783.98,
      "test_rate_per_100k": 37839.8,
      "total_population": 16332,
      "latitude": 38.390000,
      "longitude": -88.401600
    },
    {
      "County": "White",
      "confirmed_cases": 348,
      "confirmed_rate_per_10k": 254.665,
      "confirmed_rate_per_100k": 2546.65,
      "deaths": 5,
      "deaths_rate_per_10k": 3.65898,
      "deaths_rate_per_100k": 36.5898,
      "total_tested": 8203,
      "test_rate_per_10k": 6002.93,
      "test_rate_per_100k": 60029.3,
      "total_population": 13665,
      "latitude": 38.050100,
      "longitude": -88.246100
    },
    {
      "County": "Whiteside",
      "confirmed_cases": 2212,
      "confirmed_rate_per_10k": 397.656,
      "confirmed_rate_per_100k": 3976.56,
      "deaths": 48,
      "deaths_rate_per_10k": 8.62906,
      "deaths_rate_per_100k": 86.2906,
      "total_tested": 24853,
      "test_rate_per_10k": 4467.87,
      "test_rate_per_100k": 44678.7,
      "total_population": 55626,
      "latitude": 41.760600,
      "longitude": -89.850500
    },
    {
      "County": "Will",
      "confirmed_cases": 24010,
      "confirmed_rate_per_10k": 346.81,
      "confirmed_rate_per_100k": 3468.1,
      "deaths": 456,
      "deaths_rate_per_10k": 6.58664,
      "deaths_rate_per_100k": 65.8664,
      "total_tested": 313538,
      "test_rate_per_10k": 4528.87,
      "test_rate_per_100k": 45288.7,
      "total_population": 692310,
      "latitude": 41.505500,
      "longitude": -88.090100
    },
    {
      "County": "Williamson",
      "confirmed_cases": 2353,
      "confirmed_rate_per_10k": 350.901,
      "confirmed_rate_per_100k": 3509.01,
      "deaths": 65,
      "deaths_rate_per_10k": 9.69339,
      "deaths_rate_per_100k": 96.9339,
      "total_tested": 35361,
      "test_rate_per_10k": 5273.35,
      "test_rate_per_100k": 52733.5,
      "total_population": 67056,
      "latitude": 37.718300,
      "longitude": -88.864700
    },
    {
      "County": "Winnebago",
      "confirmed_cases": 13378,
      "confirmed_rate_per_10k": 470.922,
      "confirmed_rate_per_100k": 4709.22,
      "deaths": 199,
      "deaths_rate_per_10k": 7.00504,
      "deaths_rate_per_100k": 70.0504,
      "total_tested": 155888,
      "test_rate_per_10k": 5487.45,
      "test_rate_per_100k": 54874.5,
      "total_population": 284081,
      "latitude": 42.312100,
      "longitude": -89.170600
    },
    {
      "County": "Woodford",
      "confirmed_cases": 954,
      "confirmed_rate_per_10k": 248.031,
      "confirmed_rate_per_100k": 2480.31,
      "deaths": 17,
      "deaths_rate_per_10k": 4.41983,
      "deaths_rate_per_100k": 44.1983,
      "total_tested": 20269,
      "test_rate_per_10k": 5269.74,
      "test_rate_per_100k": 52697.4,
      "total_population": 38463,
      "latitude": 40.712900,
      "longitude": -89.170600
    }
  ]
}
