{
  "LastUpdateDate": {
    "year": 2020,
    "month": 10,
    "day": 19
  },
  "county_rates": [
    {
      "County": "Adams",
      "confirmed_cases": 1633,
      "confirmed_rate_per_10k": 248.588,
      "confirmed_rate_per_100k": 2485.88,
      "deaths": 15,
      "deaths_rate_per_10k": 2.28342,
      "deaths_rate_per_100k": 22.8342,
      "total_tested": 36622,
      "test_rate_per_10k": 5574.89,
      "test_rate_per_100k": 55748.9,
      "total_population": 65691,
      "latitude": 40.057800,
      "longitude": -91.135300
    },
    {
      "County": "Alexander",
      "confirmed_cases": 108,
      "confirmed_rate_per_10k": 178.218,
      "confirmed_rate_per_100k": 1782.18,
      "deaths": 1,
      "deaths_rate_per_10k": 1.65017,
      "deaths_rate_per_100k": 16.5017,
      "total_tested": 2286,
      "test_rate_per_10k": 3772.28,
      "test_rate_per_100k": 37722.8,
      "total_population": 6060,
      "latitude": 37.167000,
      "longitude": -89.360600
    },
    {
      "County": "Bond",
      "confirmed_cases": 466,
      "confirmed_rate_per_10k": 280.216,
      "confirmed_rate_per_100k": 2802.16,
      "deaths": 9,
      "deaths_rate_per_10k": 5.41191,
      "deaths_rate_per_100k": 54.1191,
      "total_tested": 7319,
      "test_rate_per_10k": 4401.08,
      "test_rate_per_100k": 44010.8,
      "total_population": 16630,
      "latitude": 38.903000,
      "longitude": -89.474200
    },
    {
      "County": "Boone",
      "confirmed_cases": 1655,
      "confirmed_rate_per_10k": 308.901,
      "confirmed_rate_per_100k": 3089.01,
      "deaths": 24,
      "deaths_rate_per_10k": 4.47953,
      "deaths_rate_per_100k": 44.7953,
      "total_tested": 20244,
      "test_rate_per_10k": 3778.49,
      "test_rate_per_100k": 37784.9,
      "total_population": 53577,
      "latitude": 42.348500,
      "longitude": -88.826300
    },
    {
      "County": "Brown",
      "confirmed_cases": 96,
      "confirmed_rate_per_10k": 146.431,
      "confirmed_rate_per_100k": 1464.31,
      "deaths": 0,
      "deaths_rate_per_10k": 0,
      "deaths_rate_per_100k": 0,
      "total_tested": 2007,
      "test_rate_per_10k": 3061.32,
      "test_rate_per_100k": 30613.2,
      "total_population": 6556,
      "latitude": 39.938000,
      "longitude": -90.715300
    },
    {
      "County": "Bureau",
      "confirmed_cases": 847,
      "confirmed_rate_per_10k": 256.721,
      "confirmed_rate_per_100k": 2567.21,
      "deaths": 17,
      "deaths_rate_per_10k": 5.15261,
      "deaths_rate_per_100k": 51.5261,
      "total_tested": 11968,
      "test_rate_per_10k": 3627.44,
      "test_rate_per_100k": 36274.4,
      "total_population": 32993,
      "latitude": 41.359900,
      "longitude": -89.474200
    },
    {
      "County": "Calhoun",
      "confirmed_cases": 69,
      "confirmed_rate_per_10k": 143.69,
      "confirmed_rate_per_100k": 1436.9,
      "deaths": 0,
      "deaths_rate_per_10k": 0,
      "deaths_rate_per_100k": 0,
      "total_tested": 1535,
      "test_rate_per_10k": 3196.58,
      "test_rate_per_100k": 31965.8,
      "total_population": 4802,
      "latitude": 39.173300,
      "longitude": -90.658300
    },
    {
      "County": "Carroll",
      "confirmed_cases": 365,
      "confirmed_rate_per_10k": 255.031,
      "confirmed_rate_per_100k": 2550.31,
      "deaths": 8,
      "deaths_rate_per_10k": 5.58971,
      "deaths_rate_per_100k": 55.8971,
      "total_tested": 6277,
      "test_rate_per_10k": 4385.83,
      "test_rate_per_100k": 43858.3,
      "total_population": 14312,
      "latitude": 42.038600,
      "longitude": -89.962700
    },
    {
      "County": "Cass",
      "confirmed_cases": 449,
      "confirmed_rate_per_10k": 366.232,
      "confirmed_rate_per_100k": 3662.32,
      "deaths": 11,
      "deaths_rate_per_10k": 8.97227,
      "deaths_rate_per_100k": 89.7227,
      "total_tested": 5438,
      "test_rate_per_10k": 4435.56,
      "test_rate_per_100k": 44355.6,
      "total_population": 12260,
      "latitude": 39.939900,
      "longitude": -90.262000
    },
    {
      "County": "Champaign",
      "confirmed_cases": 5680,
      "confirmed_rate_per_10k": 270.498,
      "confirmed_rate_per_100k": 2704.98,
      "deaths": 28,
      "deaths_rate_per_10k": 1.33344,
      "deaths_rate_per_100k": 13.3344,
      "total_tested": 696296,
      "test_rate_per_10k": 33159.6,
      "test_rate_per_100k": 331596,
      "total_population": 209983,
      "latitude": 40.213900,
      "longitude": -88.246100
    },
    {
      "County": "Chicago",
      "confirmed_cases": 89958,
      "confirmed_rate_per_10k": 332.44,
      "confirmed_rate_per_100k": 3324.4,
      "deaths": 3017,
      "deaths_rate_per_10k": 11.1493,
      "deaths_rate_per_100k": 111.493,
      "total_tested": 1382500,
      "test_rate_per_10k": 5109.03,
      "test_rate_per_100k": 51090.3,
      "total_population": 2705994,
      "latitude": 41.789896,
      "longitude": -87.627734
    },
    {
      "County": "Christian",
      "confirmed_cases": 771,
      "confirmed_rate_per_10k": 236.061,
      "confirmed_rate_per_100k": 2360.61,
      "deaths": 25,
      "deaths_rate_per_10k": 7.65439,
      "deaths_rate_per_100k": 76.5439,
      "total_tested": 13676,
      "test_rate_per_10k": 4187.26,
      "test_rate_per_100k": 41872.6,
      "total_population": 32661,
      "latitude": 39.567200,
      "longitude": -89.322700
    },
    {
      "County": "Clark",
      "confirmed_cases": 266,
      "confirmed_rate_per_10k": 170.557,
      "confirmed_rate_per_100k": 1705.57,
      "deaths": 6,
      "deaths_rate_per_10k": 3.84714,
      "deaths_rate_per_100k": 38.4714,
      "total_tested": 5459,
      "test_rate_per_10k": 3500.26,
      "test_rate_per_100k": 35002.6,
      "total_population": 15596,
      "latitude": 39.382400,
      "longitude": -87.776300
    },
    {
      "County": "Clay",
      "confirmed_cases": 281,
      "confirmed_rate_per_10k": 212.027,
      "confirmed_rate_per_100k": 2120.27,
      "deaths": 11,
      "deaths_rate_per_10k": 8.30001,
      "deaths_rate_per_100k": 83.0001,
      "total_tested": 4323,
      "test_rate_per_10k": 3261.9,
      "test_rate_per_100k": 32619,
      "total_population": 13253,
      "latitude": 38.727900,
      "longitude": -88.556500
    },
    {
      "County": "Clinton",
      "confirmed_cases": 1587,
      "confirmed_rate_per_10k": 421.637,
      "confirmed_rate_per_100k": 4216.37,
      "deaths": 24,
      "deaths_rate_per_10k": 6.37636,
      "deaths_rate_per_100k": 63.7636,
      "total_tested": 16475,
      "test_rate_per_10k": 4377.11,
      "test_rate_per_100k": 43771.1,
      "total_population": 37639,
      "latitude": 38.568400,
      "longitude": -89.625200
    },
    {
      "County": "Coles",
      "confirmed_cases": 1788,
      "confirmed_rate_per_10k": 351.381,
      "confirmed_rate_per_100k": 3513.81,
      "deaths": 38,
      "deaths_rate_per_10k": 7.46782,
      "deaths_rate_per_100k": 74.6782,
      "total_tested": 26919,
      "test_rate_per_10k": 5290.16,
      "test_rate_per_100k": 52901.6,
      "total_population": 50885,
      "latitude": 39.556000,
      "longitude": -88.246100
    },
    {
      "County": "Cook",
      "confirmed_cases": 75240,
      "confirmed_rate_per_10k": 304.062,
      "confirmed_rate_per_100k": 3040.62,
      "deaths": 2347,
      "deaths_rate_per_10k": 9.48475,
      "deaths_rate_per_100k": 94.8475,
      "total_tested": 1196737,
      "test_rate_per_10k": 4836.28,
      "test_rate_per_100k": 48362.8,
      "total_population": 2474499,
      "latitude": 42.050784,
      "longitude": -87.963759
    },
    {
      "County": "Crawford",
      "confirmed_cases": 624,
      "confirmed_rate_per_10k": 331.791,
      "confirmed_rate_per_100k": 3317.91,
      "deaths": 6,
      "deaths_rate_per_10k": 3.1903,
      "deaths_rate_per_100k": 31.903,
      "total_tested": 5532,
      "test_rate_per_10k": 2941.46,
      "test_rate_per_100k": 29414.6,
      "total_population": 18807,
      "latitude": 39.050000,
      "longitude": -87.776300
    },
    {
      "County": "Cumberland",
      "confirmed_cases": 253,
      "confirmed_rate_per_10k": 234.086,
      "confirmed_rate_per_100k": 2340.86,
      "deaths": 6,
      "deaths_rate_per_10k": 5.55144,
      "deaths_rate_per_100k": 55.5144,
      "total_tested": 4459,
      "test_rate_per_10k": 4125.65,
      "test_rate_per_100k": 41256.5,
      "total_population": 10808,
      "latitude": 39.265400,
      "longitude": -88.207200
    },
    {
      "County": "De Witt",
      "confirmed_cases": 227,
      "confirmed_rate_per_10k": 143.953,
      "confirmed_rate_per_100k": 1439.53,
      "deaths": 3,
      "deaths_rate_per_10k": 1.90247,
      "deaths_rate_per_100k": 19.0247,
      "total_tested": 5283,
      "test_rate_per_10k": 3350.24,
      "test_rate_per_100k": 33502.4,
      "total_population": 15769,
      "latitude": 40.181000,
      "longitude": -88.903100
    },
    {
      "County": "DeKalb",
      "confirmed_cases": 2095,
      "confirmed_rate_per_10k": 201.166,
      "confirmed_rate_per_100k": 2011.66,
      "deaths": 42,
      "deaths_rate_per_10k": 4.03292,
      "deaths_rate_per_100k": 40.3292,
      "total_tested": 41103,
      "test_rate_per_10k": 3946.78,
      "test_rate_per_100k": 39467.8,
      "total_population": 104143,
      "latitude": 41.833000,
      "longitude": -88.710900
    },
    {
      "County": "Douglas",
      "confirmed_cases": 545,
      "confirmed_rate_per_10k": 279.788,
      "confirmed_rate_per_100k": 2797.88,
      "deaths": 8,
      "deaths_rate_per_10k": 4.10699,
      "deaths_rate_per_100k": 41.0699,
      "total_tested": 10057,
      "test_rate_per_10k": 5163,
      "test_rate_per_100k": 51630,
      "total_population": 19479,
      "latitude": 39.761800,
      "longitude": -88.207200
    },
    {
      "County": "DuPage",
      "confirmed_cases": 20947,
      "confirmed_rate_per_10k": 225.579,
      "confirmed_rate_per_100k": 2255.79,
      "deaths": 598,
      "deaths_rate_per_10k": 6.43988,
      "deaths_rate_per_100k": 64.3988,
      "total_tested": 395509,
      "test_rate_per_10k": 4259.25,
      "test_rate_per_100k": 42592.5,
      "total_population": 928589,
      "latitude": 41.824400,
      "longitude": -88.090100
    },
    {
      "County": "Edgar",
      "confirmed_cases": 139,
      "confirmed_rate_per_10k": 80.0691,
      "confirmed_rate_per_100k": 800.691,
      "deaths": 8,
      "deaths_rate_per_10k": 4.60829,
      "deaths_rate_per_100k": 46.0829,
      "total_tested": 4429,
      "test_rate_per_10k": 2551.27,
      "test_rate_per_100k": 25512.7,
      "total_population": 17360,
      "latitude": 39.713100,
      "longitude": -87.776300
    },
    {
      "County": "Edwards",
      "confirmed_cases": 98,
      "confirmed_rate_per_10k": 153.317,
      "confirmed_rate_per_100k": 1533.17,
      "deaths": 0,
      "deaths_rate_per_10k": 0,
      "deaths_rate_per_100k": 0,
      "total_tested": 1027,
      "test_rate_per_10k": 1606.7,
      "test_rate_per_100k": 16067,
      "total_population": 6392,
      "latitude": 38.426800,
      "longitude": -88.051000
    },
    {
      "County": "Effingham",
      "confirmed_cases": 1090,
      "confirmed_rate_per_10k": 318.639,
      "confirmed_rate_per_100k": 3186.39,
      "deaths": 3,
      "deaths_rate_per_10k": 0.876988,
      "deaths_rate_per_100k": 8.76988,
      "total_tested": 14232,
      "test_rate_per_10k": 4160.43,
      "test_rate_per_100k": 41604.3,
      "total_population": 34208,
      "latitude": 39.062200,
      "longitude": -88.556500
    },
    {
      "County": "Fayette",
      "confirmed_cases": 630,
      "confirmed_rate_per_10k": 294.173,
      "confirmed_rate_per_100k": 2941.73,
      "deaths": 19,
      "deaths_rate_per_10k": 8.87187,
      "deaths_rate_per_100k": 88.7187,
      "total_tested": 7735,
      "test_rate_per_10k": 3611.79,
      "test_rate_per_100k": 36117.9,
      "total_population": 21416,
      "latitude": 39.067000,
      "longitude": -89.017900
    },
    {
      "County": "Ford",
      "confirmed_cases": 179,
      "confirmed_rate_per_10k": 134.952,
      "confirmed_rate_per_100k": 1349.52,
      "deaths": 9,
      "deaths_rate_per_10k": 6.78528,
      "deaths_rate_per_100k": 67.8528,
      "total_tested": 6394,
      "test_rate_per_10k": 4820.57,
      "test_rate_per_100k": 48205.7,
      "total_population": 13264,
      "latitude": 40.498900,
      "longitude": -88.207200
    },
    {
      "County": "Franklin",
      "confirmed_cases": 840,
      "confirmed_rate_per_10k": 217.049,
      "confirmed_rate_per_100k": 2170.49,
      "deaths": 6,
      "deaths_rate_per_10k": 1.55035,
      "deaths_rate_per_100k": 15.5035,
      "total_tested": 14915,
      "test_rate_per_10k": 3853.91,
      "test_rate_per_100k": 38539.1,
      "total_population": 38701,
      "latitude": 38.015700,
      "longitude": -88.903100
    },
    {
      "County": "Fulton",
      "confirmed_cases": 403,
      "confirmed_rate_per_10k": 115.658,
      "confirmed_rate_per_100k": 1156.58,
      "deaths": 0,
      "deaths_rate_per_10k": 0,
      "deaths_rate_per_100k": 0,
      "total_tested": 13591,
      "test_rate_per_10k": 3900.53,
      "test_rate_per_100k": 39005.3,
      "total_population": 34844,
      "latitude": 40.553200,
      "longitude": -90.224500
    },
    {
      "County": "Gallatin",
      "confirmed_cases": 105,
      "confirmed_rate_per_10k": 207.592,
      "confirmed_rate_per_100k": 2075.92,
      "deaths": 2,
      "deaths_rate_per_10k": 3.95413,
      "deaths_rate_per_100k": 39.5413,
      "total_tested": 993,
      "test_rate_per_10k": 1963.23,
      "test_rate_per_100k": 19632.3,
      "total_population": 5058,
      "latitude": 37.710800,
      "longitude": -88.246100
    },
    {
      "County": "Greene",
      "confirmed_cases": 269,
      "confirmed_rate_per_10k": 206.225,
      "confirmed_rate_per_100k": 2062.25,
      "deaths": 15,
      "deaths_rate_per_10k": 11.4995,
      "deaths_rate_per_100k": 114.995,
      "total_tested": 4483,
      "test_rate_per_10k": 3436.83,
      "test_rate_per_100k": 34368.3,
      "total_population": 13044,
      "latitude": 39.403000,
      "longitude": -90.374800
    },
    {
      "County": "Grundy",
      "confirmed_cases": 877,
      "confirmed_rate_per_10k": 172.055,
      "confirmed_rate_per_100k": 1720.55,
      "deaths": 7,
      "deaths_rate_per_10k": 1.3733,
      "deaths_rate_per_100k": 13.733,
      "total_tested": 13020,
      "test_rate_per_10k": 2554.34,
      "test_rate_per_100k": 25543.4,
      "total_population": 50972,
      "latitude": 41.350100,
      "longitude": -88.401600
    },
    {
      "County": "Hamilton",
      "confirmed_cases": 113,
      "confirmed_rate_per_10k": 138.429,
      "confirmed_rate_per_100k": 1384.29,
      "deaths": 2,
      "deaths_rate_per_10k": 2.45008,
      "deaths_rate_per_100k": 24.5008,
      "total_tested": 1883,
      "test_rate_per_10k": 2306.75,
      "test_rate_per_100k": 23067.5,
      "total_population": 8163,
      "latitude": 38.054300,
      "longitude": -88.556500
    },
    {
      "County": "Hancock",
      "confirmed_cases": 284,
      "confirmed_rate_per_10k": 159.157,
      "confirmed_rate_per_100k": 1591.57,
      "deaths": 3,
      "deaths_rate_per_10k": 1.68124,
      "deaths_rate_per_100k": 16.8124,
      "total_tested": 6526,
      "test_rate_per_10k": 3657.25,
      "test_rate_per_100k": 36572.5,
      "total_population": 17844,
      "latitude": 40.384900,
      "longitude": -91.135300
    },
    {
      "County": "Hardin",
      "confirmed_cases": 49,
      "confirmed_rate_per_10k": 125.32,
      "confirmed_rate_per_100k": 1253.2,
      "deaths": 0,
      "deaths_rate_per_10k": 0,
      "deaths_rate_per_100k": 0,
      "total_tested": 1241,
      "test_rate_per_10k": 3173.91,
      "test_rate_per_100k": 31739.1,
      "total_population": 3910,
      "latitude": 37.499500,
      "longitude": -88.362800
    },
    {
      "County": "Henderson",
      "confirmed_cases": 111,
      "confirmed_rate_per_10k": 165.449,
      "confirmed_rate_per_100k": 1654.49,
      "deaths": 0,
      "deaths_rate_per_10k": 0,
      "deaths_rate_per_100k": 0,
      "total_tested": 1713,
      "test_rate_per_10k": 2553.29,
      "test_rate_per_100k": 25532.9,
      "total_population": 6709,
      "latitude": 40.833600,
      "longitude": -90.943800
    },
    {
      "County": "Henry",
      "confirmed_cases": 794,
      "confirmed_rate_per_10k": 161.744,
      "confirmed_rate_per_100k": 1617.44,
      "deaths": 5,
      "deaths_rate_per_10k": 1.01854,
      "deaths_rate_per_100k": 10.1854,
      "total_tested": 19815,
      "test_rate_per_10k": 4036.46,
      "test_rate_per_100k": 40364.6,
      "total_population": 49090,
      "latitude": 41.361100,
      "longitude": -90.074700
    },
    {
      "County": "Iroquois",
      "confirmed_cases": 451,
      "confirmed_rate_per_10k": 163.382,
      "confirmed_rate_per_100k": 1633.82,
      "deaths": 19,
      "deaths_rate_per_10k": 6.88306,
      "deaths_rate_per_100k": 68.8306,
      "total_tested": 13325,
      "test_rate_per_10k": 4827.2,
      "test_rate_per_100k": 48272,
      "total_population": 27604,
      "latitude": 40.774000,
      "longitude": -87.697600
    },
    {
      "County": "Jackson",
      "confirmed_cases": 1433,
      "confirmed_rate_per_10k": 249.569,
      "confirmed_rate_per_100k": 2495.69,
      "deaths": 25,
      "deaths_rate_per_10k": 4.35396,
      "deaths_rate_per_100k": 43.5396,
      "total_tested": 21691,
      "test_rate_per_10k": 3777.67,
      "test_rate_per_100k": 37776.7,
      "total_population": 57419,
      "latitude": 37.721800,
      "longitude": -89.322700
    },
    {
      "County": "Jasper",
      "confirmed_cases": 247,
      "confirmed_rate_per_10k": 256.997,
      "confirmed_rate_per_100k": 2569.97,
      "deaths": 10,
      "deaths_rate_per_10k": 10.4047,
      "deaths_rate_per_100k": 104.047,
      "total_tested": 3228,
      "test_rate_per_10k": 3358.65,
      "test_rate_per_100k": 33586.5,
      "total_population": 9611,
      "latitude": 39.055500,
      "longitude": -88.090100
    },
    {
      "County": "Jefferson",
      "confirmed_cases": 858,
      "confirmed_rate_per_10k": 226.864,
      "confirmed_rate_per_100k": 2268.64,
      "deaths": 44,
      "deaths_rate_per_10k": 11.6341,
      "deaths_rate_per_100k": 116.341,
      "total_tested": 12020,
      "test_rate_per_10k": 3178.21,
      "test_rate_per_100k": 31782.1,
      "total_population": 37820,
      "latitude": 38.226700,
      "longitude": -88.864700
    },
    {
      "County": "Jersey",
      "confirmed_cases": 456,
      "confirmed_rate_per_10k": 208.724,
      "confirmed_rate_per_100k": 2087.24,
      "deaths": 21,
      "deaths_rate_per_10k": 9.6123,
      "deaths_rate_per_100k": 96.123,
      "total_tested": 7534,
      "test_rate_per_10k": 3448.53,
      "test_rate_per_100k": 34485.3,
      "total_population": 21847,
      "latitude": 39.070500,
      "longitude": -90.374800
    },
    {
      "County": "Jo Daviess",
      "confirmed_cases": 427,
      "confirmed_rate_per_10k": 199.85,
      "confirmed_rate_per_100k": 1998.5,
      "deaths": 5,
      "deaths_rate_per_10k": 2.34017,
      "deaths_rate_per_100k": 23.4017,
      "total_tested": 6859,
      "test_rate_per_10k": 3210.24,
      "test_rate_per_100k": 32102.4,
      "total_population": 21366,
      "latitude": 42.314900,
      "longitude": -90.224500
    },
    {
      "County": "Johnson",
      "confirmed_cases": 313,
      "confirmed_rate_per_10k": 251.285,
      "confirmed_rate_per_100k": 2512.85,
      "deaths": 0,
      "deaths_rate_per_10k": 0,
      "deaths_rate_per_100k": 0,
      "total_tested": 3562,
      "test_rate_per_10k": 2859.67,
      "test_rate_per_100k": 28596.7,
      "total_population": 12456,
      "latitude": 37.420400,
      "longitude": -88.903100
    },
    {
      "County": "Kane",
      "confirmed_cases": 15422,
      "confirmed_rate_per_10k": 288.685,
      "confirmed_rate_per_100k": 2886.85,
      "deaths": 341,
      "deaths_rate_per_10k": 6.38319,
      "deaths_rate_per_100k": 63.8319,
      "total_tested": 210089,
      "test_rate_per_10k": 3932.66,
      "test_rate_per_100k": 39326.6,
      "total_population": 534216,
      "latitude": 41.987900,
      "longitude": -88.401600
    },
    {
      "County": "Kankakee",
      "confirmed_cases": 3168,
      "confirmed_rate_per_10k": 287.937,
      "confirmed_rate_per_100k": 2879.37,
      "deaths": 78,
      "deaths_rate_per_10k": 7.08936,
      "deaths_rate_per_100k": 70.8936,
      "total_tested": 61179,
      "test_rate_per_10k": 5560.51,
      "test_rate_per_100k": 55605.1,
      "total_population": 110024,
      "latitude": 41.179100,
      "longitude": -87.776300
    },
    {
      "County": "Kendall",
      "confirmed_cases": 2470,
      "confirmed_rate_per_10k": 193.097,
      "confirmed_rate_per_100k": 1930.97,
      "deaths": 27,
      "deaths_rate_per_10k": 2.11078,
      "deaths_rate_per_100k": 21.1078,
      "total_tested": 41247,
      "test_rate_per_10k": 3224.56,
      "test_rate_per_100k": 32245.6,
      "total_population": 127915,
      "latitude": 41.550700,
      "longitude": -88.440400
    },
    {
      "County": "Knox",
      "confirmed_cases": 1096,
      "confirmed_rate_per_10k": 218.71,
      "confirmed_rate_per_100k": 2187.1,
      "deaths": 9,
      "deaths_rate_per_10k": 1.79598,
      "deaths_rate_per_100k": 17.9598,
      "total_tested": 21968,
      "test_rate_per_10k": 4383.78,
      "test_rate_per_100k": 43837.8,
      "total_population": 50112,
      "latitude": 40.877600,
      "longitude": -90.224500
    },
    {
      "County": "Lake",
      "confirmed_cases": 19546,
      "confirmed_rate_per_10k": 278.897,
      "confirmed_rate_per_100k": 2788.97,
      "deaths": 503,
      "deaths_rate_per_10k": 7.17718,
      "deaths_rate_per_100k": 71.7718,
      "total_tested": 301180,
      "test_rate_per_10k": 4297.46,
      "test_rate_per_100k": 42974.6,
      "total_population": 700832,
      "latitude": 42.368900,
      "longitude": -87.827200
    },
    {
      "County": "LaSalle",
      "confirmed_cases": 2184,
      "confirmed_rate_per_10k": 199.58,
      "confirmed_rate_per_100k": 1995.8,
      "deaths": 60,
      "deaths_rate_per_10k": 5.48296,
      "deaths_rate_per_100k": 54.8296,
      "total_tested": 36777,
      "test_rate_per_10k": 3360.78,
      "test_rate_per_100k": 33607.8,
      "total_population": 109430,
      "latitude": 41.436400,
      "longitude": -88.941400
    },
    {
      "County": "Lawrence",
      "confirmed_cases": 306,
      "confirmed_rate_per_10k": 194.101,
      "confirmed_rate_per_100k": 1941.01,
      "deaths": 8,
      "deaths_rate_per_10k": 5.07453,
      "deaths_rate_per_100k": 50.7453,
      "total_tested": 6289,
      "test_rate_per_10k": 3989.22,
      "test_rate_per_100k": 39892.2,
      "total_population": 15765,
      "latitude": 38.715800,
      "longitude": -87.776300
    },
    {
      "County": "Lee",
      "confirmed_cases": 612,
      "confirmed_rate_per_10k": 178.827,
      "confirmed_rate_per_100k": 1788.27,
      "deaths": 1,
      "deaths_rate_per_10k": 0.292201,
      "deaths_rate_per_100k": 2.92201,
      "total_tested": 9787,
      "test_rate_per_10k": 2859.77,
      "test_rate_per_100k": 28597.7,
      "total_population": 34223,
      "latitude": 41.679000,
      "longitude": -89.322700
    },
    {
      "County": "Livingston",
      "confirmed_cases": 549,
      "confirmed_rate_per_10k": 153.519,
      "confirmed_rate_per_100k": 1535.19,
      "deaths": 10,
      "deaths_rate_per_10k": 2.79634,
      "deaths_rate_per_100k": 27.9634,
      "total_tested": 16019,
      "test_rate_per_10k": 4479.46,
      "test_rate_per_100k": 44794.6,
      "total_population": 35761,
      "latitude": 40.868900,
      "longitude": -88.556500
    },
    {
      "County": "Logan",
      "confirmed_cases": 543,
      "confirmed_rate_per_10k": 187.727,
      "confirmed_rate_per_100k": 1877.27,
      "deaths": 4,
      "deaths_rate_per_10k": 1.38289,
      "deaths_rate_per_100k": 13.8289,
      "total_tested": 17337,
      "test_rate_per_10k": 5993.78,
      "test_rate_per_100k": 59937.8,
      "total_population": 28925,
      "latitude": 40.061300,
      "longitude": -89.322700
    },
    {
      "County": "Macon",
      "confirmed_cases": 2568,
      "confirmed_rate_per_10k": 245.244,
      "confirmed_rate_per_100k": 2452.44,
      "deaths": 48,
      "deaths_rate_per_10k": 4.584,
      "deaths_rate_per_100k": 45.84,
      "total_tested": 48447,
      "test_rate_per_10k": 4626.69,
      "test_rate_per_100k": 46266.9,
      "total_population": 104712,
      "latitude": 39.894900,
      "longitude": -89.017900
    },
    {
      "County": "Macoupin",
      "confirmed_cases": 731,
      "confirmed_rate_per_10k": 161.322,
      "confirmed_rate_per_100k": 1613.22,
      "deaths": 9,
      "deaths_rate_per_10k": 1.98618,
      "deaths_rate_per_100k": 19.8618,
      "total_tested": 21510,
      "test_rate_per_10k": 4746.98,
      "test_rate_per_100k": 47469.8,
      "total_population": 45313,
      "latitude": 39.237500,
      "longitude": -89.925300
    },
    {
      "County": "Madison",
      "confirmed_cases": 6795,
      "confirmed_rate_per_10k": 256.938,
      "confirmed_rate_per_100k": 2569.38,
      "deaths": 152,
      "deaths_rate_per_10k": 5.74754,
      "deaths_rate_per_100k": 57.4754,
      "total_tested": 93079,
      "test_rate_per_10k": 3519.57,
      "test_rate_per_100k": 35195.7,
      "total_population": 264461,
      "latitude": 38.904100,
      "longitude": -89.925300
    },
    {
      "County": "Marion",
      "confirmed_cases": 845,
      "confirmed_rate_per_10k": 224.615,
      "confirmed_rate_per_100k": 2246.15,
      "deaths": 12,
      "deaths_rate_per_10k": 3.18979,
      "deaths_rate_per_100k": 31.8979,
      "total_tested": 17251,
      "test_rate_per_10k": 4585.59,
      "test_rate_per_100k": 45855.9,
      "total_population": 37620,
      "latitude": 38.731300,
      "longitude": -88.864700
    },
    {
      "County": "Marshall",
      "confirmed_cases": 137,
      "confirmed_rate_per_10k": 118.779,
      "confirmed_rate_per_100k": 1187.79,
      "deaths": 3,
      "deaths_rate_per_10k": 2.60101,
      "deaths_rate_per_100k": 26.0101,
      "total_tested": 5396,
      "test_rate_per_10k": 4678.34,
      "test_rate_per_100k": 46783.4,
      "total_population": 11534,
      "latitude": 40.997300,
      "longitude": -89.360600
    },
    {
      "County": "Mason",
      "confirmed_cases": 235,
      "confirmed_rate_per_10k": 173.24,
      "confirmed_rate_per_100k": 1732.4,
      "deaths": 1,
      "deaths_rate_per_10k": 0.737191,
      "deaths_rate_per_100k": 7.37191,
      "total_tested": 5826,
      "test_rate_per_10k": 4294.88,
      "test_rate_per_100k": 42948.8,
      "total_population": 13565,
      "latitude": 40.227100,
      "longitude": -89.925300
    },
    {
      "County": "Massac",
      "confirmed_cases": 141,
      "confirmed_rate_per_10k": 100.142,
      "confirmed_rate_per_100k": 1001.42,
      "deaths": 2,
      "deaths_rate_per_10k": 1.42045,
      "deaths_rate_per_100k": 14.2045,
      "total_tested": 3257,
      "test_rate_per_10k": 2313.21,
      "test_rate_per_100k": 23132.1,
      "total_population": 14080,
      "latitude": 37.247800,
      "longitude": -88.749400
    },
    {
      "County": "McDonough",
      "confirmed_cases": 665,
      "confirmed_rate_per_10k": 222,
      "confirmed_rate_per_100k": 2220,
      "deaths": 15,
      "deaths_rate_per_10k": 5.00751,
      "deaths_rate_per_100k": 50.0751,
      "total_tested": 11001,
      "test_rate_per_10k": 3672.51,
      "test_rate_per_100k": 36725.1,
      "total_population": 29955,
      "latitude": 40.388500,
      "longitude": -90.677300
    },
    {
      "County": "McHenry",
      "confirmed_cases": 5642,
      "confirmed_rate_per_10k": 182.843,
      "confirmed_rate_per_100k": 1828.43,
      "deaths": 120,
      "deaths_rate_per_10k": 3.88891,
      "deaths_rate_per_100k": 38.8891,
      "total_tested": 93302,
      "test_rate_per_10k": 3023.69,
      "test_rate_per_100k": 30236.9,
      "total_population": 308570,
      "latitude": 42.304000,
      "longitude": -88.401600
    },
    {
      "County": "McLean",
      "confirmed_cases": 3867,
      "confirmed_rate_per_10k": 223.748,
      "confirmed_rate_per_100k": 2237.48,
      "deaths": 30,
      "deaths_rate_per_10k": 1.73583,
      "deaths_rate_per_100k": 17.3583,
      "total_tested": 92049,
      "test_rate_per_10k": 5326.05,
      "test_rate_per_100k": 53260.5,
      "total_population": 172828,
      "latitude": 40.547800,
      "longitude": -88.864700
    },
    {
      "County": "Menard",
      "confirmed_cases": 159,
      "confirmed_rate_per_10k": 129.395,
      "confirmed_rate_per_100k": 1293.95,
      "deaths": 1,
      "deaths_rate_per_10k": 0.813802,
      "deaths_rate_per_100k": 8.13802,
      "total_tested": 5656,
      "test_rate_per_10k": 4602.86,
      "test_rate_per_100k": 46028.6,
      "total_population": 12288,
      "latitude": 40.022100,
      "longitude": -89.813000
    },
    {
      "County": "Mercer",
      "confirmed_cases": 219,
      "confirmed_rate_per_10k": 140.376,
      "confirmed_rate_per_100k": 1403.76,
      "deaths": 6,
      "deaths_rate_per_10k": 3.84591,
      "deaths_rate_per_100k": 38.4591,
      "total_tested": 5903,
      "test_rate_per_10k": 3783.73,
      "test_rate_per_100k": 37837.3,
      "total_population": 15601,
      "latitude": 41.198500,
      "longitude": -90.677300
    },
    {
      "County": "Monroe",
      "confirmed_cases": 849,
      "confirmed_rate_per_10k": 247.27,
      "confirmed_rate_per_100k": 2472.7,
      "deaths": 28,
      "deaths_rate_per_10k": 8.15494,
      "deaths_rate_per_100k": 81.5494,
      "total_tested": 10268,
      "test_rate_per_10k": 2990.53,
      "test_rate_per_100k": 29905.3,
      "total_population": 34335,
      "latitude": 38.274300,
      "longitude": -90.187000
    },
    {
      "County": "Montgomery",
      "confirmed_cases": 548,
      "confirmed_rate_per_10k": 191.602,
      "confirmed_rate_per_100k": 1916.02,
      "deaths": 15,
      "deaths_rate_per_10k": 5.24457,
      "deaths_rate_per_100k": 52.4457,
      "total_tested": 16317,
      "test_rate_per_10k": 5705.05,
      "test_rate_per_100k": 57050.5,
      "total_population": 28601,
      "latitude": 39.236400,
      "longitude": -89.474200
    },
    {
      "County": "Morgan",
      "confirmed_cases": 796,
      "confirmed_rate_per_10k": 234.283,
      "confirmed_rate_per_100k": 2342.83,
      "deaths": 24,
      "deaths_rate_per_10k": 7.06381,
      "deaths_rate_per_100k": 70.6381,
      "total_tested": 15389,
      "test_rate_per_10k": 4529.37,
      "test_rate_per_100k": 45293.7,
      "total_population": 33976,
      "latitude": 39.734100,
      "longitude": -90.224500
    },
    {
      "County": "Moultrie",
      "confirmed_cases": 375,
      "confirmed_rate_per_10k": 254.807,
      "confirmed_rate_per_100k": 2548.07,
      "deaths": 5,
      "deaths_rate_per_10k": 3.39743,
      "deaths_rate_per_100k": 33.9743,
      "total_tested": 6335,
      "test_rate_per_10k": 4304.55,
      "test_rate_per_100k": 43045.5,
      "total_population": 14717,
      "latitude": 39.602100,
      "longitude": -88.595200
    },
    {
      "County": "Ogle",
      "confirmed_cases": 1052,
      "confirmed_rate_per_10k": 206.586,
      "confirmed_rate_per_100k": 2065.86,
      "deaths": 7,
      "deaths_rate_per_10k": 1.37462,
      "deaths_rate_per_100k": 13.7462,
      "total_tested": 18210,
      "test_rate_per_10k": 3575.99,
      "test_rate_per_100k": 35759.9,
      "total_population": 50923,
      "latitude": 41.997000,
      "longitude": -89.322700
    },
    {
      "County": "Peoria",
      "confirmed_cases": 4243,
      "confirmed_rate_per_10k": 234.912,
      "confirmed_rate_per_100k": 2349.12,
      "deaths": 62,
      "deaths_rate_per_10k": 3.4326,
      "deaths_rate_per_100k": 34.326,
      "total_tested": 104132,
      "test_rate_per_10k": 5765.22,
      "test_rate_per_100k": 57652.2,
      "total_population": 180621,
      "latitude": 40.715600,
      "longitude": -89.775500
    },
    {
      "County": "Perry",
      "confirmed_cases": 406,
      "confirmed_rate_per_10k": 191.745,
      "confirmed_rate_per_100k": 1917.45,
      "deaths": 16,
      "deaths_rate_per_10k": 7.55644,
      "deaths_rate_per_100k": 75.5644,
      "total_tested": 7322,
      "test_rate_per_10k": 3458.01,
      "test_rate_per_100k": 34580.1,
      "total_population": 21174,
      "latitude": 38.061200,
      "longitude": -89.322700
    },
    {
      "County": "Piatt",
      "confirmed_cases": 207,
      "confirmed_rate_per_10k": 126.25,
      "confirmed_rate_per_100k": 1262.5,
      "deaths": 0,
      "deaths_rate_per_10k": 0,
      "deaths_rate_per_100k": 0,
      "total_tested": 9861,
      "test_rate_per_10k": 6014.27,
      "test_rate_per_100k": 60142.7,
      "total_population": 16396,
      "latitude": 40.054400,
      "longitude": -88.855650
    },
    {
      "County": "Pike",
      "confirmed_cases": 260,
      "confirmed_rate_per_10k": 166.549,
      "confirmed_rate_per_100k": 1665.49,
      "deaths": 4,
      "deaths_rate_per_10k": 2.5623,
      "deaths_rate_per_100k": 25.623,
      "total_tested": 4737,
      "test_rate_per_10k": 3034.4,
      "test_rate_per_100k": 30344,
      "total_population": 15611,
      "latitude": 39.566200,
      "longitude": -90.829400
    },
    {
      "County": "Pope",
      "confirmed_cases": 36,
      "confirmed_rate_per_10k": 85.4701,
      "confirmed_rate_per_100k": 854.701,
      "deaths": 1,
      "deaths_rate_per_10k": 2.37417,
      "deaths_rate_per_100k": 23.7417,
      "total_tested": 721,
      "test_rate_per_10k": 1711.78,
      "test_rate_per_100k": 17117.8,
      "total_population": 4212,
      "latitude": 37.417100,
      "longitude": -88.595200
    },
    {
      "County": "Pulaski",
      "confirmed_cases": 226,
      "confirmed_rate_per_10k": 413.692,
      "confirmed_rate_per_100k": 4136.92,
      "deaths": 1,
      "deaths_rate_per_10k": 1.8305,
      "deaths_rate_per_100k": 18.305,
      "total_tested": 1872,
      "test_rate_per_10k": 3426.69,
      "test_rate_per_100k": 34266.9,
      "total_population": 5463,
      "latitude": 37.251200,
      "longitude": -89.132500
    },
    {
      "County": "Putnam",
      "confirmed_cases": 85,
      "confirmed_rate_per_10k": 148.084,
      "confirmed_rate_per_100k": 1480.84,
      "deaths": 0,
      "deaths_rate_per_10k": 0,
      "deaths_rate_per_100k": 0,
      "total_tested": 1479,
      "test_rate_per_10k": 2576.66,
      "test_rate_per_100k": 25766.6,
      "total_population": 5740,
      "latitude": 41.238500,
      "longitude": -89.284700
    },
    {
      "County": "Randolph",
      "confirmed_cases": 1145,
      "confirmed_rate_per_10k": 356.631,
      "confirmed_rate_per_100k": 3566.31,
      "deaths": 14,
      "deaths_rate_per_10k": 4.36056,
      "deaths_rate_per_100k": 43.6056,
      "total_tested": 14460,
      "test_rate_per_10k": 4503.83,
      "test_rate_per_100k": 45038.3,
      "total_population": 32106,
      "latitude": 38.062900,
      "longitude": -89.775500
    },
    {
      "County": "Richland",
      "confirmed_cases": 317,
      "confirmed_rate_per_10k": 201.104,
      "confirmed_rate_per_100k": 2011.04,
      "deaths": 14,
      "deaths_rate_per_10k": 8.88156,
      "deaths_rate_per_100k": 88.8156,
      "total_tested": 7488,
      "test_rate_per_10k": 4750.36,
      "test_rate_per_100k": 47503.6,
      "total_population": 15763,
      "latitude": 38.721300,
      "longitude": -88.090100
    },
    {
      "County": "Rock Island",
      "confirmed_cases": 3670,
      "confirmed_rate_per_10k": 255.79,
      "confirmed_rate_per_100k": 2557.9,
      "deaths": 88,
      "deaths_rate_per_10k": 6.13339,
      "deaths_rate_per_100k": 61.3339,
      "total_tested": 69660,
      "test_rate_per_10k": 4855.13,
      "test_rate_per_100k": 48551.3,
      "total_population": 143477,
      "latitude": 41.509500,
      "longitude": -90.578700
    },
    {
      "County": "Saline",
      "confirmed_cases": 503,
      "confirmed_rate_per_10k": 210.407,
      "confirmed_rate_per_100k": 2104.07,
      "deaths": 7,
      "deaths_rate_per_10k": 2.92814,
      "deaths_rate_per_100k": 29.2814,
      "total_tested": 7848,
      "test_rate_per_10k": 3282.86,
      "test_rate_per_100k": 32828.6,
      "total_population": 23906,
      "latitude": 37.715000,
      "longitude": -88.556500
    },
    {
      "County": "Sangamon",
      "confirmed_cases": 3475,
      "confirmed_rate_per_10k": 177.888,
      "confirmed_rate_per_100k": 1778.88,
      "deaths": 54,
      "deaths_rate_per_10k": 2.7643,
      "deaths_rate_per_100k": 27.643,
      "total_tested": 124245,
      "test_rate_per_10k": 6360.19,
      "test_rate_per_100k": 63601.9,
      "total_population": 195348,
      "latitude": 39.733700,
      "longitude": -89.625200
    },
    {
      "County": "Schuyler",
      "confirmed_cases": 80,
      "confirmed_rate_per_10k": 115.825,
      "confirmed_rate_per_100k": 1158.25,
      "deaths": 1,
      "deaths_rate_per_10k": 1.44781,
      "deaths_rate_per_100k": 14.4781,
      "total_tested": 2171,
      "test_rate_per_10k": 3143.19,
      "test_rate_per_100k": 31431.9,
      "total_population": 6907,
      "latitude": 40.184500,
      "longitude": -90.639400
    },
    {
      "County": "Scott",
      "confirmed_cases": 93,
      "confirmed_rate_per_10k": 188.794,
      "confirmed_rate_per_100k": 1887.94,
      "deaths": 0,
      "deaths_rate_per_10k": 0,
      "deaths_rate_per_100k": 0,
      "total_tested": 2585,
      "test_rate_per_10k": 5247.67,
      "test_rate_per_100k": 52476.7,
      "total_population": 4926,
      "latitude": 39.609500,
      "longitude": -90.488000
    },
    {
      "County": "Shelby",
      "confirmed_cases": 586,
      "confirmed_rate_per_10k": 269.537,
      "confirmed_rate_per_100k": 2695.37,
      "deaths": 8,
      "deaths_rate_per_10k": 3.67968,
      "deaths_rate_per_100k": 36.7968,
      "total_tested": 8141,
      "test_rate_per_10k": 3744.54,
      "test_rate_per_100k": 37445.4,
      "total_population": 21741,
      "latitude": 39.398100,
      "longitude": -88.864700
    },
    {
      "County": "St. Clair",
      "confirmed_cases": 7559,
      "confirmed_rate_per_10k": 289.551,
      "confirmed_rate_per_100k": 2895.51,
      "deaths": 213,
      "deaths_rate_per_10k": 8.15908,
      "deaths_rate_per_100k": 81.5908,
      "total_tested": 99651,
      "test_rate_per_10k": 3817.18,
      "test_rate_per_100k": 38171.8,
      "total_population": 261059,
      "latitude": 38.400800,
      "longitude": -89.925300
    },
    {
      "County": "Stark",
      "confirmed_cases": 79,
      "confirmed_rate_per_10k": 145.568,
      "confirmed_rate_per_100k": 1455.68,
      "deaths": 2,
      "deaths_rate_per_10k": 3.68528,
      "deaths_rate_per_100k": 36.8528,
      "total_tested": 2499,
      "test_rate_per_10k": 4604.75,
      "test_rate_per_100k": 46047.5,
      "total_population": 5427,
      "latitude": 41.079600,
      "longitude": -89.813000
    },
    {
      "County": "Stephenson",
      "confirmed_cases": 814,
      "confirmed_rate_per_10k": 181.887,
      "confirmed_rate_per_100k": 1818.87,
      "deaths": 7,
      "deaths_rate_per_10k": 1.56414,
      "deaths_rate_per_100k": 15.6414,
      "total_tested": 15692,
      "test_rate_per_10k": 3506.36,
      "test_rate_per_100k": 35063.6,
      "total_population": 44753,
      "latitude": 42.314500,
      "longitude": -89.625200
    },
    {
      "County": "Tazewell",
      "confirmed_cases": 2405,
      "confirmed_rate_per_10k": 181.745,
      "confirmed_rate_per_100k": 1817.45,
      "deaths": 47,
      "deaths_rate_per_10k": 3.55178,
      "deaths_rate_per_100k": 35.5178,
      "total_tested": 70375,
      "test_rate_per_10k": 5318.22,
      "test_rate_per_100k": 53182.2,
      "total_population": 132328,
      "latitude": 40.552200,
      "longitude": -89.474200
    },
    {
      "County": "Union",
      "confirmed_cases": 730,
      "confirmed_rate_per_10k": 433.466,
      "confirmed_rate_per_100k": 4334.66,
      "deaths": 25,
      "deaths_rate_per_10k": 14.8447,
      "deaths_rate_per_100k": 148.447,
      "total_tested": 8018,
      "test_rate_per_10k": 4761,
      "test_rate_per_100k": 47610,
      "total_population": 16841,
      "latitude": 37.508700,
      "longitude": -89.284700
    },
    {
      "County": "Vermilion",
      "confirmed_cases": 1541,
      "confirmed_rate_per_10k": 200.635,
      "confirmed_rate_per_100k": 2006.35,
      "deaths": 7,
      "deaths_rate_per_10k": 0.911387,
      "deaths_rate_per_100k": 9.11387,
      "total_tested": 34373,
      "test_rate_per_10k": 4475.3,
      "test_rate_per_100k": 44753,
      "total_population": 76806,
      "latitude": 40.122500,
      "longitude": -87.697600
    },
    {
      "County": "Wabash",
      "confirmed_cases": 205,
      "confirmed_rate_per_10k": 177.505,
      "confirmed_rate_per_100k": 1775.05,
      "deaths": 5,
      "deaths_rate_per_10k": 4.32938,
      "deaths_rate_per_100k": 43.2938,
      "total_tested": 2795,
      "test_rate_per_10k": 2420.12,
      "test_rate_per_100k": 24201.2,
      "total_population": 11549,
      "latitude": 38.422600,
      "longitude": -87.815700
    },
    {
      "County": "Warren",
      "confirmed_cases": 451,
      "confirmed_rate_per_10k": 264.796,
      "confirmed_rate_per_100k": 2647.96,
      "deaths": 7,
      "deaths_rate_per_10k": 4.10991,
      "deaths_rate_per_100k": 41.0991,
      "total_tested": 5063,
      "test_rate_per_10k": 2972.64,
      "test_rate_per_100k": 29726.4,
      "total_population": 17032,
      "latitude": 40.875900,
      "longitude": -90.677300
    },
    {
      "County": "Washington",
      "confirmed_cases": 278,
      "confirmed_rate_per_10k": 198.642,
      "confirmed_rate_per_100k": 1986.42,
      "deaths": 1,
      "deaths_rate_per_10k": 0.714541,
      "deaths_rate_per_100k": 7.14541,
      "total_tested": 3844,
      "test_rate_per_10k": 2746.7,
      "test_rate_per_100k": 27467,
      "total_population": 13995,
      "latitude": 38.398900,
      "longitude": -89.322700
    },
    {
      "County": "Wayne",
      "confirmed_cases": 434,
      "confirmed_rate_per_10k": 265.736,
      "confirmed_rate_per_100k": 2657.36,
      "deaths": 10,
      "deaths_rate_per_10k": 6.12295,
      "deaths_rate_per_100k": 61.2295,
      "total_tested": 5241,
      "test_rate_per_10k": 3209.04,
      "test_rate_per_100k": 32090.4,
      "total_population": 16332,
      "latitude": 38.390000,
      "longitude": -88.401600
    },
    {
      "County": "White",
      "confirmed_cases": 235,
      "confirmed_rate_per_10k": 171.972,
      "confirmed_rate_per_100k": 1719.72,
      "deaths": 1,
      "deaths_rate_per_10k": 0.731797,
      "deaths_rate_per_100k": 7.31797,
      "total_tested": 6603,
      "test_rate_per_10k": 4832.05,
      "test_rate_per_100k": 48320.5,
      "total_population": 13665,
      "latitude": 38.050100,
      "longitude": -88.246100
    },
    {
      "County": "Whiteside",
      "confirmed_cases": 1152,
      "confirmed_rate_per_10k": 207.097,
      "confirmed_rate_per_100k": 2070.97,
      "deaths": 22,
      "deaths_rate_per_10k": 3.95499,
      "deaths_rate_per_100k": 39.5499,
      "total_tested": 18386,
      "test_rate_per_10k": 3305.29,
      "test_rate_per_100k": 33052.9,
      "total_population": 55626,
      "latitude": 41.760600,
      "longitude": -89.850500
    },
    {
      "County": "Will",
      "confirmed_cases": 16898,
      "confirmed_rate_per_10k": 244.081,
      "confirmed_rate_per_100k": 2440.81,
      "deaths": 419,
      "deaths_rate_per_10k": 6.0522,
      "deaths_rate_per_100k": 60.522,
      "total_tested": 259134,
      "test_rate_per_10k": 3743.03,
      "test_rate_per_100k": 37430.3,
      "total_population": 692310,
      "latitude": 41.505500,
      "longitude": -88.090100
    },
    {
      "County": "Williamson",
      "confirmed_cases": 1709,
      "confirmed_rate_per_10k": 254.862,
      "confirmed_rate_per_100k": 2548.62,
      "deaths": 58,
      "deaths_rate_per_10k": 8.64949,
      "deaths_rate_per_100k": 86.4949,
      "total_tested": 30233,
      "test_rate_per_10k": 4508.62,
      "test_rate_per_100k": 45086.2,
      "total_population": 67056,
      "latitude": 37.718300,
      "longitude": -88.864700
    },
    {
      "County": "Winnebago",
      "confirmed_cases": 9114,
      "confirmed_rate_per_10k": 320.824,
      "confirmed_rate_per_100k": 3208.24,
      "deaths": 165,
      "deaths_rate_per_10k": 5.8082,
      "deaths_rate_per_100k": 58.082,
      "total_tested": 124136,
      "test_rate_per_10k": 4369.74,
      "test_rate_per_100k": 43697.4,
      "total_population": 284081,
      "latitude": 42.312100,
      "longitude": -89.170600
    },
    {
      "County": "Woodford",
      "confirmed_cases": 543,
      "confirmed_rate_per_10k": 141.175,
      "confirmed_rate_per_100k": 1411.75,
      "deaths": 11,
      "deaths_rate_per_10k": 2.85989,
      "deaths_rate_per_100k": 28.5989,
      "total_tested": 15673,
      "test_rate_per_10k": 4074.83,
      "test_rate_per_100k": 40748.3,
      "total_population": 38463,
      "latitude": 40.712900,
      "longitude": -89.170600
    }
  ]
}
