{
  "LastUpdateDate": {
    "year": 2020,
    "month": 12,
    "day": 19
  },
  "county_rates": [
    {
      "County": "Adams",
      "confirmed_cases": 5761,
      "confirmed_rate_per_10k": 876.985,
      "confirmed_rate_per_100k": 8769.85,
      "deaths": 61,
      "deaths_rate_per_10k": 9.2859,
      "deaths_rate_per_100k": 92.859,
      "total_tested": 81634,
      "test_rate_per_10k": 12427,
      "test_rate_per_100k": 124270,
      "total_population": 65691,
      "latitude": 40.057800,
      "longitude": -91.135300
    },
    {
      "County": "Alexander",
      "confirmed_cases": 323,
      "confirmed_rate_per_10k": 533.003,
      "confirmed_rate_per_100k": 5330.03,
      "deaths": 5,
      "deaths_rate_per_10k": 8.25083,
      "deaths_rate_per_100k": 82.5083,
      "total_tested": 3627,
      "test_rate_per_10k": 5985.15,
      "test_rate_per_100k": 59851.5,
      "total_population": 6060,
      "latitude": 37.167000,
      "longitude": -89.360600
    },
    {
      "County": "Bond",
      "confirmed_cases": 1410,
      "confirmed_rate_per_10k": 847.865,
      "confirmed_rate_per_100k": 8478.65,
      "deaths": 13,
      "deaths_rate_per_10k": 7.8172,
      "deaths_rate_per_100k": 78.172,
      "total_tested": 14901,
      "test_rate_per_10k": 8960.31,
      "test_rate_per_100k": 89603.1,
      "total_population": 16630,
      "latitude": 38.903000,
      "longitude": -89.474200
    },
    {
      "County": "Boone",
      "confirmed_cases": 4724,
      "confirmed_rate_per_10k": 881.722,
      "confirmed_rate_per_100k": 8817.22,
      "deaths": 54,
      "deaths_rate_per_10k": 10.079,
      "deaths_rate_per_100k": 100.79,
      "total_tested": 38037,
      "test_rate_per_10k": 7099.5,
      "test_rate_per_100k": 70995,
      "total_population": 53577,
      "latitude": 42.348500,
      "longitude": -88.826300
    },
    {
      "County": "Brown",
      "confirmed_cases": 408,
      "confirmed_rate_per_10k": 622.331,
      "confirmed_rate_per_100k": 6223.31,
      "deaths": 3,
      "deaths_rate_per_10k": 4.57596,
      "deaths_rate_per_100k": 45.7596,
      "total_tested": 4164,
      "test_rate_per_10k": 6351.43,
      "test_rate_per_100k": 63514.3,
      "total_population": 6556,
      "latitude": 39.938000,
      "longitude": -90.715300
    },
    {
      "County": "Bureau",
      "confirmed_cases": 2600,
      "confirmed_rate_per_10k": 788.046,
      "confirmed_rate_per_100k": 7880.46,
      "deaths": 60,
      "deaths_rate_per_10k": 18.1857,
      "deaths_rate_per_100k": 181.857,
      "total_tested": 24453,
      "test_rate_per_10k": 7411.57,
      "test_rate_per_100k": 74115.7,
      "total_population": 32993,
      "latitude": 41.359900,
      "longitude": -89.474200
    },
    {
      "County": "Calhoun",
      "confirmed_cases": 351,
      "confirmed_rate_per_10k": 730.945,
      "confirmed_rate_per_100k": 7309.45,
      "deaths": 1,
      "deaths_rate_per_10k": 2.08247,
      "deaths_rate_per_100k": 20.8247,
      "total_tested": 3569,
      "test_rate_per_10k": 7432.32,
      "test_rate_per_100k": 74323.2,
      "total_population": 4802,
      "latitude": 39.173300,
      "longitude": -90.658300
    },
    {
      "County": "Carroll",
      "confirmed_cases": 1263,
      "confirmed_rate_per_10k": 882.476,
      "confirmed_rate_per_100k": 8824.76,
      "deaths": 29,
      "deaths_rate_per_10k": 20.2627,
      "deaths_rate_per_100k": 202.627,
      "total_tested": 12635,
      "test_rate_per_10k": 8828.26,
      "test_rate_per_100k": 88282.6,
      "total_population": 14312,
      "latitude": 42.038600,
      "longitude": -89.962700
    },
    {
      "County": "Cass",
      "confirmed_cases": 1420,
      "confirmed_rate_per_10k": 1158.24,
      "confirmed_rate_per_100k": 11582.4,
      "deaths": 18,
      "deaths_rate_per_10k": 14.6819,
      "deaths_rate_per_100k": 146.819,
      "total_tested": 11231,
      "test_rate_per_10k": 9160.69,
      "test_rate_per_100k": 91606.9,
      "total_population": 12260,
      "latitude": 39.939900,
      "longitude": -90.262000
    },
    {
      "County": "Champaign",
      "confirmed_cases": 12881,
      "confirmed_rate_per_10k": 613.431,
      "confirmed_rate_per_100k": 6134.31,
      "deaths": 77,
      "deaths_rate_per_10k": 3.66696,
      "deaths_rate_per_100k": 36.6696,
      "total_tested": 1216047,
      "test_rate_per_10k": 57911.7,
      "test_rate_per_100k": 579117,
      "total_population": 209983,
      "latitude": 40.213900,
      "longitude": -88.246100
    },
    {
      "County": "Chicago",
      "confirmed_cases": 192770,
      "confirmed_rate_per_10k": 712.381,
      "confirmed_rate_per_100k": 7123.81,
      "deaths": 3904,
      "deaths_rate_per_10k": 14.4272,
      "deaths_rate_per_100k": 144.272,
      "total_tested": 2383531,
      "test_rate_per_10k": 8808.34,
      "test_rate_per_100k": 88083.4,
      "total_population": 2705994,
      "latitude": 41.789896,
      "longitude": -87.627734
    },
    {
      "County": "Christian",
      "confirmed_cases": 2407,
      "confirmed_rate_per_10k": 736.965,
      "confirmed_rate_per_100k": 7369.65,
      "deaths": 42,
      "deaths_rate_per_10k": 12.8594,
      "deaths_rate_per_100k": 128.594,
      "total_tested": 23439,
      "test_rate_per_10k": 7176.45,
      "test_rate_per_100k": 71764.5,
      "total_population": 32661,
      "latitude": 39.567200,
      "longitude": -89.322700
    },
    {
      "County": "Clark",
      "confirmed_cases": 1066,
      "confirmed_rate_per_10k": 683.509,
      "confirmed_rate_per_100k": 6835.09,
      "deaths": 22,
      "deaths_rate_per_10k": 14.1062,
      "deaths_rate_per_100k": 141.062,
      "total_tested": 8833,
      "test_rate_per_10k": 5663.63,
      "test_rate_per_100k": 56636.3,
      "total_population": 15596,
      "latitude": 39.382400,
      "longitude": -87.776300
    },
    {
      "County": "Clay",
      "confirmed_cases": 1138,
      "confirmed_rate_per_10k": 858.674,
      "confirmed_rate_per_100k": 8586.74,
      "deaths": 30,
      "deaths_rate_per_10k": 22.6364,
      "deaths_rate_per_100k": 226.364,
      "total_tested": 9379,
      "test_rate_per_10k": 7076.89,
      "test_rate_per_100k": 70768.9,
      "total_population": 13253,
      "latitude": 38.727900,
      "longitude": -88.556500
    },
    {
      "County": "Clinton",
      "confirmed_cases": 4133,
      "confirmed_rate_per_10k": 1098.06,
      "confirmed_rate_per_100k": 10980.6,
      "deaths": 73,
      "deaths_rate_per_10k": 19.3948,
      "deaths_rate_per_100k": 193.948,
      "total_tested": 34179,
      "test_rate_per_10k": 9080.74,
      "test_rate_per_100k": 90807.4,
      "total_population": 37639,
      "latitude": 38.568400,
      "longitude": -89.625200
    },
    {
      "County": "Coles",
      "confirmed_cases": 3967,
      "confirmed_rate_per_10k": 779.601,
      "confirmed_rate_per_100k": 7796.01,
      "deaths": 69,
      "deaths_rate_per_10k": 13.56,
      "deaths_rate_per_100k": 135.6,
      "total_tested": 43391,
      "test_rate_per_10k": 8527.27,
      "test_rate_per_100k": 85272.7,
      "total_population": 50885,
      "latitude": 39.556000,
      "longitude": -88.246100
    },
    {
      "County": "Cook",
      "confirmed_cases": 176054,
      "confirmed_rate_per_10k": 711.473,
      "confirmed_rate_per_100k": 7114.73,
      "deaths": 3432,
      "deaths_rate_per_10k": 13.8695,
      "deaths_rate_per_100k": 138.695,
      "total_tested": 2134040,
      "test_rate_per_10k": 8624.13,
      "test_rate_per_100k": 86241.3,
      "total_population": 2474499,
      "latitude": 42.050784,
      "longitude": -87.963759
    },
    {
      "County": "Crawford",
      "confirmed_cases": 1450,
      "confirmed_rate_per_10k": 770.99,
      "confirmed_rate_per_100k": 7709.9,
      "deaths": 19,
      "deaths_rate_per_10k": 10.1026,
      "deaths_rate_per_100k": 101.026,
      "total_tested": 17100,
      "test_rate_per_10k": 9092.36,
      "test_rate_per_100k": 90923.6,
      "total_population": 18807,
      "latitude": 39.050000,
      "longitude": -87.776300
    },
    {
      "County": "Cumberland",
      "confirmed_cases": 862,
      "confirmed_rate_per_10k": 797.557,
      "confirmed_rate_per_100k": 7975.57,
      "deaths": 13,
      "deaths_rate_per_10k": 12.0281,
      "deaths_rate_per_100k": 120.281,
      "total_tested": 7223,
      "test_rate_per_10k": 6683.01,
      "test_rate_per_100k": 66830.1,
      "total_population": 10808,
      "latitude": 39.265400,
      "longitude": -88.207200
    },
    {
      "County": "De Witt",
      "confirmed_cases": 812,
      "confirmed_rate_per_10k": 514.934,
      "confirmed_rate_per_100k": 5149.34,
      "deaths": 18,
      "deaths_rate_per_10k": 11.4148,
      "deaths_rate_per_100k": 114.148,
      "total_tested": 10958,
      "test_rate_per_10k": 6949.08,
      "test_rate_per_100k": 69490.8,
      "total_population": 15769,
      "latitude": 40.181000,
      "longitude": -88.903100
    },
    {
      "County": "DeKalb",
      "confirmed_cases": 6187,
      "confirmed_rate_per_10k": 594.087,
      "confirmed_rate_per_100k": 5940.87,
      "deaths": 67,
      "deaths_rate_per_10k": 6.43346,
      "deaths_rate_per_100k": 64.3346,
      "total_tested": 76852,
      "test_rate_per_10k": 7379.47,
      "test_rate_per_100k": 73794.7,
      "total_population": 104143,
      "latitude": 41.833000,
      "longitude": -88.710900
    },
    {
      "County": "Douglas",
      "confirmed_cases": 1686,
      "confirmed_rate_per_10k": 865.548,
      "confirmed_rate_per_100k": 8655.48,
      "deaths": 19,
      "deaths_rate_per_10k": 9.75409,
      "deaths_rate_per_100k": 97.5409,
      "total_tested": 18402,
      "test_rate_per_10k": 9447.1,
      "test_rate_per_100k": 94471,
      "total_population": 19479,
      "latitude": 39.761800,
      "longitude": -88.207200
    },
    {
      "County": "DuPage",
      "confirmed_cases": 57421,
      "confirmed_rate_per_10k": 618.368,
      "confirmed_rate_per_100k": 6183.68,
      "deaths": 884,
      "deaths_rate_per_10k": 9.51982,
      "deaths_rate_per_100k": 95.1982,
      "total_tested": 721724,
      "test_rate_per_10k": 7772.27,
      "test_rate_per_100k": 77722.7,
      "total_population": 928589,
      "latitude": 41.824400,
      "longitude": -88.090100
    },
    {
      "County": "Edgar",
      "confirmed_cases": 1238,
      "confirmed_rate_per_10k": 713.134,
      "confirmed_rate_per_100k": 7131.34,
      "deaths": 22,
      "deaths_rate_per_10k": 12.6728,
      "deaths_rate_per_100k": 126.728,
      "total_tested": 8693,
      "test_rate_per_10k": 5007.49,
      "test_rate_per_100k": 50074.9,
      "total_population": 17360,
      "latitude": 39.713100,
      "longitude": -87.776300
    },
    {
      "County": "Edwards",
      "confirmed_cases": 345,
      "confirmed_rate_per_10k": 539.737,
      "confirmed_rate_per_100k": 5397.37,
      "deaths": 5,
      "deaths_rate_per_10k": 7.82228,
      "deaths_rate_per_100k": 78.2228,
      "total_tested": 2392,
      "test_rate_per_10k": 3742.18,
      "test_rate_per_100k": 37421.8,
      "total_population": 6392,
      "latitude": 38.426800,
      "longitude": -88.051000
    },
    {
      "County": "Effingham",
      "confirmed_cases": 3593,
      "confirmed_rate_per_10k": 1050.34,
      "confirmed_rate_per_100k": 10503.4,
      "deaths": 47,
      "deaths_rate_per_10k": 13.7395,
      "deaths_rate_per_100k": 137.395,
      "total_tested": 25558,
      "test_rate_per_10k": 7471.35,
      "test_rate_per_100k": 74713.5,
      "total_population": 34208,
      "latitude": 39.062200,
      "longitude": -88.556500
    },
    {
      "County": "Fayette",
      "confirmed_cases": 2496,
      "confirmed_rate_per_10k": 1165.48,
      "confirmed_rate_per_100k": 11654.8,
      "deaths": 42,
      "deaths_rate_per_10k": 19.6115,
      "deaths_rate_per_100k": 196.115,
      "total_tested": 15984,
      "test_rate_per_10k": 7463.58,
      "test_rate_per_100k": 74635.8,
      "total_population": 21416,
      "latitude": 39.067000,
      "longitude": -89.017900
    },
    {
      "County": "Ford",
      "confirmed_cases": 1110,
      "confirmed_rate_per_10k": 836.852,
      "confirmed_rate_per_100k": 8368.52,
      "deaths": 33,
      "deaths_rate_per_10k": 24.8794,
      "deaths_rate_per_100k": 248.794,
      "total_tested": 16360,
      "test_rate_per_10k": 12334.1,
      "test_rate_per_100k": 123341,
      "total_population": 13264,
      "latitude": 40.498900,
      "longitude": -88.207200
    },
    {
      "County": "Franklin",
      "confirmed_cases": 2903,
      "confirmed_rate_per_10k": 750.11,
      "confirmed_rate_per_100k": 7501.1,
      "deaths": 37,
      "deaths_rate_per_10k": 9.56048,
      "deaths_rate_per_100k": 95.6048,
      "total_tested": 28910,
      "test_rate_per_10k": 7470.09,
      "test_rate_per_100k": 74700.9,
      "total_population": 38701,
      "latitude": 38.015700,
      "longitude": -88.903100
    },
    {
      "County": "Fulton",
      "confirmed_cases": 2040,
      "confirmed_rate_per_10k": 585.467,
      "confirmed_rate_per_100k": 5854.67,
      "deaths": 24,
      "deaths_rate_per_10k": 6.88784,
      "deaths_rate_per_100k": 68.8784,
      "total_tested": 33366,
      "test_rate_per_10k": 9575.82,
      "test_rate_per_100k": 95758.2,
      "total_population": 34844,
      "latitude": 40.553200,
      "longitude": -90.224500
    },
    {
      "County": "Gallatin",
      "confirmed_cases": 280,
      "confirmed_rate_per_10k": 553.578,
      "confirmed_rate_per_100k": 5535.78,
      "deaths": 3,
      "deaths_rate_per_10k": 5.9312,
      "deaths_rate_per_100k": 59.312,
      "total_tested": 2263,
      "test_rate_per_10k": 4474.1,
      "test_rate_per_100k": 44741,
      "total_population": 5058,
      "latitude": 37.710800,
      "longitude": -88.246100
    },
    {
      "County": "Greene",
      "confirmed_cases": 1055,
      "confirmed_rate_per_10k": 808.801,
      "confirmed_rate_per_100k": 8088.01,
      "deaths": 30,
      "deaths_rate_per_10k": 22.9991,
      "deaths_rate_per_100k": 229.991,
      "total_tested": 8746,
      "test_rate_per_10k": 6705,
      "test_rate_per_100k": 67050,
      "total_population": 13044,
      "latitude": 39.403000,
      "longitude": -90.374800
    },
    {
      "County": "Grundy",
      "confirmed_cases": 3590,
      "confirmed_rate_per_10k": 704.308,
      "confirmed_rate_per_100k": 7043.08,
      "deaths": 36,
      "deaths_rate_per_10k": 7.0627,
      "deaths_rate_per_100k": 70.627,
      "total_tested": 28515,
      "test_rate_per_10k": 5594.25,
      "test_rate_per_100k": 55942.5,
      "total_population": 50972,
      "latitude": 41.350100,
      "longitude": -88.401600
    },
    {
      "County": "Hamilton",
      "confirmed_cases": 529,
      "confirmed_rate_per_10k": 648.046,
      "confirmed_rate_per_100k": 6480.46,
      "deaths": 8,
      "deaths_rate_per_10k": 9.80032,
      "deaths_rate_per_100k": 98.0032,
      "total_tested": 4066,
      "test_rate_per_10k": 4981.01,
      "test_rate_per_100k": 49810.1,
      "total_population": 8163,
      "latitude": 38.054300,
      "longitude": -88.556500
    },
    {
      "County": "Hancock",
      "confirmed_cases": 1194,
      "confirmed_rate_per_10k": 669.132,
      "confirmed_rate_per_100k": 6691.32,
      "deaths": 18,
      "deaths_rate_per_10k": 10.0874,
      "deaths_rate_per_100k": 100.874,
      "total_tested": 11471,
      "test_rate_per_10k": 6428.49,
      "test_rate_per_100k": 64284.9,
      "total_population": 17844,
      "latitude": 40.384900,
      "longitude": -91.135300
    },
    {
      "County": "Hardin",
      "confirmed_cases": 195,
      "confirmed_rate_per_10k": 498.721,
      "confirmed_rate_per_100k": 4987.21,
      "deaths": 5,
      "deaths_rate_per_10k": 12.7877,
      "deaths_rate_per_100k": 127.877,
      "total_tested": 2668,
      "test_rate_per_10k": 6823.53,
      "test_rate_per_100k": 68235.3,
      "total_population": 3910,
      "latitude": 37.499500,
      "longitude": -88.362800
    },
    {
      "County": "Henderson",
      "confirmed_cases": 367,
      "confirmed_rate_per_10k": 547.026,
      "confirmed_rate_per_100k": 5470.26,
      "deaths": 2,
      "deaths_rate_per_10k": 2.98107,
      "deaths_rate_per_100k": 29.8107,
      "total_tested": 4062,
      "test_rate_per_10k": 6054.55,
      "test_rate_per_100k": 60545.5,
      "total_population": 6709,
      "latitude": 40.833600,
      "longitude": -90.943800
    },
    {
      "County": "Henry",
      "confirmed_cases": 3410,
      "confirmed_rate_per_10k": 694.642,
      "confirmed_rate_per_100k": 6946.42,
      "deaths": 29,
      "deaths_rate_per_10k": 5.90752,
      "deaths_rate_per_100k": 59.0752,
      "total_tested": 40656,
      "test_rate_per_10k": 8281.93,
      "test_rate_per_100k": 82819.3,
      "total_population": 49090,
      "latitude": 41.361100,
      "longitude": -90.074700
    },
    {
      "County": "Iroquois",
      "confirmed_cases": 2179,
      "confirmed_rate_per_10k": 789.378,
      "confirmed_rate_per_100k": 7893.78,
      "deaths": 43,
      "deaths_rate_per_10k": 15.5775,
      "deaths_rate_per_100k": 155.775,
      "total_tested": 27235,
      "test_rate_per_10k": 9866.32,
      "test_rate_per_100k": 98663.2,
      "total_population": 27604,
      "latitude": 40.774000,
      "longitude": -87.697600
    },
    {
      "County": "Jackson",
      "confirmed_cases": 3386,
      "confirmed_rate_per_10k": 589.7,
      "confirmed_rate_per_100k": 5897,
      "deaths": 46,
      "deaths_rate_per_10k": 8.01129,
      "deaths_rate_per_100k": 80.1129,
      "total_tested": 40935,
      "test_rate_per_10k": 7129.17,
      "test_rate_per_100k": 71291.7,
      "total_population": 57419,
      "latitude": 37.721800,
      "longitude": -89.322700
    },
    {
      "County": "Jasper",
      "confirmed_cases": 831,
      "confirmed_rate_per_10k": 864.634,
      "confirmed_rate_per_100k": 8646.34,
      "deaths": 13,
      "deaths_rate_per_10k": 13.5262,
      "deaths_rate_per_100k": 135.262,
      "total_tested": 6649,
      "test_rate_per_10k": 6918.11,
      "test_rate_per_100k": 69181.1,
      "total_population": 9611,
      "latitude": 39.055500,
      "longitude": -88.090100
    },
    {
      "County": "Jefferson",
      "confirmed_cases": 2590,
      "confirmed_rate_per_10k": 684.823,
      "confirmed_rate_per_100k": 6848.23,
      "deaths": 71,
      "deaths_rate_per_10k": 18.7731,
      "deaths_rate_per_100k": 187.731,
      "total_tested": 22815,
      "test_rate_per_10k": 6032.52,
      "test_rate_per_100k": 60325.2,
      "total_population": 37820,
      "latitude": 38.226700,
      "longitude": -88.864700
    },
    {
      "County": "Jersey",
      "confirmed_cases": 1753,
      "confirmed_rate_per_10k": 802.398,
      "confirmed_rate_per_100k": 8023.98,
      "deaths": 26,
      "deaths_rate_per_10k": 11.9009,
      "deaths_rate_per_100k": 119.009,
      "total_tested": 16986,
      "test_rate_per_10k": 7774.98,
      "test_rate_per_100k": 77749.8,
      "total_population": 21847,
      "latitude": 39.070500,
      "longitude": -90.374800
    },
    {
      "County": "Jo Daviess",
      "confirmed_cases": 1325,
      "confirmed_rate_per_10k": 620.144,
      "confirmed_rate_per_100k": 6201.44,
      "deaths": 21,
      "deaths_rate_per_10k": 9.8287,
      "deaths_rate_per_100k": 98.287,
      "total_tested": 13977,
      "test_rate_per_10k": 6541.7,
      "test_rate_per_100k": 65417,
      "total_population": 21366,
      "latitude": 42.314900,
      "longitude": -90.224500
    },
    {
      "County": "Johnson",
      "confirmed_cases": 909,
      "confirmed_rate_per_10k": 729.769,
      "confirmed_rate_per_100k": 7297.69,
      "deaths": 8,
      "deaths_rate_per_10k": 6.42261,
      "deaths_rate_per_100k": 64.2261,
      "total_tested": 7945,
      "test_rate_per_10k": 6378.45,
      "test_rate_per_100k": 63784.5,
      "total_population": 12456,
      "latitude": 37.420400,
      "longitude": -88.903100
    },
    {
      "County": "Kane",
      "confirmed_cases": 38694,
      "confirmed_rate_per_10k": 724.314,
      "confirmed_rate_per_100k": 7243.14,
      "deaths": 524,
      "deaths_rate_per_10k": 9.80877,
      "deaths_rate_per_100k": 98.0877,
      "total_tested": 377641,
      "test_rate_per_10k": 7069.07,
      "test_rate_per_100k": 70690.7,
      "total_population": 534216,
      "latitude": 41.987900,
      "longitude": -88.401600
    },
    {
      "County": "Kankakee",
      "confirmed_cases": 10186,
      "confirmed_rate_per_10k": 925.798,
      "confirmed_rate_per_100k": 9257.98,
      "deaths": 143,
      "deaths_rate_per_10k": 12.9972,
      "deaths_rate_per_100k": 129.972,
      "total_tested": 126441,
      "test_rate_per_10k": 11492.1,
      "test_rate_per_100k": 114921,
      "total_population": 110024,
      "latitude": 41.179100,
      "longitude": -87.776300
    },
    {
      "County": "Kendall",
      "confirmed_cases": 7816,
      "confirmed_rate_per_10k": 611.031,
      "confirmed_rate_per_100k": 6110.31,
      "deaths": 63,
      "deaths_rate_per_10k": 4.92515,
      "deaths_rate_per_100k": 49.2515,
      "total_tested": 76084,
      "test_rate_per_10k": 5948.01,
      "test_rate_per_100k": 59480.1,
      "total_population": 127915,
      "latitude": 41.550700,
      "longitude": -88.440400
    },
    {
      "County": "Knox",
      "confirmed_cases": 3667,
      "confirmed_rate_per_10k": 731.761,
      "confirmed_rate_per_100k": 7317.61,
      "deaths": 85,
      "deaths_rate_per_10k": 16.962,
      "deaths_rate_per_100k": 169.62,
      "total_tested": 42844,
      "test_rate_per_10k": 8549.65,
      "test_rate_per_100k": 85496.5,
      "total_population": 50112,
      "latitude": 40.877600,
      "longitude": -90.224500
    },
    {
      "County": "Lake",
      "confirmed_cases": 45168,
      "confirmed_rate_per_10k": 644.491,
      "confirmed_rate_per_100k": 6444.91,
      "deaths": 706,
      "deaths_rate_per_10k": 10.0737,
      "deaths_rate_per_100k": 100.737,
      "total_tested": 543632,
      "test_rate_per_10k": 7756.95,
      "test_rate_per_100k": 77569.5,
      "total_population": 700832,
      "latitude": 42.368900,
      "longitude": -87.827200
    },
    {
      "County": "LaSalle",
      "confirmed_cases": 7762,
      "confirmed_rate_per_10k": 709.312,
      "confirmed_rate_per_100k": 7093.12,
      "deaths": 173,
      "deaths_rate_per_10k": 15.8092,
      "deaths_rate_per_100k": 158.092,
      "total_tested": 81379,
      "test_rate_per_10k": 7436.63,
      "test_rate_per_100k": 74366.3,
      "total_population": 109430,
      "latitude": 41.436400,
      "longitude": -88.941400
    },
    {
      "County": "Lawrence",
      "confirmed_cases": 1643,
      "confirmed_rate_per_10k": 1042.18,
      "confirmed_rate_per_100k": 10421.8,
      "deaths": 18,
      "deaths_rate_per_10k": 11.4177,
      "deaths_rate_per_100k": 114.177,
      "total_tested": 14435,
      "test_rate_per_10k": 9156.36,
      "test_rate_per_100k": 91563.6,
      "total_population": 15765,
      "latitude": 38.715800,
      "longitude": -87.776300
    },
    {
      "County": "Lee",
      "confirmed_cases": 2522,
      "confirmed_rate_per_10k": 736.931,
      "confirmed_rate_per_100k": 7369.31,
      "deaths": 28,
      "deaths_rate_per_10k": 8.18163,
      "deaths_rate_per_100k": 81.8163,
      "total_tested": 26028,
      "test_rate_per_10k": 7605.41,
      "test_rate_per_100k": 76054.1,
      "total_population": 34223,
      "latitude": 41.679000,
      "longitude": -89.322700
    },
    {
      "County": "Livingston",
      "confirmed_cases": 2874,
      "confirmed_rate_per_10k": 803.669,
      "confirmed_rate_per_100k": 8036.69,
      "deaths": 48,
      "deaths_rate_per_10k": 13.4224,
      "deaths_rate_per_100k": 134.224,
      "total_tested": 39316,
      "test_rate_per_10k": 10994.1,
      "test_rate_per_100k": 109941,
      "total_population": 35761,
      "latitude": 40.868900,
      "longitude": -88.556500
    },
    {
      "County": "Logan",
      "confirmed_cases": 2510,
      "confirmed_rate_per_10k": 867.761,
      "confirmed_rate_per_100k": 8677.61,
      "deaths": 32,
      "deaths_rate_per_10k": 11.0631,
      "deaths_rate_per_100k": 110.631,
      "total_tested": 38464,
      "test_rate_per_10k": 13297.8,
      "test_rate_per_100k": 132978,
      "total_population": 28925,
      "latitude": 40.061300,
      "longitude": -89.322700
    },
    {
      "County": "Macon",
      "confirmed_cases": 7571,
      "confirmed_rate_per_10k": 723.031,
      "confirmed_rate_per_100k": 7230.31,
      "deaths": 153,
      "deaths_rate_per_10k": 14.6115,
      "deaths_rate_per_100k": 146.115,
      "total_tested": 93840,
      "test_rate_per_10k": 8961.72,
      "test_rate_per_100k": 89617.2,
      "total_population": 104712,
      "latitude": 39.894900,
      "longitude": -89.017900
    },
    {
      "County": "Macoupin",
      "confirmed_cases": 2984,
      "confirmed_rate_per_10k": 658.531,
      "confirmed_rate_per_100k": 6585.31,
      "deaths": 48,
      "deaths_rate_per_10k": 10.593,
      "deaths_rate_per_100k": 105.93,
      "total_tested": 41179,
      "test_rate_per_10k": 9087.68,
      "test_rate_per_100k": 90876.8,
      "total_population": 45313,
      "latitude": 39.237500,
      "longitude": -89.925300
    },
    {
      "County": "Madison",
      "confirmed_cases": 19129,
      "confirmed_rate_per_10k": 723.32,
      "confirmed_rate_per_100k": 7233.2,
      "deaths": 312,
      "deaths_rate_per_10k": 11.7976,
      "deaths_rate_per_100k": 117.976,
      "total_tested": 177419,
      "test_rate_per_10k": 6708.7,
      "test_rate_per_100k": 67087,
      "total_population": 264461,
      "latitude": 38.904100,
      "longitude": -89.925300
    },
    {
      "County": "Marion",
      "confirmed_cases": 3245,
      "confirmed_rate_per_10k": 862.573,
      "confirmed_rate_per_100k": 8625.73,
      "deaths": 91,
      "deaths_rate_per_10k": 24.1893,
      "deaths_rate_per_100k": 241.893,
      "total_tested": 35770,
      "test_rate_per_10k": 9508.24,
      "test_rate_per_100k": 95082.4,
      "total_population": 37620,
      "latitude": 38.731300,
      "longitude": -88.864700
    },
    {
      "County": "Marshall",
      "confirmed_cases": 541,
      "confirmed_rate_per_10k": 469.048,
      "confirmed_rate_per_100k": 4690.48,
      "deaths": 7,
      "deaths_rate_per_10k": 6.06901,
      "deaths_rate_per_100k": 60.6901,
      "total_tested": 10285,
      "test_rate_per_10k": 8917.11,
      "test_rate_per_100k": 89171.1,
      "total_population": 11534,
      "latitude": 40.997300,
      "longitude": -89.360600
    },
    {
      "County": "Mason",
      "confirmed_cases": 908,
      "confirmed_rate_per_10k": 669.37,
      "confirmed_rate_per_100k": 6693.7,
      "deaths": 34,
      "deaths_rate_per_10k": 25.0645,
      "deaths_rate_per_100k": 250.645,
      "total_tested": 11923,
      "test_rate_per_10k": 8789.53,
      "test_rate_per_100k": 87895.3,
      "total_population": 13565,
      "latitude": 40.227100,
      "longitude": -89.925300
    },
    {
      "County": "Massac",
      "confirmed_cases": 804,
      "confirmed_rate_per_10k": 571.023,
      "confirmed_rate_per_100k": 5710.23,
      "deaths": 20,
      "deaths_rate_per_10k": 14.2045,
      "deaths_rate_per_100k": 142.045,
      "total_tested": 6584,
      "test_rate_per_10k": 4676.14,
      "test_rate_per_100k": 46761.4,
      "total_population": 14080,
      "latitude": 37.247800,
      "longitude": -88.749400
    },
    {
      "County": "McDonough",
      "confirmed_cases": 1874,
      "confirmed_rate_per_10k": 625.605,
      "confirmed_rate_per_100k": 6256.05,
      "deaths": 35,
      "deaths_rate_per_10k": 11.6842,
      "deaths_rate_per_100k": 116.842,
      "total_tested": 24443,
      "test_rate_per_10k": 8159.91,
      "test_rate_per_100k": 81599.1,
      "total_population": 29955,
      "latitude": 40.388500,
      "longitude": -90.677300
    },
    {
      "County": "McHenry",
      "confirmed_cases": 17568,
      "confirmed_rate_per_10k": 569.336,
      "confirmed_rate_per_100k": 5693.36,
      "deaths": 186,
      "deaths_rate_per_10k": 6.02781,
      "deaths_rate_per_100k": 60.2781,
      "total_tested": 180123,
      "test_rate_per_10k": 5837.35,
      "test_rate_per_100k": 58373.5,
      "total_population": 308570,
      "latitude": 42.304000,
      "longitude": -88.401600
    },
    {
      "County": "McLean",
      "confirmed_cases": 10668,
      "confirmed_rate_per_10k": 617.261,
      "confirmed_rate_per_100k": 6172.61,
      "deaths": 83,
      "deaths_rate_per_10k": 4.80246,
      "deaths_rate_per_100k": 48.0246,
      "total_tested": 173681,
      "test_rate_per_10k": 10049.4,
      "test_rate_per_100k": 100494,
      "total_population": 172828,
      "latitude": 40.547800,
      "longitude": -88.864700
    },
    {
      "County": "Menard",
      "confirmed_cases": 666,
      "confirmed_rate_per_10k": 541.992,
      "confirmed_rate_per_100k": 5419.92,
      "deaths": 5,
      "deaths_rate_per_10k": 4.06901,
      "deaths_rate_per_100k": 40.6901,
      "total_tested": 11027,
      "test_rate_per_10k": 8973.8,
      "test_rate_per_100k": 89738,
      "total_population": 12288,
      "latitude": 40.022100,
      "longitude": -89.813000
    },
    {
      "County": "Mercer",
      "confirmed_cases": 1008,
      "confirmed_rate_per_10k": 646.112,
      "confirmed_rate_per_100k": 6461.12,
      "deaths": 23,
      "deaths_rate_per_10k": 14.7426,
      "deaths_rate_per_100k": 147.426,
      "total_tested": 11114,
      "test_rate_per_10k": 7123.9,
      "test_rate_per_100k": 71239,
      "total_population": 15601,
      "latitude": 41.198500,
      "longitude": -90.677300
    },
    {
      "County": "Monroe",
      "confirmed_cases": 2758,
      "confirmed_rate_per_10k": 803.262,
      "confirmed_rate_per_100k": 8032.62,
      "deaths": 56,
      "deaths_rate_per_10k": 16.3099,
      "deaths_rate_per_100k": 163.099,
      "total_tested": 22532,
      "test_rate_per_10k": 6562.4,
      "test_rate_per_100k": 65624,
      "total_population": 34335,
      "latitude": 38.274300,
      "longitude": -90.187000
    },
    {
      "County": "Montgomery",
      "confirmed_cases": 1593,
      "confirmed_rate_per_10k": 556.974,
      "confirmed_rate_per_100k": 5569.74,
      "deaths": 20,
      "deaths_rate_per_10k": 6.99276,
      "deaths_rate_per_100k": 69.9276,
      "total_tested": 29493,
      "test_rate_per_10k": 10311.9,
      "test_rate_per_100k": 103119,
      "total_population": 28601,
      "latitude": 39.236400,
      "longitude": -89.474200
    },
    {
      "County": "Morgan",
      "confirmed_cases": 2806,
      "confirmed_rate_per_10k": 825.877,
      "confirmed_rate_per_100k": 8258.77,
      "deaths": 59,
      "deaths_rate_per_10k": 17.3652,
      "deaths_rate_per_100k": 173.652,
      "total_tested": 30704,
      "test_rate_per_10k": 9036.97,
      "test_rate_per_100k": 90369.7,
      "total_population": 33976,
      "latitude": 39.734100,
      "longitude": -90.224500
    },
    {
      "County": "Moultrie",
      "confirmed_cases": 1148,
      "confirmed_rate_per_10k": 780.05,
      "confirmed_rate_per_100k": 7800.5,
      "deaths": 14,
      "deaths_rate_per_10k": 9.51281,
      "deaths_rate_per_100k": 95.1281,
      "total_tested": 13452,
      "test_rate_per_10k": 9140.45,
      "test_rate_per_100k": 91404.5,
      "total_population": 14717,
      "latitude": 39.602100,
      "longitude": -88.595200
    },
    {
      "County": "Ogle",
      "confirmed_cases": 3723,
      "confirmed_rate_per_10k": 731.104,
      "confirmed_rate_per_100k": 7311.04,
      "deaths": 56,
      "deaths_rate_per_10k": 10.997,
      "deaths_rate_per_100k": 109.97,
      "total_tested": 35362,
      "test_rate_per_10k": 6944.21,
      "test_rate_per_100k": 69442.1,
      "total_population": 50923,
      "latitude": 41.997000,
      "longitude": -89.322700
    },
    {
      "County": "Peoria",
      "confirmed_cases": 12080,
      "confirmed_rate_per_10k": 668.804,
      "confirmed_rate_per_100k": 6688.04,
      "deaths": 169,
      "deaths_rate_per_10k": 9.35661,
      "deaths_rate_per_100k": 93.5661,
      "total_tested": 180620,
      "test_rate_per_10k": 9999.94,
      "test_rate_per_100k": 99999.4,
      "total_population": 180621,
      "latitude": 40.715600,
      "longitude": -89.775500
    },
    {
      "County": "Perry",
      "confirmed_cases": 1651,
      "confirmed_rate_per_10k": 779.73,
      "confirmed_rate_per_100k": 7797.3,
      "deaths": 38,
      "deaths_rate_per_10k": 17.9465,
      "deaths_rate_per_100k": 179.465,
      "total_tested": 14781,
      "test_rate_per_10k": 6980.73,
      "test_rate_per_100k": 69807.3,
      "total_population": 21174,
      "latitude": 38.061200,
      "longitude": -89.322700
    },
    {
      "County": "Piatt",
      "confirmed_cases": 954,
      "confirmed_rate_per_10k": 581.849,
      "confirmed_rate_per_100k": 5818.49,
      "deaths": 6,
      "deaths_rate_per_10k": 3.65943,
      "deaths_rate_per_100k": 36.5943,
      "total_tested": 18684,
      "test_rate_per_10k": 11395.5,
      "test_rate_per_100k": 113955,
      "total_population": 16396,
      "latitude": 40.054400,
      "longitude": -88.855650
    },
    {
      "County": "Pike",
      "confirmed_cases": 1257,
      "confirmed_rate_per_10k": 805.201,
      "confirmed_rate_per_100k": 8052.01,
      "deaths": 33,
      "deaths_rate_per_10k": 21.1389,
      "deaths_rate_per_100k": 211.389,
      "total_tested": 10807,
      "test_rate_per_10k": 6922.68,
      "test_rate_per_100k": 69226.8,
      "total_population": 15611,
      "latitude": 39.566200,
      "longitude": -90.829400
    },
    {
      "County": "Pope",
      "confirmed_cases": 164,
      "confirmed_rate_per_10k": 389.364,
      "confirmed_rate_per_100k": 3893.64,
      "deaths": 1,
      "deaths_rate_per_10k": 2.37417,
      "deaths_rate_per_100k": 23.7417,
      "total_tested": 1586,
      "test_rate_per_10k": 3765.43,
      "test_rate_per_100k": 37654.3,
      "total_population": 4212,
      "latitude": 37.417100,
      "longitude": -88.595200
    },
    {
      "County": "Pulaski",
      "confirmed_cases": 525,
      "confirmed_rate_per_10k": 961.01,
      "confirmed_rate_per_100k": 9610.1,
      "deaths": 2,
      "deaths_rate_per_10k": 3.66099,
      "deaths_rate_per_100k": 36.6099,
      "total_tested": 3583,
      "test_rate_per_10k": 6558.67,
      "test_rate_per_100k": 65586.7,
      "total_population": 5463,
      "latitude": 37.251200,
      "longitude": -89.132500
    },
    {
      "County": "Putnam",
      "confirmed_cases": 297,
      "confirmed_rate_per_10k": 517.422,
      "confirmed_rate_per_100k": 5174.22,
      "deaths": 0,
      "deaths_rate_per_10k": 0,
      "deaths_rate_per_100k": 0,
      "total_tested": 3162,
      "test_rate_per_10k": 5508.71,
      "test_rate_per_100k": 55087.1,
      "total_population": 5740,
      "latitude": 41.238500,
      "longitude": -89.284700
    },
    {
      "County": "Randolph",
      "confirmed_cases": 2971,
      "confirmed_rate_per_10k": 925.372,
      "confirmed_rate_per_100k": 9253.72,
      "deaths": 32,
      "deaths_rate_per_10k": 9.96698,
      "deaths_rate_per_100k": 99.6698,
      "total_tested": 28682,
      "test_rate_per_10k": 8933.53,
      "test_rate_per_100k": 89335.3,
      "total_population": 32106,
      "latitude": 38.062900,
      "longitude": -89.775500
    },
    {
      "County": "Richland",
      "confirmed_cases": 1169,
      "confirmed_rate_per_10k": 741.61,
      "confirmed_rate_per_100k": 7416.1,
      "deaths": 24,
      "deaths_rate_per_10k": 15.2255,
      "deaths_rate_per_100k": 152.255,
      "total_tested": 14364,
      "test_rate_per_10k": 9112.48,
      "test_rate_per_100k": 91124.8,
      "total_population": 15763,
      "latitude": 38.721300,
      "longitude": -88.090100
    },
    {
      "County": "Rock Island",
      "confirmed_cases": 10341,
      "confirmed_rate_per_10k": 720.743,
      "confirmed_rate_per_100k": 7207.43,
      "deaths": 187,
      "deaths_rate_per_10k": 13.0334,
      "deaths_rate_per_100k": 130.334,
      "total_tested": 113379,
      "test_rate_per_10k": 7902.24,
      "test_rate_per_100k": 79022.4,
      "total_population": 143477,
      "latitude": 41.509500,
      "longitude": -90.578700
    },
    {
      "County": "Saline",
      "confirmed_cases": 1523,
      "confirmed_rate_per_10k": 637.079,
      "confirmed_rate_per_100k": 6370.79,
      "deaths": 27,
      "deaths_rate_per_10k": 11.2942,
      "deaths_rate_per_100k": 112.942,
      "total_tested": 17233,
      "test_rate_per_10k": 7208.65,
      "test_rate_per_100k": 72086.5,
      "total_population": 23906,
      "latitude": 37.715000,
      "longitude": -88.556500
    },
    {
      "County": "Sangamon",
      "confirmed_cases": 12503,
      "confirmed_rate_per_10k": 640.037,
      "confirmed_rate_per_100k": 6400.37,
      "deaths": 154,
      "deaths_rate_per_10k": 7.88337,
      "deaths_rate_per_100k": 78.8337,
      "total_tested": 222108,
      "test_rate_per_10k": 11369.9,
      "test_rate_per_100k": 113699,
      "total_population": 195348,
      "latitude": 39.733700,
      "longitude": -89.625200
    },
    {
      "County": "Schuyler",
      "confirmed_cases": 503,
      "confirmed_rate_per_10k": 728.247,
      "confirmed_rate_per_100k": 7282.47,
      "deaths": 3,
      "deaths_rate_per_10k": 4.34342,
      "deaths_rate_per_100k": 43.4342,
      "total_tested": 6430,
      "test_rate_per_10k": 9309.4,
      "test_rate_per_100k": 93094,
      "total_population": 6907,
      "latitude": 40.184500,
      "longitude": -90.639400
    },
    {
      "County": "Scott",
      "confirmed_cases": 292,
      "confirmed_rate_per_10k": 592.773,
      "confirmed_rate_per_100k": 5927.73,
      "deaths": 1,
      "deaths_rate_per_10k": 2.03004,
      "deaths_rate_per_100k": 20.3004,
      "total_tested": 4935,
      "test_rate_per_10k": 10018.3,
      "test_rate_per_100k": 100183,
      "total_population": 4926,
      "latitude": 39.609500,
      "longitude": -90.488000
    },
    {
      "County": "Shelby",
      "confirmed_cases": 1681,
      "confirmed_rate_per_10k": 773.194,
      "confirmed_rate_per_100k": 7731.94,
      "deaths": 30,
      "deaths_rate_per_10k": 13.7988,
      "deaths_rate_per_100k": 137.988,
      "total_tested": 14433,
      "test_rate_per_10k": 6638.61,
      "test_rate_per_100k": 66386.1,
      "total_population": 21741,
      "latitude": 39.398100,
      "longitude": -88.864700
    },
    {
      "County": "St. Clair",
      "confirmed_cases": 17387,
      "confirmed_rate_per_10k": 666.018,
      "confirmed_rate_per_100k": 6660.18,
      "deaths": 301,
      "deaths_rate_per_10k": 11.53,
      "deaths_rate_per_100k": 115.3,
      "total_tested": 182187,
      "test_rate_per_10k": 6978.77,
      "test_rate_per_100k": 69787.7,
      "total_population": 261059,
      "latitude": 38.400800,
      "longitude": -89.925300
    },
    {
      "County": "Stark",
      "confirmed_cases": 413,
      "confirmed_rate_per_10k": 761.01,
      "confirmed_rate_per_100k": 7610.1,
      "deaths": 13,
      "deaths_rate_per_10k": 23.9543,
      "deaths_rate_per_100k": 239.543,
      "total_tested": 5401,
      "test_rate_per_10k": 9952.09,
      "test_rate_per_100k": 99520.9,
      "total_population": 5427,
      "latitude": 41.079600,
      "longitude": -89.813000
    },
    {
      "County": "Stephenson",
      "confirmed_cases": 3030,
      "confirmed_rate_per_10k": 677.05,
      "confirmed_rate_per_100k": 6770.5,
      "deaths": 40,
      "deaths_rate_per_10k": 8.93795,
      "deaths_rate_per_100k": 89.3795,
      "total_tested": 31332,
      "test_rate_per_10k": 7001.09,
      "test_rate_per_100k": 70010.9,
      "total_population": 44753,
      "latitude": 42.314500,
      "longitude": -89.625200
    },
    {
      "County": "Tazewell",
      "confirmed_cases": 9242,
      "confirmed_rate_per_10k": 698.416,
      "confirmed_rate_per_100k": 6984.16,
      "deaths": 143,
      "deaths_rate_per_10k": 10.8065,
      "deaths_rate_per_100k": 108.065,
      "total_tested": 127180,
      "test_rate_per_10k": 9610.97,
      "test_rate_per_100k": 96109.7,
      "total_population": 132328,
      "latitude": 40.552200,
      "longitude": -89.474200
    },
    {
      "County": "Union",
      "confirmed_cases": 1507,
      "confirmed_rate_per_10k": 894.84,
      "confirmed_rate_per_100k": 8948.4,
      "deaths": 28,
      "deaths_rate_per_10k": 16.6261,
      "deaths_rate_per_100k": 166.261,
      "total_tested": 17817,
      "test_rate_per_10k": 10579.5,
      "test_rate_per_100k": 105795,
      "total_population": 16841,
      "latitude": 37.508700,
      "longitude": -89.284700
    },
    {
      "County": "Vermilion",
      "confirmed_cases": 5620,
      "confirmed_rate_per_10k": 731.714,
      "confirmed_rate_per_100k": 7317.14,
      "deaths": 67,
      "deaths_rate_per_10k": 8.72328,
      "deaths_rate_per_100k": 87.2328,
      "total_tested": 67994,
      "test_rate_per_10k": 8852.69,
      "test_rate_per_100k": 88526.9,
      "total_population": 76806,
      "latitude": 40.122500,
      "longitude": -87.697600
    },
    {
      "County": "Wabash",
      "confirmed_cases": 939,
      "confirmed_rate_per_10k": 813.057,
      "confirmed_rate_per_100k": 8130.57,
      "deaths": 9,
      "deaths_rate_per_10k": 7.79288,
      "deaths_rate_per_100k": 77.9288,
      "total_tested": 7834,
      "test_rate_per_10k": 6783.27,
      "test_rate_per_100k": 67832.7,
      "total_population": 11549,
      "latitude": 38.422600,
      "longitude": -87.815700
    },
    {
      "County": "Warren",
      "confirmed_cases": 1392,
      "confirmed_rate_per_10k": 817.285,
      "confirmed_rate_per_100k": 8172.85,
      "deaths": 28,
      "deaths_rate_per_10k": 16.4396,
      "deaths_rate_per_100k": 164.396,
      "total_tested": 10032,
      "test_rate_per_10k": 5890.09,
      "test_rate_per_100k": 58900.9,
      "total_population": 17032,
      "latitude": 40.875900,
      "longitude": -90.677300
    },
    {
      "County": "Washington",
      "confirmed_cases": 1068,
      "confirmed_rate_per_10k": 763.13,
      "confirmed_rate_per_100k": 7631.3,
      "deaths": 11,
      "deaths_rate_per_10k": 7.85995,
      "deaths_rate_per_100k": 78.5995,
      "total_tested": 7369,
      "test_rate_per_10k": 5265.45,
      "test_rate_per_100k": 52654.5,
      "total_population": 13995,
      "latitude": 38.398900,
      "longitude": -89.322700
    },
    {
      "County": "Wayne",
      "confirmed_cases": 1218,
      "confirmed_rate_per_10k": 745.775,
      "confirmed_rate_per_100k": 7457.75,
      "deaths": 38,
      "deaths_rate_per_10k": 23.2672,
      "deaths_rate_per_100k": 232.672,
      "total_tested": 9725,
      "test_rate_per_10k": 5954.57,
      "test_rate_per_100k": 59545.7,
      "total_population": 16332,
      "latitude": 38.390000,
      "longitude": -88.401600
    },
    {
      "County": "White",
      "confirmed_cases": 984,
      "confirmed_rate_per_10k": 720.088,
      "confirmed_rate_per_100k": 7200.88,
      "deaths": 15,
      "deaths_rate_per_10k": 10.9769,
      "deaths_rate_per_100k": 109.769,
      "total_tested": 13716,
      "test_rate_per_10k": 10037.3,
      "test_rate_per_100k": 100373,
      "total_population": 13665,
      "latitude": 38.050100,
      "longitude": -88.246100
    },
    {
      "County": "Whiteside",
      "confirmed_cases": 4470,
      "confirmed_rate_per_10k": 803.581,
      "confirmed_rate_per_100k": 8035.81,
      "deaths": 112,
      "deaths_rate_per_10k": 20.1345,
      "deaths_rate_per_100k": 201.345,
      "total_tested": 38178,
      "test_rate_per_10k": 6863.34,
      "test_rate_per_100k": 68633.4,
      "total_population": 55626,
      "latitude": 41.760600,
      "longitude": -89.850500
    },
    {
      "County": "Will",
      "confirmed_cases": 48657,
      "confirmed_rate_per_10k": 702.821,
      "confirmed_rate_per_100k": 7028.21,
      "deaths": 664,
      "deaths_rate_per_10k": 9.59108,
      "deaths_rate_per_100k": 95.9108,
      "total_tested": 479236,
      "test_rate_per_10k": 6922.27,
      "test_rate_per_100k": 69222.7,
      "total_population": 692310,
      "latitude": 41.505500,
      "longitude": -88.090100
    },
    {
      "County": "Williamson",
      "confirmed_cases": 4722,
      "confirmed_rate_per_10k": 704.188,
      "confirmed_rate_per_100k": 7041.88,
      "deaths": 97,
      "deaths_rate_per_10k": 14.4655,
      "deaths_rate_per_100k": 144.655,
      "total_tested": 56561,
      "test_rate_per_10k": 8434.89,
      "test_rate_per_100k": 84348.9,
      "total_population": 67056,
      "latitude": 37.718300,
      "longitude": -88.864700
    },
    {
      "County": "Winnebago",
      "confirmed_cases": 22759,
      "confirmed_rate_per_10k": 801.145,
      "confirmed_rate_per_100k": 8011.45,
      "deaths": 308,
      "deaths_rate_per_10k": 10.842,
      "deaths_rate_per_100k": 108.42,
      "total_tested": 228710,
      "test_rate_per_10k": 8050.87,
      "test_rate_per_100k": 80508.7,
      "total_population": 284081,
      "latitude": 42.312100,
      "longitude": -89.170600
    },
    {
      "County": "Woodford",
      "confirmed_cases": 2491,
      "confirmed_rate_per_10k": 647.635,
      "confirmed_rate_per_100k": 6476.35,
      "deaths": 38,
      "deaths_rate_per_10k": 9.87962,
      "deaths_rate_per_100k": 98.7962,
      "total_tested": 34956,
      "test_rate_per_10k": 9088.21,
      "test_rate_per_100k": 90882.1,
      "total_population": 38463,
      "latitude": 40.712900,
      "longitude": -89.170600
    }
  ]
}
