{
  "LastUpdateDate": {
    "year": 2020,
    "month": 7,
    "day": 22
  },
  "county_rates": [
    {
      "County": "Adams",
      "confirmed_cases": 286,
      "confirmed_rate_per_10k": 44.0474,
      "confirmed_rate_per_100k": 440.474,
      "deaths": 1,
      "deaths_rate_per_10k": 0.154012,
      "deaths_rate_per_100k": 1.54012,
      "total_tested": 13921,
      "test_rate_per_10k": 2144,
      "test_rate_per_100k": 21440,
      "total_population": 64930,
      "latitude": 40.057800,
      "longitude": -91.135300
    },
    {
      "County": "Alexander",
      "confirmed_cases": 32,
      "confirmed_rate_per_10k": 55.6715,
      "confirmed_rate_per_100k": 556.715,
      "deaths": 0,
      "deaths_rate_per_10k": 0,
      "deaths_rate_per_100k": 0,
      "total_tested": 850,
      "test_rate_per_10k": 1478.78,
      "test_rate_per_100k": 14787.8,
      "total_population": 5748,
      "latitude": 37.167000,
      "longitude": -89.360600
    },
    {
      "County": "Bond",
      "confirmed_cases": 29,
      "confirmed_rate_per_10k": 16.1506,
      "confirmed_rate_per_100k": 161.506,
      "deaths": 1,
      "deaths_rate_per_10k": 0.556917,
      "deaths_rate_per_100k": 5.56917,
      "total_tested": 1834,
      "test_rate_per_10k": 1021.39,
      "test_rate_per_100k": 10213.9,
      "total_population": 17956,
      "latitude": 38.903000,
      "longitude": -89.474200
    },
    {
      "County": "Boone",
      "confirmed_cases": 663,
      "confirmed_rate_per_10k": 129.235,
      "confirmed_rate_per_100k": 1292.35,
      "deaths": 21,
      "deaths_rate_per_10k": 4.09341,
      "deaths_rate_per_100k": 40.9341,
      "total_tested": 7306,
      "test_rate_per_10k": 1424.12,
      "test_rate_per_100k": 14241.2,
      "total_population": 51302,
      "latitude": 42.348500,
      "longitude": -88.826300
    },
    {
      "County": "Brown",
      "confirmed_cases": 11,
      "confirmed_rate_per_10k": 17.2171,
      "confirmed_rate_per_100k": 172.171,
      "deaths": 0,
      "deaths_rate_per_10k": 0,
      "deaths_rate_per_100k": 0,
      "total_tested": 658,
      "test_rate_per_10k": 1029.9,
      "test_rate_per_100k": 10299,
      "total_population": 6389,
      "latitude": 39.938000,
      "longitude": -90.715300
    },
    {
      "County": "Bureau",
      "confirmed_cases": 62,
      "confirmed_rate_per_10k": 19.201,
      "confirmed_rate_per_100k": 192.01,
      "deaths": 2,
      "deaths_rate_per_10k": 0.619387,
      "deaths_rate_per_100k": 6.19387,
      "total_tested": 3350,
      "test_rate_per_10k": 1037.47,
      "test_rate_per_100k": 10374.7,
      "total_population": 32290,
      "latitude": 41.359900,
      "longitude": -89.474200
    },
    {
      "County": "Calhoun",
      "confirmed_cases": 3,
      "confirmed_rate_per_10k": 6.64894,
      "confirmed_rate_per_100k": 66.4894,
      "deaths": 0,
      "deaths_rate_per_10k": 0,
      "deaths_rate_per_100k": 0,
      "total_tested": 369,
      "test_rate_per_10k": 817.819,
      "test_rate_per_100k": 8178.19,
      "total_population": 4512,
      "latitude": 39.173300,
      "longitude": -90.658300
    },
    {
      "County": "Carroll",
      "confirmed_cases": 24,
      "confirmed_rate_per_10k": 16.488,
      "confirmed_rate_per_100k": 164.88,
      "deaths": 2,
      "deaths_rate_per_10k": 1.374,
      "deaths_rate_per_100k": 13.74,
      "total_tested": 1185,
      "test_rate_per_10k": 814.097,
      "test_rate_per_100k": 8140.97,
      "total_population": 14556,
      "latitude": 42.038600,
      "longitude": -89.962700
    },
    {
      "County": "Cass",
      "confirmed_cases": 160,
      "confirmed_rate_per_10k": 127.429,
      "confirmed_rate_per_100k": 1274.29,
      "deaths": 11,
      "deaths_rate_per_10k": 8.76075,
      "deaths_rate_per_100k": 87.6075,
      "total_tested": 2403,
      "test_rate_per_10k": 1913.83,
      "test_rate_per_100k": 19138.3,
      "total_population": 12556,
      "latitude": 39.939900,
      "longitude": -90.262000
    },
    {
      "County": "Champaign",
      "confirmed_cases": 1293,
      "confirmed_rate_per_10k": 61.32,
      "confirmed_rate_per_100k": 613.2,
      "deaths": 17,
      "deaths_rate_per_10k": 0.806218,
      "deaths_rate_per_100k": 8.06218,
      "total_tested": 55500,
      "test_rate_per_10k": 2632.07,
      "test_rate_per_100k": 26320.7,
      "total_population": 210861,
      "latitude": 40.213900,
      "longitude": -88.246100
    },
    {
      "County": "Chicago",
      "confirmed_cases": 57694,
      "confirmed_rate_per_10k": 213.208,
      "confirmed_rate_per_100k": 2132.08,
      "deaths": 2736,
      "deaths_rate_per_10k": 10.1109,
      "deaths_rate_per_100k": 101.109,
      "total_tested": 578485,
      "test_rate_per_10k": 2137.79,
      "test_rate_per_100k": 21377.9,
      "total_population": 2.70599e+006,
      "latitude": 41.789896,
      "longitude": -87.627734
    },
    {
      "County": "Christian",
      "confirmed_cases": 60,
      "confirmed_rate_per_10k": 19.0773,
      "confirmed_rate_per_100k": 190.773,
      "deaths": 4,
      "deaths_rate_per_10k": 1.27182,
      "deaths_rate_per_100k": 12.7182,
      "total_tested": 3935,
      "test_rate_per_10k": 1251.15,
      "test_rate_per_100k": 12511.5,
      "total_population": 31451,
      "latitude": 39.567200,
      "longitude": -89.322700
    },
    {
      "County": "Clark",
      "confirmed_cases": 50,
      "confirmed_rate_per_10k": 31.0887,
      "confirmed_rate_per_100k": 310.887,
      "deaths": 0,
      "deaths_rate_per_10k": 0,
      "deaths_rate_per_100k": 0,
      "total_tested": 1708,
      "test_rate_per_10k": 1061.99,
      "test_rate_per_100k": 10619.9,
      "total_population": 16083,
      "latitude": 39.382400,
      "longitude": -87.776300
    },
    {
      "County": "Clay",
      "confirmed_cases": 9,
      "confirmed_rate_per_10k": 7.09499,
      "confirmed_rate_per_100k": 70.9499,
      "deaths": 0,
      "deaths_rate_per_10k": 0,
      "deaths_rate_per_100k": 0,
      "total_tested": 1471,
      "test_rate_per_10k": 1159.64,
      "test_rate_per_100k": 11596.4,
      "total_population": 12685,
      "latitude": 38.727900,
      "longitude": -88.556500
    },
    {
      "County": "Clinton",
      "confirmed_cases": 278,
      "confirmed_rate_per_10k": 87.7276,
      "confirmed_rate_per_100k": 877.276,
      "deaths": 17,
      "deaths_rate_per_10k": 5.36464,
      "deaths_rate_per_100k": 53.6464,
      "total_tested": 5234,
      "test_rate_per_10k": 1651.68,
      "test_rate_per_100k": 16516.8,
      "total_population": 31689,
      "latitude": 38.568400,
      "longitude": -89.625200
    },
    {
      "County": "Coles",
      "confirmed_cases": 261,
      "confirmed_rate_per_10k": 52.3529,
      "confirmed_rate_per_100k": 523.529,
      "deaths": 17,
      "deaths_rate_per_10k": 3.40996,
      "deaths_rate_per_100k": 34.0996,
      "total_tested": 8950,
      "test_rate_per_10k": 1795.24,
      "test_rate_per_100k": 17952.4,
      "total_population": 49854,
      "latitude": 39.556000,
      "longitude": -88.246100
    },
    {
      "County": "Cook",
      "confirmed_cases": 42430,
      "confirmed_rate_per_10k": 173.887,
      "confirmed_rate_per_100k": 1738.87,
      "deaths": 2065,
      "deaths_rate_per_10k": 8.46282,
      "deaths_rate_per_100k": 84.6282,
      "total_tested": 480009,
      "test_rate_per_10k": 1967.18,
      "test_rate_per_100k": 19671.8,
      "total_population": 2.44008e+006,
      "latitude": 42.050784,
      "longitude": -87.963759
    },
    {
      "County": "Crawford",
      "confirmed_cases": 26,
      "confirmed_rate_per_10k": 13.3793,
      "confirmed_rate_per_100k": 133.793,
      "deaths": 0,
      "deaths_rate_per_10k": 0,
      "deaths_rate_per_100k": 0,
      "total_tested": 1318,
      "test_rate_per_10k": 678.228,
      "test_rate_per_100k": 6782.28,
      "total_population": 19433,
      "latitude": 41.833000,
      "longitude": -88.710900
    },
    {
      "County": "Cumberland",
      "confirmed_cases": 36,
      "confirmed_rate_per_10k": 32.5939,
      "confirmed_rate_per_100k": 325.939,
      "deaths": 1,
      "deaths_rate_per_10k": 0.905387,
      "deaths_rate_per_100k": 9.05387,
      "total_tested": 1511,
      "test_rate_per_10k": 1368.04,
      "test_rate_per_100k": 13680.4,
      "total_population": 11045,
      "latitude": 39.265400,
      "longitude": -88.207200
    },
    {
      "County": "De Witt",
      "confirmed_cases": 24,
      "confirmed_rate_per_10k": 15.5976,
      "confirmed_rate_per_100k": 155.976,
      "deaths": 0,
      "deaths_rate_per_10k": 0,
      "deaths_rate_per_100k": 0,
      "total_tested": 1482,
      "test_rate_per_10k": 963.151,
      "test_rate_per_100k": 9631.51,
      "total_population": 15387,
      "latitude": 40.181000,
      "longitude": -88.903100
    },
    {
      "County": "DeKalb",
      "confirmed_cases": 728,
      "confirmed_rate_per_10k": 69.3439,
      "confirmed_rate_per_100k": 693.439,
      "deaths": 24,
      "deaths_rate_per_10k": 2.28606,
      "deaths_rate_per_100k": 22.8606,
      "total_tested": 13048,
      "test_rate_per_10k": 1242.86,
      "test_rate_per_100k": 12428.6,
      "total_population": 104984,
      "latitude": 41.833000,
      "longitude": -88.710900
    },
    {
      "County": "Douglas",
      "confirmed_cases": 89,
      "confirmed_rate_per_10k": 40.4619,
      "confirmed_rate_per_100k": 404.619,
      "deaths": 0,
      "deaths_rate_per_10k": 0,
      "deaths_rate_per_100k": 0,
      "total_tested": 2746,
      "test_rate_per_10k": 1248.41,
      "test_rate_per_100k": 12484.1,
      "total_population": 21996,
      "latitude": 39.761800,
      "longitude": -88.207200
    },
    {
      "County": "DuPage",
      "confirmed_cases": 10531,
      "confirmed_rate_per_10k": 109.607,
      "confirmed_rate_per_100k": 1096.07,
      "deaths": 500,
      "deaths_rate_per_10k": 5.20403,
      "deaths_rate_per_100k": 52.0403,
      "total_tested": 149705,
      "test_rate_per_10k": 1558.14,
      "test_rate_per_100k": 15581.4,
      "total_population": 960793,
      "latitude": 41.824400,
      "longitude": -88.090100
    },
    {
      "County": "Edgar",
      "confirmed_cases": 18,
      "confirmed_rate_per_10k": 10.6768,
      "confirmed_rate_per_100k": 106.768,
      "deaths": 0,
      "deaths_rate_per_10k": 0,
      "deaths_rate_per_100k": 0,
      "total_tested": 1594,
      "test_rate_per_10k": 945.489,
      "test_rate_per_100k": 9454.89,
      "total_population": 16859,
      "latitude": 39.713100,
      "longitude": -87.776300
    },
    {
      "County": "Edwards",
      "confirmed_cases": 6,
      "confirmed_rate_per_10k": 10.4131,
      "confirmed_rate_per_100k": 104.131,
      "deaths": 0,
      "deaths_rate_per_10k": 0,
      "deaths_rate_per_100k": 0,
      "total_tested": 342,
      "test_rate_per_10k": 593.544,
      "test_rate_per_100k": 5935.44,
      "total_population": 5762,
      "latitude": 38.426800,
      "longitude": -88.051000
    },
    {
      "County": "Effingham",
      "confirmed_cases": 48,
      "confirmed_rate_per_10k": 14.1384,
      "confirmed_rate_per_100k": 141.384,
      "deaths": 1,
      "deaths_rate_per_10k": 0.294551,
      "deaths_rate_per_100k": 2.94551,
      "total_tested": 3934,
      "test_rate_per_10k": 1158.76,
      "test_rate_per_100k": 11587.6,
      "total_population": 33950,
      "latitude": 39.062200,
      "longitude": -88.556500
    },
    {
      "County": "Fayette",
      "confirmed_cases": 39,
      "confirmed_rate_per_10k": 18.0489,
      "confirmed_rate_per_100k": 180.489,
      "deaths": 3,
      "deaths_rate_per_10k": 1.38837,
      "deaths_rate_per_100k": 13.8837,
      "total_tested": 2129,
      "test_rate_per_10k": 985.283,
      "test_rate_per_100k": 9852.83,
      "total_population": 21608,
      "latitude": 39.067000,
      "longitude": -89.017900
    },
    {
      "County": "Ford",
      "confirmed_cases": 33,
      "confirmed_rate_per_10k": 25.2178,
      "confirmed_rate_per_100k": 252.178,
      "deaths": 1,
      "deaths_rate_per_10k": 0.764175,
      "deaths_rate_per_100k": 7.64175,
      "total_tested": 2028,
      "test_rate_per_10k": 1549.75,
      "test_rate_per_100k": 15497.5,
      "total_population": 13086,
      "latitude": 40.498900,
      "longitude": -88.207200
    },
    {
      "County": "Franklin",
      "confirmed_cases": 79,
      "confirmed_rate_per_10k": 20.0457,
      "confirmed_rate_per_100k": 200.457,
      "deaths": 0,
      "deaths_rate_per_10k": 0,
      "deaths_rate_per_100k": 0,
      "total_tested": 4256,
      "test_rate_per_10k": 1079.93,
      "test_rate_per_100k": 10799.3,
      "total_population": 39410,
      "latitude": 38.015700,
      "longitude": -88.903100
    },
    {
      "County": "Fulton",
      "confirmed_cases": 20,
      "confirmed_rate_per_10k": 5.70337,
      "confirmed_rate_per_100k": 57.0337,
      "deaths": 0,
      "deaths_rate_per_10k": 0,
      "deaths_rate_per_100k": 0,
      "total_tested": 3890,
      "test_rate_per_10k": 1109.31,
      "test_rate_per_100k": 11093.1,
      "total_population": 35067,
      "latitude": 40.553200,
      "longitude": -90.224500
    },
    {
      "County": "Gallatin",
      "confirmed_cases": 23,
      "confirmed_rate_per_10k": 45.644,
      "confirmed_rate_per_100k": 456.44,
      "deaths": 0,
      "deaths_rate_per_10k": 0,
      "deaths_rate_per_100k": 0,
      "total_tested": 298,
      "test_rate_per_10k": 591.387,
      "test_rate_per_100k": 5913.87,
      "total_population": 5039,
      "latitude": 37.710800,
      "longitude": -88.246100
    },
    {
      "County": "Greene",
      "confirmed_cases": 13,
      "confirmed_rate_per_10k": 9.81354,
      "confirmed_rate_per_100k": 98.1354,
      "deaths": 0,
      "deaths_rate_per_10k": 0,
      "deaths_rate_per_100k": 0,
      "total_tested": 1255,
      "test_rate_per_10k": 947.384,
      "test_rate_per_100k": 9473.84,
      "total_population": 13247,
      "latitude": 39.403000,
      "longitude": -90.374800
    },
    {
      "County": "Grundy",
      "confirmed_cases": 226,
      "confirmed_rate_per_10k": 43.2106,
      "confirmed_rate_per_100k": 432.106,
      "deaths": 5,
      "deaths_rate_per_10k": 0.955986,
      "deaths_rate_per_100k": 9.55986,
      "total_tested": 5251,
      "test_rate_per_10k": 1003.98,
      "test_rate_per_100k": 10039.8,
      "total_population": 52302,
      "latitude": 41.350100,
      "longitude": -88.401600
    },
    {
      "County": "Hamilton",
      "confirmed_cases": 11,
      "confirmed_rate_per_10k": 13.0517,
      "confirmed_rate_per_100k": 130.517,
      "deaths": 0,
      "deaths_rate_per_10k": 0,
      "deaths_rate_per_100k": 0,
      "total_tested": 580,
      "test_rate_per_10k": 688.182,
      "test_rate_per_100k": 6881.82,
      "total_population": 8428,
      "latitude": 38.054300,
      "longitude": -88.556500
    },
    {
      "County": "Hancock",
      "confirmed_cases": 22,
      "confirmed_rate_per_10k": 11.9513,
      "confirmed_rate_per_100k": 119.513,
      "deaths": 1,
      "deaths_rate_per_10k": 0.543242,
      "deaths_rate_per_100k": 5.43242,
      "total_tested": 2763,
      "test_rate_per_10k": 1500.98,
      "test_rate_per_100k": 15009.8,
      "total_population": 18408,
      "latitude": 40.384900,
      "longitude": -91.135300
    },
    {
      "County": "Hardin",
      "confirmed_cases": 9,
      "confirmed_rate_per_10k": 21.8341,
      "confirmed_rate_per_100k": 218.341,
      "deaths": 0,
      "deaths_rate_per_10k": 0,
      "deaths_rate_per_100k": 0,
      "total_tested": 321,
      "test_rate_per_10k": 778.748,
      "test_rate_per_100k": 7787.48,
      "total_population": 4122,
      "latitude": 37.499500,
      "longitude": -88.362800
    },
    {
      "County": "Henderson",
      "confirmed_cases": 8,
      "confirmed_rate_per_10k": 13.1622,
      "confirmed_rate_per_100k": 131.622,
      "deaths": 0,
      "deaths_rate_per_10k": 0,
      "deaths_rate_per_100k": 0,
      "total_tested": 500,
      "test_rate_per_10k": 822.639,
      "test_rate_per_100k": 8226.39,
      "total_population": 6078,
      "latitude": 40.833600,
      "longitude": -90.943800
    },
    {
      "County": "Henry",
      "confirmed_cases": 146,
      "confirmed_rate_per_10k": 30.6865,
      "confirmed_rate_per_100k": 306.865,
      "deaths": 1,
      "deaths_rate_per_10k": 0.210181,
      "deaths_rate_per_100k": 2.10181,
      "total_tested": 6673,
      "test_rate_per_10k": 1402.54,
      "test_rate_per_100k": 14025.4,
      "total_population": 47578,
      "latitude": 41.361100,
      "longitude": -90.074700
    },
    {
      "County": "Iroquois",
      "confirmed_cases": 201,
      "confirmed_rate_per_10k": 77.5523,
      "confirmed_rate_per_100k": 775.523,
      "deaths": 5,
      "deaths_rate_per_10k": 1.92916,
      "deaths_rate_per_100k": 19.2916,
      "total_tested": 4909,
      "test_rate_per_10k": 1894.05,
      "test_rate_per_100k": 18940.5,
      "total_population": 25918,
      "latitude": 40.774000,
      "longitude": -87.697600
    },
    {
      "County": "Jackson",
      "confirmed_cases": 434,
      "confirmed_rate_per_10k": 72.3153,
      "confirmed_rate_per_100k": 723.153,
      "deaths": 19,
      "deaths_rate_per_10k": 3.16588,
      "deaths_rate_per_100k": 31.6588,
      "total_tested": 7716,
      "test_rate_per_10k": 1285.68,
      "test_rate_per_100k": 12856.8,
      "total_population": 60015,
      "latitude": 37.721800,
      "longitude": -89.322700
    },
    {
      "County": "Jasper",
      "confirmed_cases": 49,
      "confirmed_rate_per_10k": 54.3659,
      "confirmed_rate_per_100k": 543.659,
      "deaths": 7,
      "deaths_rate_per_10k": 7.76656,
      "deaths_rate_per_100k": 77.6656,
      "total_tested": 1194,
      "test_rate_per_10k": 1324.75,
      "test_rate_per_100k": 13247.5,
      "total_population": 9013,
      "latitude": 39.055500,
      "longitude": -88.090100
    },
    {
      "County": "Jefferson",
      "confirmed_cases": 138,
      "confirmed_rate_per_10k": 37.3569,
      "confirmed_rate_per_100k": 373.569,
      "deaths": 17,
      "deaths_rate_per_10k": 4.60193,
      "deaths_rate_per_100k": 46.0193,
      "total_tested": 3960,
      "test_rate_per_10k": 1071.98,
      "test_rate_per_100k": 10719.8,
      "total_population": 36941,
      "latitude": 38.226700,
      "longitude": -88.864700
    },
    {
      "County": "Jersey",
      "confirmed_cases": 56,
      "confirmed_rate_per_10k": 32.2302,
      "confirmed_rate_per_100k": 322.302,
      "deaths": 1,
      "deaths_rate_per_10k": 0.57554,
      "deaths_rate_per_100k": 5.7554,
      "total_tested": 1780,
      "test_rate_per_10k": 1024.46,
      "test_rate_per_100k": 10244.6,
      "total_population": 17375,
      "latitude": 39.070500,
      "longitude": -90.374800
    },
    {
      "County": "Jo Daviess",
      "confirmed_cases": 80,
      "confirmed_rate_per_10k": 38.4874,
      "confirmed_rate_per_100k": 384.874,
      "deaths": 1,
      "deaths_rate_per_10k": 0.481093,
      "deaths_rate_per_100k": 4.81093,
      "total_tested": 2355,
      "test_rate_per_10k": 1132.97,
      "test_rate_per_100k": 11329.7,
      "total_population": 20786,
      "latitude": 42.314900,
      "longitude": -90.224500
    },
    {
      "County": "Johnson",
      "confirmed_cases": 42,
      "confirmed_rate_per_10k": 31.456,
      "confirmed_rate_per_100k": 314.56,
      "deaths": 0,
      "deaths_rate_per_10k": 0,
      "deaths_rate_per_100k": 0,
      "total_tested": 1074,
      "test_rate_per_10k": 804.374,
      "test_rate_per_100k": 8043.74,
      "total_population": 13352,
      "latitude": 37.420400,
      "longitude": -88.903100
    },
    {
      "County": "Kane",
      "confirmed_cases": 8481,
      "confirmed_rate_per_10k": 178.984,
      "confirmed_rate_per_100k": 1789.84,
      "deaths": 293,
      "deaths_rate_per_10k": 6.18351,
      "deaths_rate_per_100k": 61.8351,
      "total_tested": 81273,
      "test_rate_per_10k": 1715.2,
      "test_rate_per_100k": 17152,
      "total_population": 473841,
      "latitude": 41.987900,
      "longitude": -88.401600
    },
    {
      "County": "Kankakee",
      "confirmed_cases": 1534,
      "confirmed_rate_per_10k": 139.119,
      "confirmed_rate_per_100k": 1391.19,
      "deaths": 66,
      "deaths_rate_per_10k": 5.98558,
      "deaths_rate_per_100k": 59.8558,
      "total_tested": 24479,
      "test_rate_per_10k": 2220.02,
      "test_rate_per_100k": 22200.2,
      "total_population": 110265,
      "latitude": 41.179100,
      "longitude": -87.776300
    },
    {
      "County": "Kendall",
      "confirmed_cases": 1151,
      "confirmed_rate_per_10k": 100.341,
      "confirmed_rate_per_100k": 1003.41,
      "deaths": 21,
      "deaths_rate_per_10k": 1.83072,
      "deaths_rate_per_100k": 18.3072,
      "total_tested": 15848,
      "test_rate_per_10k": 1381.58,
      "test_rate_per_100k": 13815.8,
      "total_population": 114709,
      "latitude": 41.550700,
      "longitude": -88.440400
    },
    {
      "County": "Knox",
      "confirmed_cases": 199,
      "confirmed_rate_per_10k": 40.1939,
      "confirmed_rate_per_100k": 401.939,
      "deaths": 1,
      "deaths_rate_per_10k": 0.201979,
      "deaths_rate_per_100k": 2.01979,
      "total_tested": 5469,
      "test_rate_per_10k": 1104.63,
      "test_rate_per_100k": 11046.3,
      "total_population": 49510,
      "latitude": 40.877600,
      "longitude": -90.224500
    },
    {
      "County": "Lake",
      "confirmed_cases": 11079,
      "confirmed_rate_per_10k": 153.108,
      "confirmed_rate_per_100k": 1531.08,
      "deaths": 435,
      "deaths_rate_per_10k": 6.01156,
      "deaths_rate_per_100k": 60.1156,
      "total_tested": 121710,
      "test_rate_per_10k": 1681.99,
      "test_rate_per_100k": 16819.9,
      "total_population": 723606,
      "latitude": 42.368900,
      "longitude": -87.827200
    },
    {
      "County": "LaSalle",
      "confirmed_cases": 362,
      "confirmed_rate_per_10k": 33.1305,
      "confirmed_rate_per_100k": 331.305,
      "deaths": 18,
      "deaths_rate_per_10k": 1.64737,
      "deaths_rate_per_100k": 16.4737,
      "total_tested": 12179,
      "test_rate_per_10k": 1114.63,
      "test_rate_per_100k": 11146.3,
      "total_population": 109265,
      "latitude": 41.436400,
      "longitude": -88.941400
    },
    {
      "County": "Lawrence",
      "confirmed_cases": 30,
      "confirmed_rate_per_10k": 19.9495,
      "confirmed_rate_per_100k": 199.495,
      "deaths": 0,
      "deaths_rate_per_10k": 0,
      "deaths_rate_per_100k": 0,
      "total_tested": 1663,
      "test_rate_per_10k": 1105.87,
      "test_rate_per_100k": 11058.7,
      "total_population": 15038,
      "latitude": 38.715800,
      "longitude": -87.776300
    },
    {
      "County": "Lee",
      "confirmed_cases": 120,
      "confirmed_rate_per_10k": 34.6921,
      "confirmed_rate_per_100k": 346.921,
      "deaths": 2,
      "deaths_rate_per_10k": 0.578202,
      "deaths_rate_per_100k": 5.78202,
      "total_tested": 3257,
      "test_rate_per_10k": 941.602,
      "test_rate_per_100k": 9416.02,
      "total_population": 34590,
      "latitude": 41.679000,
      "longitude": -89.322700
    },
    {
      "County": "Livingston",
      "confirmed_cases": 63,
      "confirmed_rate_per_10k": 19.2619,
      "confirmed_rate_per_100k": 192.619,
      "deaths": 2,
      "deaths_rate_per_10k": 0.61149,
      "deaths_rate_per_100k": 6.1149,
      "total_tested": 3842,
      "test_rate_per_10k": 1174.67,
      "test_rate_per_100k": 11746.7,
      "total_population": 32707,
      "latitude": 40.868900,
      "longitude": -88.556500
    },
    {
      "County": "Logan",
      "confirmed_cases": 57,
      "confirmed_rate_per_10k": 20.069,
      "confirmed_rate_per_100k": 200.69,
      "deaths": 0,
      "deaths_rate_per_10k": 0,
      "deaths_rate_per_100k": 0,
      "total_tested": 5678,
      "test_rate_per_10k": 1999.15,
      "test_rate_per_100k": 19991.5,
      "total_population": 28402,
      "latitude": 40.061300,
      "longitude": -89.322700
    },
    {
      "County": "Macon",
      "confirmed_cases": 288,
      "confirmed_rate_per_10k": 27.972,
      "confirmed_rate_per_100k": 279.72,
      "deaths": 22,
      "deaths_rate_per_10k": 2.13675,
      "deaths_rate_per_100k": 21.3675,
      "total_tested": 12599,
      "test_rate_per_10k": 1223.68,
      "test_rate_per_100k": 12236.8,
      "total_population": 102960,
      "latitude": 39.894900,
      "longitude": -89.017900
    },
    {
      "County": "Macoupin",
      "confirmed_cases": 100,
      "confirmed_rate_per_10k": 20.5973,
      "confirmed_rate_per_100k": 205.973,
      "deaths": 3,
      "deaths_rate_per_10k": 0.61792,
      "deaths_rate_per_100k": 6.1792,
      "total_tested": 7684,
      "test_rate_per_10k": 1582.7,
      "test_rate_per_100k": 15827,
      "total_population": 48550,
      "latitude": 39.237500,
      "longitude": -89.925300
    },
    {
      "County": "Madison",
      "confirmed_cases": 1604,
      "confirmed_rate_per_10k": 60.0079,
      "confirmed_rate_per_100k": 600.079,
      "deaths": 71,
      "deaths_rate_per_10k": 2.65621,
      "deaths_rate_per_100k": 26.5621,
      "total_tested": 29757,
      "test_rate_per_10k": 1113.25,
      "test_rate_per_100k": 11132.5,
      "total_population": 267298,
      "latitude": 38.904100,
      "longitude": -89.925300
    },
    {
      "County": "Marion",
      "confirmed_cases": 97,
      "confirmed_rate_per_10k": 21.6518,
      "confirmed_rate_per_100k": 216.518,
      "deaths": 0,
      "deaths_rate_per_10k": 0,
      "deaths_rate_per_100k": 0,
      "total_tested": 4386,
      "test_rate_per_10k": 979.018,
      "test_rate_per_100k": 9790.18,
      "total_population": 44800,
      "latitude": 38.731300,
      "longitude": -88.864700
    },
    {
      "County": "Marshall",
      "confirmed_cases": 15,
      "confirmed_rate_per_10k": 14.0739,
      "confirmed_rate_per_100k": 140.739,
      "deaths": 0,
      "deaths_rate_per_10k": 0,
      "deaths_rate_per_100k": 0,
      "total_tested": 1299,
      "test_rate_per_10k": 1218.8,
      "test_rate_per_100k": 12188,
      "total_population": 10658,
      "latitude": 40.997300,
      "longitude": -89.360600
    },
    {
      "County": "Mason",
      "confirmed_cases": 36,
      "confirmed_rate_per_10k": 23.4131,
      "confirmed_rate_per_100k": 234.131,
      "deaths": 0,
      "deaths_rate_per_10k": 0,
      "deaths_rate_per_100k": 0,
      "total_tested": 1929,
      "test_rate_per_10k": 1254.55,
      "test_rate_per_100k": 12545.5,
      "total_population": 15376,
      "latitude": 40.227100,
      "longitude": -89.925300
    },
    {
      "County": "Massac",
      "confirmed_cases": 24,
      "confirmed_rate_per_10k": 18.5242,
      "confirmed_rate_per_100k": 185.242,
      "deaths": 0,
      "deaths_rate_per_10k": 0,
      "deaths_rate_per_100k": 0,
      "total_tested": 1374,
      "test_rate_per_10k": 1060.51,
      "test_rate_per_100k": 10605.1,
      "total_population": 12956,
      "latitude": 37.247800,
      "longitude": -88.749400
    },
    {
      "County": "McDonough",
      "confirmed_cases": 119,
      "confirmed_rate_per_10k": 41.1651,
      "confirmed_rate_per_100k": 411.651,
      "deaths": 15,
      "deaths_rate_per_10k": 5.18888,
      "deaths_rate_per_100k": 51.8888,
      "total_tested": 3356,
      "test_rate_per_10k": 1160.92,
      "test_rate_per_100k": 11609.2,
      "total_population": 28908,
      "latitude": 40.388500,
      "longitude": -90.677300
    },
    {
      "County": "McHenry",
      "confirmed_cases": 2559,
      "confirmed_rate_per_10k": 76.3386,
      "confirmed_rate_per_100k": 763.386,
      "deaths": 110,
      "deaths_rate_per_10k": 3.28146,
      "deaths_rate_per_100k": 32.8146,
      "total_tested": 34687,
      "test_rate_per_10k": 1034.76,
      "test_rate_per_100k": 10347.6,
      "total_population": 335217,
      "latitude": 42.304000,
      "longitude": -88.401600
    },
    {
      "County": "McLean",
      "confirmed_cases": 418,
      "confirmed_rate_per_10k": 24.007,
      "confirmed_rate_per_100k": 240.07,
      "deaths": 15,
      "deaths_rate_per_10k": 0.861495,
      "deaths_rate_per_100k": 8.61495,
      "total_tested": 20176,
      "test_rate_per_10k": 1158.77,
      "test_rate_per_100k": 11587.7,
      "total_population": 174116,
      "latitude": 40.547800,
      "longitude": -88.864700
    },
    {
      "County": "Menard",
      "confirmed_cases": 36,
      "confirmed_rate_per_10k": 29.4768,
      "confirmed_rate_per_100k": 294.768,
      "deaths": 0,
      "deaths_rate_per_10k": 0,
      "deaths_rate_per_100k": 0,
      "total_tested": 2045,
      "test_rate_per_10k": 1674.45,
      "test_rate_per_100k": 16744.5,
      "total_population": 12213,
      "latitude": 40.022100,
      "longitude": -89.813000
    },
    {
      "County": "Mercer",
      "confirmed_cases": 39,
      "confirmed_rate_per_10k": 26.3264,
      "confirmed_rate_per_100k": 263.264,
      "deaths": 0,
      "deaths_rate_per_10k": 0,
      "deaths_rate_per_100k": 0,
      "total_tested": 1782,
      "test_rate_per_10k": 1202.92,
      "test_rate_per_100k": 12029.2,
      "total_population": 14814,
      "latitude": 41.198500,
      "longitude": -90.677300
    },
    {
      "County": "Monroe",
      "confirmed_cases": 205,
      "confirmed_rate_per_10k": 59.9713,
      "confirmed_rate_per_100k": 599.713,
      "deaths": 13,
      "deaths_rate_per_10k": 3.80306,
      "deaths_rate_per_100k": 38.0306,
      "total_tested": 3099,
      "test_rate_per_10k": 906.591,
      "test_rate_per_100k": 9065.91,
      "total_population": 34183,
      "latitude": 38.274300,
      "longitude": -90.187000
    },
    {
      "County": "Montgomery",
      "confirmed_cases": 112,
      "confirmed_rate_per_10k": 38.8363,
      "confirmed_rate_per_100k": 388.363,
      "deaths": 3,
      "deaths_rate_per_10k": 1.04026,
      "deaths_rate_per_100k": 10.4026,
      "total_tested": 5128,
      "test_rate_per_10k": 1778.15,
      "test_rate_per_100k": 17781.5,
      "total_population": 28839,
      "latitude": 39.236400,
      "longitude": -89.474200
    },
    {
      "County": "Morgan",
      "confirmed_cases": 146,
      "confirmed_rate_per_10k": 43.4821,
      "confirmed_rate_per_100k": 434.821,
      "deaths": 5,
      "deaths_rate_per_10k": 1.48911,
      "deaths_rate_per_100k": 14.8911,
      "total_tested": 5886,
      "test_rate_per_10k": 1752.99,
      "test_rate_per_100k": 17529.9,
      "total_population": 33577,
      "latitude": 39.734100,
      "longitude": -90.224500
    },
    {
      "County": "Moultrie",
      "confirmed_cases": 33,
      "confirmed_rate_per_10k": 24.2487,
      "confirmed_rate_per_100k": 242.487,
      "deaths": 0,
      "deaths_rate_per_10k": 0,
      "deaths_rate_per_100k": 0,
      "total_tested": 1582,
      "test_rate_per_10k": 1162.47,
      "test_rate_per_100k": 11624.7,
      "total_population": 13609,
      "latitude": 39.602100,
      "longitude": -88.595200
    },
    {
      "County": "Ogle",
      "confirmed_cases": 345,
      "confirmed_rate_per_10k": 70.6822,
      "confirmed_rate_per_100k": 706.822,
      "deaths": 5,
      "deaths_rate_per_10k": 1.02438,
      "deaths_rate_per_100k": 10.2438,
      "total_tested": 6443,
      "test_rate_per_10k": 1320.02,
      "test_rate_per_100k": 13200.2,
      "total_population": 48810,
      "latitude": 41.997000,
      "longitude": -89.322700
    },
    {
      "County": "Peoria",
      "confirmed_cases": 878,
      "confirmed_rate_per_10k": 49.1656,
      "confirmed_rate_per_100k": 491.656,
      "deaths": 32,
      "deaths_rate_per_10k": 1.79191,
      "deaths_rate_per_100k": 17.9191,
      "total_tested": 32311,
      "test_rate_per_10k": 1809.33,
      "test_rate_per_100k": 18093.3,
      "total_population": 178580,
      "latitude": 40.715600,
      "longitude": -89.775500
    },
    {
      "County": "Perry",
      "confirmed_cases": 73,
      "confirmed_rate_per_10k": 37.4936,
      "confirmed_rate_per_100k": 374.936,
      "deaths": 1,
      "deaths_rate_per_10k": 0.513611,
      "deaths_rate_per_100k": 5.13611,
      "total_tested": 2542,
      "test_rate_per_10k": 1305.6,
      "test_rate_per_100k": 13056,
      "total_population": 19470,
      "latitude": 38.061200,
      "longitude": -89.322700
    },
    {
      "County": "Piatt",
      "confirmed_cases": 30,
      "confirmed_rate_per_10k": 19.003,
      "confirmed_rate_per_100k": 190.03,
      "deaths": 0,
      "deaths_rate_per_10k": 0,
      "deaths_rate_per_100k": 0,
      "total_tested": 2872,
      "test_rate_per_10k": 1819.22,
      "test_rate_per_100k": 18192.2,
      "total_population": 15787,
      "latitude": 40.054400,
      "longitude": -88.855650
    },
    {
      "County": "Pike",
      "confirmed_cases": 9,
      "confirmed_rate_per_10k": 5.61097,
      "confirmed_rate_per_100k": 56.1097,
      "deaths": 0,
      "deaths_rate_per_10k": 0,
      "deaths_rate_per_100k": 0,
      "total_tested": 1208,
      "test_rate_per_10k": 753.117,
      "test_rate_per_100k": 7531.17,
      "total_population": 16040,
      "latitude": 39.566200,
      "longitude": -90.829400
    },
    {
      "County": "Pope",
      "confirmed_cases": 2,
      "confirmed_rate_per_10k": 6.20732,
      "confirmed_rate_per_100k": 62.0732,
      "deaths": 0,
      "deaths_rate_per_10k": 0,
      "deaths_rate_per_100k": 0,
      "total_tested": 222,
      "test_rate_per_10k": 689.013,
      "test_rate_per_100k": 6890.13,
      "total_population": 3222,
      "latitude": 37.417100,
      "longitude": -88.595200
    },
    {
      "County": "Pulaski",
      "confirmed_cases": 88,
      "confirmed_rate_per_10k": 156.444,
      "confirmed_rate_per_100k": 1564.44,
      "deaths": 0,
      "deaths_rate_per_10k": 0,
      "deaths_rate_per_100k": 0,
      "total_tested": 685,
      "test_rate_per_10k": 1217.78,
      "test_rate_per_100k": 12177.8,
      "total_population": 5625,
      "latitude": 37.251200,
      "longitude": -89.132500
    },
    {
      "County": "Putnam",
      "confirmed_cases": 3,
      "confirmed_rate_per_10k": 5.07872,
      "confirmed_rate_per_100k": 50.7872,
      "deaths": 0,
      "deaths_rate_per_10k": 0,
      "deaths_rate_per_100k": 0,
      "total_tested": 365,
      "test_rate_per_10k": 617.911,
      "test_rate_per_100k": 6179.11,
      "total_population": 5907,
      "latitude": 41.238500,
      "longitude": -89.284700
    },
    {
      "County": "Randolph",
      "confirmed_cases": 374,
      "confirmed_rate_per_10k": 105.91,
      "confirmed_rate_per_100k": 1059.1,
      "deaths": 7,
      "deaths_rate_per_10k": 1.98227,
      "deaths_rate_per_100k": 19.8227,
      "total_tested": 4719,
      "test_rate_per_10k": 1336.34,
      "test_rate_per_100k": 13363.4,
      "total_population": 35313,
      "latitude": 38.062900,
      "longitude": -89.775500
    },
    {
      "County": "Richland",
      "confirmed_cases": 9,
      "confirmed_rate_per_10k": 5.70994,
      "confirmed_rate_per_100k": 57.0994,
      "deaths": 0,
      "deaths_rate_per_10k": 0,
      "deaths_rate_per_100k": 0,
      "total_tested": 2104,
      "test_rate_per_10k": 1334.86,
      "test_rate_per_100k": 13348.6,
      "total_population": 15762,
      "latitude": 38.721300,
      "longitude": -88.090100
    },
    {
      "County": "Rock Island",
      "confirmed_cases": 1375,
      "confirmed_rate_per_10k": 95.8061,
      "confirmed_rate_per_100k": 958.061,
      "deaths": 30,
      "deaths_rate_per_10k": 2.09032,
      "deaths_rate_per_100k": 20.9032,
      "total_tested": 28864,
      "test_rate_per_10k": 2011.16,
      "test_rate_per_100k": 20111.6,
      "total_population": 143519,
      "latitude": 41.509500,
      "longitude": -90.578700
    },
    {
      "County": "Saline",
      "confirmed_cases": 60,
      "confirmed_rate_per_10k": 24.6944,
      "confirmed_rate_per_100k": 246.944,
      "deaths": 0,
      "deaths_rate_per_10k": 0,
      "deaths_rate_per_100k": 0,
      "total_tested": 2394,
      "test_rate_per_10k": 985.307,
      "test_rate_per_100k": 9853.07,
      "total_population": 24297,
      "latitude": 37.715000,
      "longitude": -88.556500
    },
    {
      "County": "Sangamon",
      "confirmed_cases": 717,
      "confirmed_rate_per_10k": 36.8592,
      "confirmed_rate_per_100k": 368.592,
      "deaths": 33,
      "deaths_rate_per_10k": 1.69645,
      "deaths_rate_per_100k": 16.9645,
      "total_tested": 44951,
      "test_rate_per_10k": 2310.82,
      "test_rate_per_100k": 23108.2,
      "total_population": 194524,
      "latitude": 39.733700,
      "longitude": -89.625200
    },
    {
      "County": "Schuyler",
      "confirmed_cases": 14,
      "confirmed_rate_per_10k": 21.6551,
      "confirmed_rate_per_100k": 216.551,
      "deaths": 0,
      "deaths_rate_per_10k": 0,
      "deaths_rate_per_100k": 0,
      "total_tested": 773,
      "test_rate_per_10k": 1195.67,
      "test_rate_per_100k": 11956.7,
      "total_population": 6465,
      "latitude": 40.184500,
      "longitude": -90.639400
    },
    {
      "County": "Scott",
      "confirmed_cases": 4,
      "confirmed_rate_per_10k": 9.13034,
      "confirmed_rate_per_100k": 91.3034,
      "deaths": 0,
      "deaths_rate_per_10k": 0,
      "deaths_rate_per_100k": 0,
      "total_tested": 676,
      "test_rate_per_10k": 1543.03,
      "test_rate_per_100k": 15430.3,
      "total_population": 4381,
      "latitude": 39.609500,
      "longitude": -90.488000
    },
    {
      "County": "Shelby",
      "confirmed_cases": 31,
      "confirmed_rate_per_10k": 14.7136,
      "confirmed_rate_per_100k": 147.136,
      "deaths": 1,
      "deaths_rate_per_10k": 0.474631,
      "deaths_rate_per_100k": 4.74631,
      "total_tested": 2465,
      "test_rate_per_10k": 1169.97,
      "test_rate_per_100k": 11699.7,
      "total_population": 21069,
      "latitude": 39.398100,
      "longitude": -88.864700
    },
    {
      "County": "St. Clair",
      "confirmed_cases": 2883,
      "confirmed_rate_per_10k": 113.726,
      "confirmed_rate_per_100k": 1137.26,
      "deaths": 152,
      "deaths_rate_per_10k": 5.99598,
      "deaths_rate_per_100k": 59.9598,
      "total_tested": 32993,
      "test_rate_per_10k": 1301.48,
      "test_rate_per_100k": 13014.8,
      "total_population": 253503,
      "latitude": 38.400800,
      "longitude": -89.925300
    },
    {
      "County": "Stark",
      "confirmed_cases": 7,
      "confirmed_rate_per_10k": 12.2485,
      "confirmed_rate_per_100k": 122.485,
      "deaths": 0,
      "deaths_rate_per_10k": 0,
      "deaths_rate_per_100k": 0,
      "total_tested": 767,
      "test_rate_per_10k": 1342.08,
      "test_rate_per_100k": 13420.8,
      "total_population": 5715,
      "latitude": 41.079600,
      "longitude": -89.813000
    },
    {
      "County": "Stephenson",
      "confirmed_cases": 292,
      "confirmed_rate_per_10k": 64.4179,
      "confirmed_rate_per_100k": 644.179,
      "deaths": 6,
      "deaths_rate_per_10k": 1.32366,
      "deaths_rate_per_100k": 13.2366,
      "total_tested": 6310,
      "test_rate_per_10k": 1392.04,
      "test_rate_per_100k": 13920.4,
      "total_population": 45329,
      "latitude": 42.314500,
      "longitude": -89.625200
    },
    {
      "County": "Tazewell",
      "confirmed_cases": 243,
      "confirmed_rate_per_10k": 18.2523,
      "confirmed_rate_per_100k": 182.523,
      "deaths": 8,
      "deaths_rate_per_10k": 0.600898,
      "deaths_rate_per_100k": 6.00898,
      "total_tested": 20214,
      "test_rate_per_10k": 1518.32,
      "test_rate_per_100k": 15183.2,
      "total_population": 133134,
      "latitude": 40.552200,
      "longitude": -89.474200
    },
    {
      "County": "Union",
      "confirmed_cases": 255,
      "confirmed_rate_per_10k": 157.846,
      "confirmed_rate_per_100k": 1578.46,
      "deaths": 21,
      "deaths_rate_per_10k": 12.9991,
      "deaths_rate_per_100k": 129.991,
      "total_tested": 2912,
      "test_rate_per_10k": 1802.54,
      "test_rate_per_100k": 18025.4,
      "total_population": 16155,
      "latitude": 37.508700,
      "longitude": -89.284700
    },
    {
      "County": "Vermilion",
      "confirmed_cases": 141,
      "confirmed_rate_per_10k": 18.5644,
      "confirmed_rate_per_100k": 185.644,
      "deaths": 2,
      "deaths_rate_per_10k": 0.263324,
      "deaths_rate_per_100k": 2.63324,
      "total_tested": 9469,
      "test_rate_per_10k": 1246.71,
      "test_rate_per_100k": 12467.1,
      "total_population": 75952,
      "latitude": 40.122500,
      "longitude": -87.697600
    },
    {
      "County": "Wabash",
      "confirmed_cases": 25,
      "confirmed_rate_per_10k": 22.4195,
      "confirmed_rate_per_100k": 224.195,
      "deaths": 0,
      "deaths_rate_per_10k": 0,
      "deaths_rate_per_100k": 0,
      "total_tested": 933,
      "test_rate_per_10k": 836.696,
      "test_rate_per_100k": 8366.96,
      "total_population": 11151,
      "latitude": 38.422600,
      "longitude": -87.815700
    },
    {
      "County": "Warren",
      "confirmed_cases": 158,
      "confirmed_rate_per_10k": 96.2534,
      "confirmed_rate_per_100k": 962.534,
      "deaths": 0,
      "deaths_rate_per_10k": 0,
      "deaths_rate_per_100k": 0,
      "total_tested": 1506,
      "test_rate_per_10k": 917.454,
      "test_rate_per_100k": 9174.54,
      "total_population": 16415,
      "latitude": 40.875900,
      "longitude": -90.677300
    },
    {
      "County": "Washington",
      "confirmed_cases": 35,
      "confirmed_rate_per_10k": 27.0062,
      "confirmed_rate_per_100k": 270.062,
      "deaths": 0,
      "deaths_rate_per_10k": 0,
      "deaths_rate_per_100k": 0,
      "total_tested": 1177,
      "test_rate_per_10k": 908.179,
      "test_rate_per_100k": 9081.79,
      "total_population": 12960,
      "latitude": 38.398900,
      "longitude": -89.322700
    },
    {
      "County": "Wayne",
      "confirmed_cases": 27,
      "confirmed_rate_per_10k": 17.3155,
      "confirmed_rate_per_100k": 173.155,
      "deaths": 1,
      "deaths_rate_per_10k": 0.641313,
      "deaths_rate_per_100k": 6.41313,
      "total_tested": 1461,
      "test_rate_per_10k": 936.959,
      "test_rate_per_100k": 9369.59,
      "total_population": 15593,
      "latitude": 38.390000,
      "longitude": -88.401600
    },
    {
      "County": "White",
      "confirmed_cases": 33,
      "confirmed_rate_per_10k": 23.1352,
      "confirmed_rate_per_100k": 231.352,
      "deaths": 0,
      "deaths_rate_per_10k": 0,
      "deaths_rate_per_100k": 0,
      "total_tested": 1186,
      "test_rate_per_10k": 831.464,
      "test_rate_per_100k": 8314.64,
      "total_population": 14264,
      "latitude": 38.050100,
      "longitude": -88.246100
    },
    {
      "County": "Whiteside",
      "confirmed_cases": 246,
      "confirmed_rate_per_10k": 43.7162,
      "confirmed_rate_per_100k": 437.162,
      "deaths": 16,
      "deaths_rate_per_10k": 2.84333,
      "deaths_rate_per_100k": 28.4333,
      "total_tested": 6185,
      "test_rate_per_10k": 1099.13,
      "test_rate_per_100k": 10991.3,
      "total_population": 56272,
      "latitude": 41.760600,
      "longitude": -89.850500
    },
    {
      "County": "Will",
      "confirmed_cases": 7845,
      "confirmed_rate_per_10k": 112.18,
      "confirmed_rate_per_100k": 1121.8,
      "deaths": 336,
      "deaths_rate_per_10k": 4.80467,
      "deaths_rate_per_100k": 48.0467,
      "total_tested": 102670,
      "test_rate_per_10k": 1468.14,
      "test_rate_per_100k": 14681.4,
      "total_population": 699320,
      "latitude": 41.505500,
      "longitude": -88.090100
    },
    {
      "County": "Williamson",
      "confirmed_cases": 218,
      "confirmed_rate_per_10k": 35.1205,
      "confirmed_rate_per_100k": 351.205,
      "deaths": 4,
      "deaths_rate_per_10k": 0.644413,
      "deaths_rate_per_100k": 6.44413,
      "total_tested": 9336,
      "test_rate_per_10k": 1504.06,
      "test_rate_per_100k": 15040.6,
      "total_population": 62072,
      "latitude": 37.718300,
      "longitude": -88.864700
    },
    {
      "County": "Winnebago",
      "confirmed_cases": 3386,
      "confirmed_rate_per_10k": 119.549,
      "confirmed_rate_per_100k": 1195.49,
      "deaths": 113,
      "deaths_rate_per_10k": 3.98968,
      "deaths_rate_per_100k": 39.8968,
      "total_tested": 44783,
      "test_rate_per_10k": 1581.15,
      "test_rate_per_100k": 15811.5,
      "total_population": 283231,
      "latitude": 42.312100,
      "longitude": -89.170600
    },
    {
      "County": "Woodford",
      "confirmed_cases": 66,
      "confirmed_rate_per_10k": 19.3107,
      "confirmed_rate_per_100k": 193.107,
      "deaths": 3,
      "deaths_rate_per_10k": 0.877758,
      "deaths_rate_per_100k": 8.77758,
      "total_tested": 4062,
      "test_rate_per_10k": 1188.48,
      "test_rate_per_100k": 11884.8,
      "total_population": 34178,
      "latitude": 40.712900,
      "longitude": -89.170600
    }
  ]
}
