{
  "LastUpdateDate": {
    "year": 2020,
    "month": 12,
    "day": 25
  },
  "county_rates": [
    {
      "County": "Adams",
      "confirmed_cases": 6099,
      "confirmed_rate_per_10k": 928.438,
      "confirmed_rate_per_100k": 9284.38,
      "deaths": 66,
      "deaths_rate_per_10k": 10.047,
      "deaths_rate_per_100k": 100.47,
      "total_tested": 85804,
      "test_rate_per_10k": 13061.8,
      "test_rate_per_100k": 130618,
      "total_population": 65691,
      "latitude": 40.057800,
      "longitude": -91.135300
    },
    {
      "County": "Alexander",
      "confirmed_cases": 333,
      "confirmed_rate_per_10k": 549.505,
      "confirmed_rate_per_100k": 5495.05,
      "deaths": 6,
      "deaths_rate_per_10k": 9.90099,
      "deaths_rate_per_100k": 99.0099,
      "total_tested": 3713,
      "test_rate_per_10k": 6127.06,
      "test_rate_per_100k": 61270.6,
      "total_population": 6060,
      "latitude": 37.167000,
      "longitude": -89.360600
    },
    {
      "County": "Bond",
      "confirmed_cases": 1484,
      "confirmed_rate_per_10k": 892.363,
      "confirmed_rate_per_100k": 8923.63,
      "deaths": 13,
      "deaths_rate_per_10k": 7.8172,
      "deaths_rate_per_100k": 78.172,
      "total_tested": 15527,
      "test_rate_per_10k": 9336.74,
      "test_rate_per_100k": 93367.4,
      "total_population": 16630,
      "latitude": 38.903000,
      "longitude": -89.474200
    },
    {
      "County": "Boone",
      "confirmed_cases": 4892,
      "confirmed_rate_per_10k": 913.078,
      "confirmed_rate_per_100k": 9130.78,
      "deaths": 55,
      "deaths_rate_per_10k": 10.2656,
      "deaths_rate_per_100k": 102.656,
      "total_tested": 39516,
      "test_rate_per_10k": 7375.55,
      "test_rate_per_100k": 73755.5,
      "total_population": 53577,
      "latitude": 42.348500,
      "longitude": -88.826300
    },
    {
      "County": "Brown",
      "confirmed_cases": 431,
      "confirmed_rate_per_10k": 657.413,
      "confirmed_rate_per_100k": 6574.13,
      "deaths": 5,
      "deaths_rate_per_10k": 7.6266,
      "deaths_rate_per_100k": 76.266,
      "total_tested": 4293,
      "test_rate_per_10k": 6548.2,
      "test_rate_per_100k": 65482,
      "total_population": 6556,
      "latitude": 39.938000,
      "longitude": -90.715300
    },
    {
      "County": "Bureau",
      "confirmed_cases": 2706,
      "confirmed_rate_per_10k": 820.174,
      "confirmed_rate_per_100k": 8201.74,
      "deaths": 63,
      "deaths_rate_per_10k": 19.095,
      "deaths_rate_per_100k": 190.95,
      "total_tested": 25863,
      "test_rate_per_10k": 7838.94,
      "test_rate_per_100k": 78389.4,
      "total_population": 32993,
      "latitude": 41.359900,
      "longitude": -89.474200
    },
    {
      "County": "Calhoun",
      "confirmed_cases": 354,
      "confirmed_rate_per_10k": 737.193,
      "confirmed_rate_per_100k": 7371.93,
      "deaths": 1,
      "deaths_rate_per_10k": 2.08247,
      "deaths_rate_per_100k": 20.8247,
      "total_tested": 3643,
      "test_rate_per_10k": 7586.42,
      "test_rate_per_100k": 75864.2,
      "total_population": 4802,
      "latitude": 39.173300,
      "longitude": -90.658300
    },
    {
      "County": "Carroll",
      "confirmed_cases": 1284,
      "confirmed_rate_per_10k": 897.149,
      "confirmed_rate_per_100k": 8971.49,
      "deaths": 30,
      "deaths_rate_per_10k": 20.9614,
      "deaths_rate_per_100k": 209.614,
      "total_tested": 13115,
      "test_rate_per_10k": 9163.64,
      "test_rate_per_100k": 91636.4,
      "total_population": 14312,
      "latitude": 42.038600,
      "longitude": -89.962700
    },
    {
      "County": "Cass",
      "confirmed_cases": 1494,
      "confirmed_rate_per_10k": 1218.6,
      "confirmed_rate_per_100k": 12186,
      "deaths": 19,
      "deaths_rate_per_10k": 15.4976,
      "deaths_rate_per_100k": 154.976,
      "total_tested": 11734,
      "test_rate_per_10k": 9570.96,
      "test_rate_per_100k": 95709.6,
      "total_population": 12260,
      "latitude": 39.939900,
      "longitude": -90.262000
    },
    {
      "County": "Champaign",
      "confirmed_cases": 13349,
      "confirmed_rate_per_10k": 635.718,
      "confirmed_rate_per_100k": 6357.18,
      "deaths": 82,
      "deaths_rate_per_10k": 3.90508,
      "deaths_rate_per_100k": 39.0508,
      "total_tested": 1244094,
      "test_rate_per_10k": 59247.4,
      "test_rate_per_100k": 592474,
      "total_population": 209983,
      "latitude": 40.213900,
      "longitude": -88.246100
    },
    {
      "County": "Chicago",
      "confirmed_cases": 199189,
      "confirmed_rate_per_10k": 736.103,
      "confirmed_rate_per_100k": 7361.03,
      "deaths": 4041,
      "deaths_rate_per_10k": 14.9335,
      "deaths_rate_per_100k": 149.335,
      "total_tested": 2483344,
      "test_rate_per_10k": 9177.2,
      "test_rate_per_100k": 91772,
      "total_population": 2705994,
      "latitude": 41.789896,
      "longitude": -87.627734
    },
    {
      "County": "Christian",
      "confirmed_cases": 2493,
      "confirmed_rate_per_10k": 763.296,
      "confirmed_rate_per_100k": 7632.96,
      "deaths": 46,
      "deaths_rate_per_10k": 14.0841,
      "deaths_rate_per_100k": 140.841,
      "total_tested": 25361,
      "test_rate_per_10k": 7764.92,
      "test_rate_per_100k": 77649.2,
      "total_population": 32661,
      "latitude": 39.567200,
      "longitude": -89.322700
    },
    {
      "County": "Clark",
      "confirmed_cases": 1130,
      "confirmed_rate_per_10k": 724.545,
      "confirmed_rate_per_100k": 7245.45,
      "deaths": 24,
      "deaths_rate_per_10k": 15.3886,
      "deaths_rate_per_100k": 153.886,
      "total_tested": 9196,
      "test_rate_per_10k": 5896.38,
      "test_rate_per_100k": 58963.8,
      "total_population": 15596,
      "latitude": 39.382400,
      "longitude": -87.776300
    },
    {
      "County": "Clay",
      "confirmed_cases": 1170,
      "confirmed_rate_per_10k": 882.819,
      "confirmed_rate_per_100k": 8828.19,
      "deaths": 30,
      "deaths_rate_per_10k": 22.6364,
      "deaths_rate_per_100k": 226.364,
      "total_tested": 9716,
      "test_rate_per_10k": 7331.17,
      "test_rate_per_100k": 73311.7,
      "total_population": 13253,
      "latitude": 38.727900,
      "longitude": -88.556500
    },
    {
      "County": "Clinton",
      "confirmed_cases": 4322,
      "confirmed_rate_per_10k": 1148.28,
      "confirmed_rate_per_100k": 11482.8,
      "deaths": 75,
      "deaths_rate_per_10k": 19.9261,
      "deaths_rate_per_100k": 199.261,
      "total_tested": 36053,
      "test_rate_per_10k": 9578.63,
      "test_rate_per_100k": 95786.3,
      "total_population": 37639,
      "latitude": 38.568400,
      "longitude": -89.625200
    },
    {
      "County": "Coles",
      "confirmed_cases": 4167,
      "confirmed_rate_per_10k": 818.905,
      "confirmed_rate_per_100k": 8189.05,
      "deaths": 69,
      "deaths_rate_per_10k": 13.56,
      "deaths_rate_per_100k": 135.6,
      "total_tested": 45602,
      "test_rate_per_10k": 8961.78,
      "test_rate_per_100k": 89617.8,
      "total_population": 50885,
      "latitude": 39.556000,
      "longitude": -88.246100
    },
    {
      "County": "Cook",
      "confirmed_cases": 183024,
      "confirmed_rate_per_10k": 739.641,
      "confirmed_rate_per_100k": 7396.41,
      "deaths": 3595,
      "deaths_rate_per_10k": 14.5282,
      "deaths_rate_per_100k": 145.282,
      "total_tested": 2226519,
      "test_rate_per_10k": 8997.86,
      "test_rate_per_100k": 89978.6,
      "total_population": 2474499,
      "latitude": 42.050784,
      "longitude": -87.963759
    },
    {
      "County": "Crawford",
      "confirmed_cases": 1526,
      "confirmed_rate_per_10k": 811.4,
      "confirmed_rate_per_100k": 8114,
      "deaths": 19,
      "deaths_rate_per_10k": 10.1026,
      "deaths_rate_per_100k": 101.026,
      "total_tested": 18340,
      "test_rate_per_10k": 9751.69,
      "test_rate_per_100k": 97516.9,
      "total_population": 18807,
      "latitude": 39.050000,
      "longitude": -87.776300
    },
    {
      "County": "Cumberland",
      "confirmed_cases": 904,
      "confirmed_rate_per_10k": 836.417,
      "confirmed_rate_per_100k": 8364.17,
      "deaths": 12,
      "deaths_rate_per_10k": 11.1029,
      "deaths_rate_per_100k": 111.029,
      "total_tested": 7560,
      "test_rate_per_10k": 6994.82,
      "test_rate_per_100k": 69948.2,
      "total_population": 10808,
      "latitude": 39.265400,
      "longitude": -88.207200
    },
    {
      "County": "De Witt",
      "confirmed_cases": 868,
      "confirmed_rate_per_10k": 550.447,
      "confirmed_rate_per_100k": 5504.47,
      "deaths": 18,
      "deaths_rate_per_10k": 11.4148,
      "deaths_rate_per_100k": 114.148,
      "total_tested": 11628,
      "test_rate_per_10k": 7373.96,
      "test_rate_per_100k": 73739.6,
      "total_population": 15769,
      "latitude": 40.181000,
      "longitude": -88.903100
    },
    {
      "County": "DeKalb",
      "confirmed_cases": 6404,
      "confirmed_rate_per_10k": 614.924,
      "confirmed_rate_per_100k": 6149.24,
      "deaths": 72,
      "deaths_rate_per_10k": 6.91357,
      "deaths_rate_per_100k": 69.1357,
      "total_tested": 79466,
      "test_rate_per_10k": 7630.47,
      "test_rate_per_100k": 76304.7,
      "total_population": 104143,
      "latitude": 41.833000,
      "longitude": -88.710900
    },
    {
      "County": "Douglas",
      "confirmed_cases": 1779,
      "confirmed_rate_per_10k": 913.291,
      "confirmed_rate_per_100k": 9132.91,
      "deaths": 21,
      "deaths_rate_per_10k": 10.7808,
      "deaths_rate_per_100k": 107.808,
      "total_tested": 19270,
      "test_rate_per_10k": 9892.7,
      "test_rate_per_100k": 98927,
      "total_population": 19479,
      "latitude": 39.761800,
      "longitude": -88.207200
    },
    {
      "County": "DuPage",
      "confirmed_cases": 59577,
      "confirmed_rate_per_10k": 641.586,
      "confirmed_rate_per_100k": 6415.86,
      "deaths": 916,
      "deaths_rate_per_10k": 9.86443,
      "deaths_rate_per_100k": 98.6443,
      "total_tested": 756396,
      "test_rate_per_10k": 8145.65,
      "test_rate_per_100k": 81456.5,
      "total_population": 928589,
      "latitude": 41.824400,
      "longitude": -88.090100
    },
    {
      "County": "Edgar",
      "confirmed_cases": 1301,
      "confirmed_rate_per_10k": 749.424,
      "confirmed_rate_per_100k": 7494.24,
      "deaths": 25,
      "deaths_rate_per_10k": 14.4009,
      "deaths_rate_per_100k": 144.009,
      "total_tested": 9065,
      "test_rate_per_10k": 5221.77,
      "test_rate_per_100k": 52217.7,
      "total_population": 17360,
      "latitude": 39.713100,
      "longitude": -87.776300
    },
    {
      "County": "Edwards",
      "confirmed_cases": 365,
      "confirmed_rate_per_10k": 571.026,
      "confirmed_rate_per_100k": 5710.26,
      "deaths": 5,
      "deaths_rate_per_10k": 7.82228,
      "deaths_rate_per_100k": 78.2228,
      "total_tested": 2508,
      "test_rate_per_10k": 3923.65,
      "test_rate_per_100k": 39236.5,
      "total_population": 6392,
      "latitude": 38.426800,
      "longitude": -88.051000
    },
    {
      "County": "Effingham",
      "confirmed_cases": 3719,
      "confirmed_rate_per_10k": 1087.17,
      "confirmed_rate_per_100k": 10871.7,
      "deaths": 50,
      "deaths_rate_per_10k": 14.6165,
      "deaths_rate_per_100k": 146.165,
      "total_tested": 26863,
      "test_rate_per_10k": 7852.84,
      "test_rate_per_100k": 78528.4,
      "total_population": 34208,
      "latitude": 39.062200,
      "longitude": -88.556500
    },
    {
      "County": "Fayette",
      "confirmed_cases": 2571,
      "confirmed_rate_per_10k": 1200.5,
      "confirmed_rate_per_100k": 12005,
      "deaths": 46,
      "deaths_rate_per_10k": 21.4793,
      "deaths_rate_per_100k": 214.793,
      "total_tested": 17162,
      "test_rate_per_10k": 8013.63,
      "test_rate_per_100k": 80136.3,
      "total_population": 21416,
      "latitude": 39.067000,
      "longitude": -89.017900
    },
    {
      "County": "Ford",
      "confirmed_cases": 1178,
      "confirmed_rate_per_10k": 888.118,
      "confirmed_rate_per_100k": 8881.18,
      "deaths": 34,
      "deaths_rate_per_10k": 25.6333,
      "deaths_rate_per_100k": 256.333,
      "total_tested": 17241,
      "test_rate_per_10k": 12998.3,
      "test_rate_per_100k": 129983,
      "total_population": 13264,
      "latitude": 40.498900,
      "longitude": -88.207200
    },
    {
      "County": "Franklin",
      "confirmed_cases": 3175,
      "confirmed_rate_per_10k": 820.392,
      "confirmed_rate_per_100k": 8203.92,
      "deaths": 43,
      "deaths_rate_per_10k": 11.1108,
      "deaths_rate_per_100k": 111.108,
      "total_tested": 30379,
      "test_rate_per_10k": 7849.67,
      "test_rate_per_100k": 78496.7,
      "total_population": 38701,
      "latitude": 38.015700,
      "longitude": -88.903100
    },
    {
      "County": "Fulton",
      "confirmed_cases": 2245,
      "confirmed_rate_per_10k": 644.3,
      "confirmed_rate_per_100k": 6443,
      "deaths": 24,
      "deaths_rate_per_10k": 6.88784,
      "deaths_rate_per_100k": 68.8784,
      "total_tested": 36535,
      "test_rate_per_10k": 10485.3,
      "test_rate_per_100k": 104853,
      "total_population": 34844,
      "latitude": 40.553200,
      "longitude": -90.224500
    },
    {
      "County": "Gallatin",
      "confirmed_cases": 310,
      "confirmed_rate_per_10k": 612.89,
      "confirmed_rate_per_100k": 6128.9,
      "deaths": 3,
      "deaths_rate_per_10k": 5.9312,
      "deaths_rate_per_100k": 59.312,
      "total_tested": 2411,
      "test_rate_per_10k": 4766.71,
      "test_rate_per_100k": 47667.1,
      "total_population": 5058,
      "latitude": 37.710800,
      "longitude": -88.246100
    },
    {
      "County": "Greene",
      "confirmed_cases": 1090,
      "confirmed_rate_per_10k": 835.633,
      "confirmed_rate_per_100k": 8356.33,
      "deaths": 30,
      "deaths_rate_per_10k": 22.9991,
      "deaths_rate_per_100k": 229.991,
      "total_tested": 8988,
      "test_rate_per_10k": 6890.52,
      "test_rate_per_100k": 68905.2,
      "total_population": 13044,
      "latitude": 39.403000,
      "longitude": -90.374800
    },
    {
      "County": "Grundy",
      "confirmed_cases": 3727,
      "confirmed_rate_per_10k": 731.186,
      "confirmed_rate_per_100k": 7311.86,
      "deaths": 37,
      "deaths_rate_per_10k": 7.25889,
      "deaths_rate_per_100k": 72.5889,
      "total_tested": 29990,
      "test_rate_per_10k": 5883.62,
      "test_rate_per_100k": 58836.2,
      "total_population": 50972,
      "latitude": 41.350100,
      "longitude": -88.401600
    },
    {
      "County": "Hamilton",
      "confirmed_cases": 557,
      "confirmed_rate_per_10k": 682.347,
      "confirmed_rate_per_100k": 6823.47,
      "deaths": 10,
      "deaths_rate_per_10k": 12.2504,
      "deaths_rate_per_100k": 122.504,
      "total_tested": 4247,
      "test_rate_per_10k": 5202.74,
      "test_rate_per_100k": 52027.4,
      "total_population": 8163,
      "latitude": 38.054300,
      "longitude": -88.556500
    },
    {
      "County": "Hancock",
      "confirmed_cases": 1256,
      "confirmed_rate_per_10k": 703.878,
      "confirmed_rate_per_100k": 7038.78,
      "deaths": 20,
      "deaths_rate_per_10k": 11.2082,
      "deaths_rate_per_100k": 112.082,
      "total_tested": 11914,
      "test_rate_per_10k": 6676.75,
      "test_rate_per_100k": 66767.5,
      "total_population": 17844,
      "latitude": 40.384900,
      "longitude": -91.135300
    },
    {
      "County": "Hardin",
      "confirmed_cases": 205,
      "confirmed_rate_per_10k": 524.297,
      "confirmed_rate_per_100k": 5242.97,
      "deaths": 6,
      "deaths_rate_per_10k": 15.3453,
      "deaths_rate_per_100k": 153.453,
      "total_tested": 2836,
      "test_rate_per_10k": 7253.2,
      "test_rate_per_100k": 72532,
      "total_population": 3910,
      "latitude": 37.499500,
      "longitude": -88.362800
    },
    {
      "County": "Henderson",
      "confirmed_cases": 387,
      "confirmed_rate_per_10k": 576.837,
      "confirmed_rate_per_100k": 5768.37,
      "deaths": 3,
      "deaths_rate_per_10k": 4.47161,
      "deaths_rate_per_100k": 44.7161,
      "total_tested": 4274,
      "test_rate_per_10k": 6370.55,
      "test_rate_per_100k": 63705.5,
      "total_population": 6709,
      "latitude": 40.833600,
      "longitude": -90.943800
    },
    {
      "County": "Henry",
      "confirmed_cases": 3576,
      "confirmed_rate_per_10k": 728.458,
      "confirmed_rate_per_100k": 7284.58,
      "deaths": 33,
      "deaths_rate_per_10k": 6.72235,
      "deaths_rate_per_100k": 67.2235,
      "total_tested": 42367,
      "test_rate_per_10k": 8630.47,
      "test_rate_per_100k": 86304.7,
      "total_population": 49090,
      "latitude": 41.361100,
      "longitude": -90.074700
    },
    {
      "County": "Iroquois",
      "confirmed_cases": 2236,
      "confirmed_rate_per_10k": 810.028,
      "confirmed_rate_per_100k": 8100.28,
      "deaths": 44,
      "deaths_rate_per_10k": 15.9397,
      "deaths_rate_per_100k": 159.397,
      "total_tested": 28577,
      "test_rate_per_10k": 10352.5,
      "test_rate_per_100k": 103525,
      "total_population": 27604,
      "latitude": 40.774000,
      "longitude": -87.697600
    },
    {
      "County": "Jackson",
      "confirmed_cases": 3514,
      "confirmed_rate_per_10k": 611.993,
      "confirmed_rate_per_100k": 6119.93,
      "deaths": 49,
      "deaths_rate_per_10k": 8.53376,
      "deaths_rate_per_100k": 85.3376,
      "total_tested": 42862,
      "test_rate_per_10k": 7464.78,
      "test_rate_per_100k": 74647.8,
      "total_population": 57419,
      "latitude": 37.721800,
      "longitude": -89.322700
    },
    {
      "County": "Jasper",
      "confirmed_cases": 870,
      "confirmed_rate_per_10k": 905.213,
      "confirmed_rate_per_100k": 9052.13,
      "deaths": 13,
      "deaths_rate_per_10k": 13.5262,
      "deaths_rate_per_100k": 135.262,
      "total_tested": 7080,
      "test_rate_per_10k": 7366.56,
      "test_rate_per_100k": 73665.6,
      "total_population": 9611,
      "latitude": 39.055500,
      "longitude": -88.090100
    },
    {
      "County": "Jefferson",
      "confirmed_cases": 2796,
      "confirmed_rate_per_10k": 739.291,
      "confirmed_rate_per_100k": 7392.91,
      "deaths": 73,
      "deaths_rate_per_10k": 19.302,
      "deaths_rate_per_100k": 193.02,
      "total_tested": 23705,
      "test_rate_per_10k": 6267.85,
      "test_rate_per_100k": 62678.5,
      "total_population": 37820,
      "latitude": 38.226700,
      "longitude": -88.864700
    },
    {
      "County": "Jersey",
      "confirmed_cases": 1867,
      "confirmed_rate_per_10k": 854.58,
      "confirmed_rate_per_100k": 8545.8,
      "deaths": 26,
      "deaths_rate_per_10k": 11.9009,
      "deaths_rate_per_100k": 119.009,
      "total_tested": 17877,
      "test_rate_per_10k": 8182.82,
      "test_rate_per_100k": 81828.2,
      "total_population": 21847,
      "latitude": 39.070500,
      "longitude": -90.374800
    },
    {
      "County": "Jo Daviess",
      "confirmed_cases": 1362,
      "confirmed_rate_per_10k": 637.461,
      "confirmed_rate_per_100k": 6374.61,
      "deaths": 21,
      "deaths_rate_per_10k": 9.8287,
      "deaths_rate_per_100k": 98.287,
      "total_tested": 14597,
      "test_rate_per_10k": 6831.88,
      "test_rate_per_100k": 68318.8,
      "total_population": 21366,
      "latitude": 42.314900,
      "longitude": -90.224500
    },
    {
      "County": "Johnson",
      "confirmed_cases": 949,
      "confirmed_rate_per_10k": 761.882,
      "confirmed_rate_per_100k": 7618.82,
      "deaths": 9,
      "deaths_rate_per_10k": 7.22543,
      "deaths_rate_per_100k": 72.2543,
      "total_tested": 8276,
      "test_rate_per_10k": 6644.19,
      "test_rate_per_100k": 66441.9,
      "total_population": 12456,
      "latitude": 37.420400,
      "longitude": -88.903100
    },
    {
      "County": "Kane",
      "confirmed_cases": 40196,
      "confirmed_rate_per_10k": 752.43,
      "confirmed_rate_per_100k": 7524.3,
      "deaths": 542,
      "deaths_rate_per_10k": 10.1457,
      "deaths_rate_per_100k": 101.457,
      "total_tested": 394151,
      "test_rate_per_10k": 7378.12,
      "test_rate_per_100k": 73781.2,
      "total_population": 534216,
      "latitude": 41.987900,
      "longitude": -88.401600
    },
    {
      "County": "Kankakee",
      "confirmed_cases": 10447,
      "confirmed_rate_per_10k": 949.52,
      "confirmed_rate_per_100k": 9495.2,
      "deaths": 145,
      "deaths_rate_per_10k": 13.1789,
      "deaths_rate_per_100k": 131.789,
      "total_tested": 132284,
      "test_rate_per_10k": 12023.2,
      "test_rate_per_100k": 120232,
      "total_population": 110024,
      "latitude": 41.179100,
      "longitude": -87.776300
    },
    {
      "County": "Kendall",
      "confirmed_cases": 8148,
      "confirmed_rate_per_10k": 636.985,
      "confirmed_rate_per_100k": 6369.85,
      "deaths": 68,
      "deaths_rate_per_10k": 5.31603,
      "deaths_rate_per_100k": 53.1603,
      "total_tested": 78969,
      "test_rate_per_10k": 6173.55,
      "test_rate_per_100k": 61735.5,
      "total_population": 127915,
      "latitude": 41.550700,
      "longitude": -88.440400
    },
    {
      "County": "Knox",
      "confirmed_cases": 3872,
      "confirmed_rate_per_10k": 772.669,
      "confirmed_rate_per_100k": 7726.69,
      "deaths": 91,
      "deaths_rate_per_10k": 18.1593,
      "deaths_rate_per_100k": 181.593,
      "total_tested": 45181,
      "test_rate_per_10k": 9016,
      "test_rate_per_100k": 90160,
      "total_population": 50112,
      "latitude": 40.877600,
      "longitude": -90.224500
    },
    {
      "County": "Lake",
      "confirmed_cases": 46833,
      "confirmed_rate_per_10k": 668.249,
      "confirmed_rate_per_100k": 6682.49,
      "deaths": 734,
      "deaths_rate_per_10k": 10.4733,
      "deaths_rate_per_100k": 104.733,
      "total_tested": 568792,
      "test_rate_per_10k": 8115.95,
      "test_rate_per_100k": 81159.5,
      "total_population": 700832,
      "latitude": 42.368900,
      "longitude": -87.827200
    },
    {
      "County": "LaSalle",
      "confirmed_cases": 8059,
      "confirmed_rate_per_10k": 736.453,
      "confirmed_rate_per_100k": 7364.53,
      "deaths": 181,
      "deaths_rate_per_10k": 16.5403,
      "deaths_rate_per_100k": 165.403,
      "total_tested": 87203,
      "test_rate_per_10k": 7968.84,
      "test_rate_per_100k": 79688.4,
      "total_population": 109430,
      "latitude": 41.436400,
      "longitude": -88.941400
    },
    {
      "County": "Lawrence",
      "confirmed_cases": 1853,
      "confirmed_rate_per_10k": 1175.39,
      "confirmed_rate_per_100k": 11753.9,
      "deaths": 18,
      "deaths_rate_per_10k": 11.4177,
      "deaths_rate_per_100k": 114.177,
      "total_tested": 16249,
      "test_rate_per_10k": 10307,
      "test_rate_per_100k": 103070,
      "total_population": 15765,
      "latitude": 38.715800,
      "longitude": -87.776300
    },
    {
      "County": "Lee",
      "confirmed_cases": 2629,
      "confirmed_rate_per_10k": 768.197,
      "confirmed_rate_per_100k": 7681.97,
      "deaths": 29,
      "deaths_rate_per_10k": 8.47383,
      "deaths_rate_per_100k": 84.7383,
      "total_tested": 29020,
      "test_rate_per_10k": 8479.68,
      "test_rate_per_100k": 84796.8,
      "total_population": 34223,
      "latitude": 41.679000,
      "longitude": -89.322700
    },
    {
      "County": "Livingston",
      "confirmed_cases": 3030,
      "confirmed_rate_per_10k": 847.292,
      "confirmed_rate_per_100k": 8472.92,
      "deaths": 51,
      "deaths_rate_per_10k": 14.2613,
      "deaths_rate_per_100k": 142.613,
      "total_tested": 42819,
      "test_rate_per_10k": 11973.7,
      "test_rate_per_100k": 119737,
      "total_population": 35761,
      "latitude": 40.868900,
      "longitude": -88.556500
    },
    {
      "County": "Logan",
      "confirmed_cases": 2609,
      "confirmed_rate_per_10k": 901.988,
      "confirmed_rate_per_100k": 9019.88,
      "deaths": 33,
      "deaths_rate_per_10k": 11.4088,
      "deaths_rate_per_100k": 114.088,
      "total_tested": 41280,
      "test_rate_per_10k": 14271.4,
      "test_rate_per_100k": 142714,
      "total_population": 28925,
      "latitude": 40.061300,
      "longitude": -89.322700
    },
    {
      "County": "Macon",
      "confirmed_cases": 7771,
      "confirmed_rate_per_10k": 742.131,
      "confirmed_rate_per_100k": 7421.31,
      "deaths": 158,
      "deaths_rate_per_10k": 15.089,
      "deaths_rate_per_100k": 150.89,
      "total_tested": 97494,
      "test_rate_per_10k": 9310.68,
      "test_rate_per_100k": 93106.8,
      "total_population": 104712,
      "latitude": 39.894900,
      "longitude": -89.017900
    },
    {
      "County": "Macoupin",
      "confirmed_cases": 3114,
      "confirmed_rate_per_10k": 687.22,
      "confirmed_rate_per_100k": 6872.2,
      "deaths": 52,
      "deaths_rate_per_10k": 11.4757,
      "deaths_rate_per_100k": 114.757,
      "total_tested": 43235,
      "test_rate_per_10k": 9541.41,
      "test_rate_per_100k": 95414.1,
      "total_population": 45313,
      "latitude": 39.237500,
      "longitude": -89.925300
    },
    {
      "County": "Madison",
      "confirmed_cases": 20181,
      "confirmed_rate_per_10k": 763.099,
      "confirmed_rate_per_100k": 7630.99,
      "deaths": 327,
      "deaths_rate_per_10k": 12.3648,
      "deaths_rate_per_100k": 123.648,
      "total_tested": 185916,
      "test_rate_per_10k": 7030,
      "test_rate_per_100k": 70300,
      "total_population": 264461,
      "latitude": 38.904100,
      "longitude": -89.925300
    },
    {
      "County": "Marion",
      "confirmed_cases": 3430,
      "confirmed_rate_per_10k": 911.749,
      "confirmed_rate_per_100k": 9117.49,
      "deaths": 95,
      "deaths_rate_per_10k": 25.2525,
      "deaths_rate_per_100k": 252.525,
      "total_tested": 37545,
      "test_rate_per_10k": 9980.06,
      "test_rate_per_100k": 99800.6,
      "total_population": 37620,
      "latitude": 38.731300,
      "longitude": -88.864700
    },
    {
      "County": "Marshall",
      "confirmed_cases": 559,
      "confirmed_rate_per_10k": 484.654,
      "confirmed_rate_per_100k": 4846.54,
      "deaths": 8,
      "deaths_rate_per_10k": 6.93602,
      "deaths_rate_per_100k": 69.3602,
      "total_tested": 11031,
      "test_rate_per_10k": 9563.9,
      "test_rate_per_100k": 95639,
      "total_population": 11534,
      "latitude": 40.997300,
      "longitude": -89.360600
    },
    {
      "County": "Mason",
      "confirmed_cases": 967,
      "confirmed_rate_per_10k": 712.864,
      "confirmed_rate_per_100k": 7128.64,
      "deaths": 35,
      "deaths_rate_per_10k": 25.8017,
      "deaths_rate_per_100k": 258.017,
      "total_tested": 12634,
      "test_rate_per_10k": 9313.67,
      "test_rate_per_100k": 93136.7,
      "total_population": 13565,
      "latitude": 40.227100,
      "longitude": -89.925300
    },
    {
      "County": "Massac",
      "confirmed_cases": 854,
      "confirmed_rate_per_10k": 606.534,
      "confirmed_rate_per_100k": 6065.34,
      "deaths": 25,
      "deaths_rate_per_10k": 17.7557,
      "deaths_rate_per_100k": 177.557,
      "total_tested": 6955,
      "test_rate_per_10k": 4939.63,
      "test_rate_per_100k": 49396.3,
      "total_population": 14080,
      "latitude": 37.247800,
      "longitude": -88.749400
    },
    {
      "County": "McDonough",
      "confirmed_cases": 1939,
      "confirmed_rate_per_10k": 647.304,
      "confirmed_rate_per_100k": 6473.04,
      "deaths": 35,
      "deaths_rate_per_10k": 11.6842,
      "deaths_rate_per_100k": 116.842,
      "total_tested": 25765,
      "test_rate_per_10k": 8601.24,
      "test_rate_per_100k": 86012.4,
      "total_population": 29955,
      "latitude": 40.388500,
      "longitude": -90.677300
    },
    {
      "County": "McHenry",
      "confirmed_cases": 18402,
      "confirmed_rate_per_10k": 596.364,
      "confirmed_rate_per_100k": 5963.64,
      "deaths": 197,
      "deaths_rate_per_10k": 6.38429,
      "deaths_rate_per_100k": 63.8429,
      "total_tested": 188662,
      "test_rate_per_10k": 6114.07,
      "test_rate_per_100k": 61140.7,
      "total_population": 308570,
      "latitude": 42.304000,
      "longitude": -88.401600
    },
    {
      "County": "McLean",
      "confirmed_cases": 11140,
      "confirmed_rate_per_10k": 644.571,
      "confirmed_rate_per_100k": 6445.71,
      "deaths": 89,
      "deaths_rate_per_10k": 5.14963,
      "deaths_rate_per_100k": 51.4963,
      "total_tested": 181244,
      "test_rate_per_10k": 10487,
      "test_rate_per_100k": 104870,
      "total_population": 172828,
      "latitude": 40.547800,
      "longitude": -88.864700
    },
    {
      "County": "Menard",
      "confirmed_cases": 702,
      "confirmed_rate_per_10k": 571.289,
      "confirmed_rate_per_100k": 5712.89,
      "deaths": 5,
      "deaths_rate_per_10k": 4.06901,
      "deaths_rate_per_100k": 40.6901,
      "total_tested": 11568,
      "test_rate_per_10k": 9414.06,
      "test_rate_per_100k": 94140.6,
      "total_population": 12288,
      "latitude": 40.022100,
      "longitude": -89.813000
    },
    {
      "County": "Mercer",
      "confirmed_cases": 1042,
      "confirmed_rate_per_10k": 667.906,
      "confirmed_rate_per_100k": 6679.06,
      "deaths": 23,
      "deaths_rate_per_10k": 14.7426,
      "deaths_rate_per_100k": 147.426,
      "total_tested": 11485,
      "test_rate_per_10k": 7361.71,
      "test_rate_per_100k": 73617.1,
      "total_population": 15601,
      "latitude": 41.198500,
      "longitude": -90.677300
    },
    {
      "County": "Monroe",
      "confirmed_cases": 2954,
      "confirmed_rate_per_10k": 860.347,
      "confirmed_rate_per_100k": 8603.47,
      "deaths": 56,
      "deaths_rate_per_10k": 16.3099,
      "deaths_rate_per_100k": 163.099,
      "total_tested": 23986,
      "test_rate_per_10k": 6985.87,
      "test_rate_per_100k": 69858.7,
      "total_population": 34335,
      "latitude": 38.274300,
      "longitude": -90.187000
    },
    {
      "County": "Montgomery",
      "confirmed_cases": 1821,
      "confirmed_rate_per_10k": 636.691,
      "confirmed_rate_per_100k": 6366.91,
      "deaths": 21,
      "deaths_rate_per_10k": 7.3424,
      "deaths_rate_per_100k": 73.424,
      "total_tested": 31157,
      "test_rate_per_10k": 10893.7,
      "test_rate_per_100k": 108937,
      "total_population": 28601,
      "latitude": 39.236400,
      "longitude": -89.474200
    },
    {
      "County": "Morgan",
      "confirmed_cases": 2932,
      "confirmed_rate_per_10k": 862.962,
      "confirmed_rate_per_100k": 8629.62,
      "deaths": 61,
      "deaths_rate_per_10k": 17.9538,
      "deaths_rate_per_100k": 179.538,
      "total_tested": 32439,
      "test_rate_per_10k": 9547.62,
      "test_rate_per_100k": 95476.2,
      "total_population": 33976,
      "latitude": 39.734100,
      "longitude": -90.224500
    },
    {
      "County": "Moultrie",
      "confirmed_cases": 1218,
      "confirmed_rate_per_10k": 827.614,
      "confirmed_rate_per_100k": 8276.14,
      "deaths": 16,
      "deaths_rate_per_10k": 10.8718,
      "deaths_rate_per_100k": 108.718,
      "total_tested": 14154,
      "test_rate_per_10k": 9617.45,
      "test_rate_per_100k": 96174.5,
      "total_population": 14717,
      "latitude": 39.602100,
      "longitude": -88.595200
    },
    {
      "County": "Ogle",
      "confirmed_cases": 3903,
      "confirmed_rate_per_10k": 766.451,
      "confirmed_rate_per_100k": 7664.51,
      "deaths": 58,
      "deaths_rate_per_10k": 11.3897,
      "deaths_rate_per_100k": 113.897,
      "total_tested": 36958,
      "test_rate_per_10k": 7257.62,
      "test_rate_per_100k": 72576.2,
      "total_population": 50923,
      "latitude": 41.997000,
      "longitude": -89.322700
    },
    {
      "County": "Peoria",
      "confirmed_cases": 12673,
      "confirmed_rate_per_10k": 701.635,
      "confirmed_rate_per_100k": 7016.35,
      "deaths": 180,
      "deaths_rate_per_10k": 9.96562,
      "deaths_rate_per_100k": 99.6562,
      "total_tested": 188479,
      "test_rate_per_10k": 10435.1,
      "test_rate_per_100k": 104351,
      "total_population": 180621,
      "latitude": 40.715600,
      "longitude": -89.775500
    },
    {
      "County": "Perry",
      "confirmed_cases": 1937,
      "confirmed_rate_per_10k": 914.801,
      "confirmed_rate_per_100k": 9148.01,
      "deaths": 41,
      "deaths_rate_per_10k": 19.3634,
      "deaths_rate_per_100k": 193.634,
      "total_tested": 16360,
      "test_rate_per_10k": 7726.46,
      "test_rate_per_100k": 77264.6,
      "total_population": 21174,
      "latitude": 38.061200,
      "longitude": -89.322700
    },
    {
      "County": "Piatt",
      "confirmed_cases": 1003,
      "confirmed_rate_per_10k": 611.735,
      "confirmed_rate_per_100k": 6117.35,
      "deaths": 6,
      "deaths_rate_per_10k": 3.65943,
      "deaths_rate_per_100k": 36.5943,
      "total_tested": 19505,
      "test_rate_per_10k": 11896.2,
      "test_rate_per_100k": 118962,
      "total_population": 16396,
      "latitude": 40.054400,
      "longitude": -88.855650
    },
    {
      "County": "Pike",
      "confirmed_cases": 1321,
      "confirmed_rate_per_10k": 846.198,
      "confirmed_rate_per_100k": 8461.98,
      "deaths": 34,
      "deaths_rate_per_10k": 21.7795,
      "deaths_rate_per_100k": 217.795,
      "total_tested": 11192,
      "test_rate_per_10k": 7169.3,
      "test_rate_per_100k": 71693,
      "total_population": 15611,
      "latitude": 39.566200,
      "longitude": -90.829400
    },
    {
      "County": "Pope",
      "confirmed_cases": 181,
      "confirmed_rate_per_10k": 429.725,
      "confirmed_rate_per_100k": 4297.25,
      "deaths": 1,
      "deaths_rate_per_10k": 2.37417,
      "deaths_rate_per_100k": 23.7417,
      "total_tested": 1665,
      "test_rate_per_10k": 3952.99,
      "test_rate_per_100k": 39529.9,
      "total_population": 4212,
      "latitude": 37.417100,
      "longitude": -88.595200
    },
    {
      "County": "Pulaski",
      "confirmed_cases": 547,
      "confirmed_rate_per_10k": 1001.28,
      "confirmed_rate_per_100k": 10012.8,
      "deaths": 2,
      "deaths_rate_per_10k": 3.66099,
      "deaths_rate_per_100k": 36.6099,
      "total_tested": 3723,
      "test_rate_per_10k": 6814.94,
      "test_rate_per_100k": 68149.4,
      "total_population": 5463,
      "latitude": 37.251200,
      "longitude": -89.132500
    },
    {
      "County": "Putnam",
      "confirmed_cases": 309,
      "confirmed_rate_per_10k": 538.328,
      "confirmed_rate_per_100k": 5383.28,
      "deaths": 0,
      "deaths_rate_per_10k": 0,
      "deaths_rate_per_100k": 0,
      "total_tested": 3321,
      "test_rate_per_10k": 5785.71,
      "test_rate_per_100k": 57857.1,
      "total_population": 5740,
      "latitude": 41.238500,
      "longitude": -89.284700
    },
    {
      "County": "Randolph",
      "confirmed_cases": 3173,
      "confirmed_rate_per_10k": 988.289,
      "confirmed_rate_per_100k": 9882.89,
      "deaths": 33,
      "deaths_rate_per_10k": 10.2785,
      "deaths_rate_per_100k": 102.785,
      "total_tested": 30294,
      "test_rate_per_10k": 9435.62,
      "test_rate_per_100k": 94356.2,
      "total_population": 32106,
      "latitude": 38.062900,
      "longitude": -89.775500
    },
    {
      "County": "Richland",
      "confirmed_cases": 1240,
      "confirmed_rate_per_10k": 786.652,
      "confirmed_rate_per_100k": 7866.52,
      "deaths": 27,
      "deaths_rate_per_10k": 17.1287,
      "deaths_rate_per_100k": 171.287,
      "total_tested": 15148,
      "test_rate_per_10k": 9609.85,
      "test_rate_per_100k": 96098.5,
      "total_population": 15763,
      "latitude": 38.721300,
      "longitude": -88.090100
    },
    {
      "County": "Rock Island",
      "confirmed_cases": 10721,
      "confirmed_rate_per_10k": 747.228,
      "confirmed_rate_per_100k": 7472.28,
      "deaths": 201,
      "deaths_rate_per_10k": 14.0092,
      "deaths_rate_per_100k": 140.092,
      "total_tested": 116951,
      "test_rate_per_10k": 8151.2,
      "test_rate_per_100k": 81512,
      "total_population": 143477,
      "latitude": 41.509500,
      "longitude": -90.578700
    },
    {
      "County": "Saline",
      "confirmed_cases": 1668,
      "confirmed_rate_per_10k": 697.733,
      "confirmed_rate_per_100k": 6977.33,
      "deaths": 28,
      "deaths_rate_per_10k": 11.7125,
      "deaths_rate_per_100k": 117.125,
      "total_tested": 18310,
      "test_rate_per_10k": 7659.17,
      "test_rate_per_100k": 76591.7,
      "total_population": 23906,
      "latitude": 37.715000,
      "longitude": -88.556500
    },
    {
      "County": "Sangamon",
      "confirmed_cases": 12882,
      "confirmed_rate_per_10k": 659.439,
      "confirmed_rate_per_100k": 6594.39,
      "deaths": 167,
      "deaths_rate_per_10k": 8.54885,
      "deaths_rate_per_100k": 85.4885,
      "total_tested": 230170,
      "test_rate_per_10k": 11782.6,
      "test_rate_per_100k": 117826,
      "total_population": 195348,
      "latitude": 39.733700,
      "longitude": -89.625200
    },
    {
      "County": "Schuyler",
      "confirmed_cases": 527,
      "confirmed_rate_per_10k": 762.994,
      "confirmed_rate_per_100k": 7629.94,
      "deaths": 3,
      "deaths_rate_per_10k": 4.34342,
      "deaths_rate_per_100k": 43.4342,
      "total_tested": 6848,
      "test_rate_per_10k": 9914.58,
      "test_rate_per_100k": 99145.8,
      "total_population": 6907,
      "latitude": 40.184500,
      "longitude": -90.639400
    },
    {
      "County": "Scott",
      "confirmed_cases": 307,
      "confirmed_rate_per_10k": 623.224,
      "confirmed_rate_per_100k": 6232.24,
      "deaths": 1,
      "deaths_rate_per_10k": 2.03004,
      "deaths_rate_per_100k": 20.3004,
      "total_tested": 5160,
      "test_rate_per_10k": 10475,
      "test_rate_per_100k": 104750,
      "total_population": 4926,
      "latitude": 39.609500,
      "longitude": -90.488000
    },
    {
      "County": "Shelby",
      "confirmed_cases": 1743,
      "confirmed_rate_per_10k": 801.711,
      "confirmed_rate_per_100k": 8017.11,
      "deaths": 30,
      "deaths_rate_per_10k": 13.7988,
      "deaths_rate_per_100k": 137.988,
      "total_tested": 15215,
      "test_rate_per_10k": 6998.3,
      "test_rate_per_100k": 69983,
      "total_population": 21741,
      "latitude": 39.398100,
      "longitude": -88.864700
    },
    {
      "County": "St. Clair",
      "confirmed_cases": 18188,
      "confirmed_rate_per_10k": 696.701,
      "confirmed_rate_per_100k": 6967.01,
      "deaths": 307,
      "deaths_rate_per_10k": 11.7598,
      "deaths_rate_per_100k": 117.598,
      "total_tested": 190716,
      "test_rate_per_10k": 7305.48,
      "test_rate_per_100k": 73054.8,
      "total_population": 261059,
      "latitude": 38.400800,
      "longitude": -89.925300
    },
    {
      "County": "Stark",
      "confirmed_cases": 423,
      "confirmed_rate_per_10k": 779.436,
      "confirmed_rate_per_100k": 7794.36,
      "deaths": 14,
      "deaths_rate_per_10k": 25.7969,
      "deaths_rate_per_100k": 257.969,
      "total_tested": 5591,
      "test_rate_per_10k": 10302.2,
      "test_rate_per_100k": 103022,
      "total_population": 5427,
      "latitude": 41.079600,
      "longitude": -89.813000
    },
    {
      "County": "Stephenson",
      "confirmed_cases": 3140,
      "confirmed_rate_per_10k": 701.629,
      "confirmed_rate_per_100k": 7016.29,
      "deaths": 45,
      "deaths_rate_per_10k": 10.0552,
      "deaths_rate_per_100k": 100.552,
      "total_tested": 32884,
      "test_rate_per_10k": 7347.89,
      "test_rate_per_100k": 73478.9,
      "total_population": 44753,
      "latitude": 42.314500,
      "longitude": -89.625200
    },
    {
      "County": "Tazewell",
      "confirmed_cases": 9882,
      "confirmed_rate_per_10k": 746.781,
      "confirmed_rate_per_100k": 7467.81,
      "deaths": 158,
      "deaths_rate_per_10k": 11.94,
      "deaths_rate_per_100k": 119.4,
      "total_tested": 132976,
      "test_rate_per_10k": 10049,
      "test_rate_per_100k": 100490,
      "total_population": 132328,
      "latitude": 40.552200,
      "longitude": -89.474200
    },
    {
      "County": "Union",
      "confirmed_cases": 1590,
      "confirmed_rate_per_10k": 944.124,
      "confirmed_rate_per_100k": 9441.24,
      "deaths": 28,
      "deaths_rate_per_10k": 16.6261,
      "deaths_rate_per_100k": 166.261,
      "total_tested": 18816,
      "test_rate_per_10k": 11172.7,
      "test_rate_per_100k": 111727,
      "total_population": 16841,
      "latitude": 37.508700,
      "longitude": -89.284700
    },
    {
      "County": "Vermilion",
      "confirmed_cases": 6056,
      "confirmed_rate_per_10k": 788.48,
      "confirmed_rate_per_100k": 7884.8,
      "deaths": 70,
      "deaths_rate_per_10k": 9.11387,
      "deaths_rate_per_100k": 91.1387,
      "total_tested": 71791,
      "test_rate_per_10k": 9347.06,
      "test_rate_per_100k": 93470.6,
      "total_population": 76806,
      "latitude": 40.122500,
      "longitude": -87.697600
    },
    {
      "County": "Wabash",
      "confirmed_cases": 984,
      "confirmed_rate_per_10k": 852.022,
      "confirmed_rate_per_100k": 8520.22,
      "deaths": 10,
      "deaths_rate_per_10k": 8.65876,
      "deaths_rate_per_100k": 86.5876,
      "total_tested": 8243,
      "test_rate_per_10k": 7137.41,
      "test_rate_per_100k": 71374.1,
      "total_population": 11549,
      "latitude": 38.422600,
      "longitude": -87.815700
    },
    {
      "County": "Warren",
      "confirmed_cases": 1451,
      "confirmed_rate_per_10k": 851.926,
      "confirmed_rate_per_100k": 8519.26,
      "deaths": 30,
      "deaths_rate_per_10k": 17.6139,
      "deaths_rate_per_100k": 176.139,
      "total_tested": 10501,
      "test_rate_per_10k": 6165.45,
      "test_rate_per_100k": 61654.5,
      "total_population": 17032,
      "latitude": 40.875900,
      "longitude": -90.677300
    },
    {
      "County": "Washington",
      "confirmed_cases": 1142,
      "confirmed_rate_per_10k": 816.006,
      "confirmed_rate_per_100k": 8160.06,
      "deaths": 16,
      "deaths_rate_per_10k": 11.4327,
      "deaths_rate_per_100k": 114.327,
      "total_tested": 7871,
      "test_rate_per_10k": 5624.15,
      "test_rate_per_100k": 56241.5,
      "total_population": 13995,
      "latitude": 38.398900,
      "longitude": -89.322700
    },
    {
      "County": "Wayne",
      "confirmed_cases": 1288,
      "confirmed_rate_per_10k": 788.636,
      "confirmed_rate_per_100k": 7886.36,
      "deaths": 38,
      "deaths_rate_per_10k": 23.2672,
      "deaths_rate_per_100k": 232.672,
      "total_tested": 10150,
      "test_rate_per_10k": 6214.79,
      "test_rate_per_100k": 62147.9,
      "total_population": 16332,
      "latitude": 38.390000,
      "longitude": -88.401600
    },
    {
      "County": "White",
      "confirmed_cases": 1075,
      "confirmed_rate_per_10k": 786.681,
      "confirmed_rate_per_100k": 7866.81,
      "deaths": 18,
      "deaths_rate_per_10k": 13.1723,
      "deaths_rate_per_100k": 131.723,
      "total_tested": 14511,
      "test_rate_per_10k": 10619.1,
      "test_rate_per_100k": 106191,
      "total_population": 13665,
      "latitude": 38.050100,
      "longitude": -88.246100
    },
    {
      "County": "Whiteside",
      "confirmed_cases": 4679,
      "confirmed_rate_per_10k": 841.153,
      "confirmed_rate_per_100k": 8411.53,
      "deaths": 119,
      "deaths_rate_per_10k": 21.3929,
      "deaths_rate_per_100k": 213.929,
      "total_tested": 40237,
      "test_rate_per_10k": 7233.49,
      "test_rate_per_100k": 72334.9,
      "total_population": 55626,
      "latitude": 41.760600,
      "longitude": -89.850500
    },
    {
      "County": "Will",
      "confirmed_cases": 50528,
      "confirmed_rate_per_10k": 729.846,
      "confirmed_rate_per_100k": 7298.46,
      "deaths": 694,
      "deaths_rate_per_10k": 10.0244,
      "deaths_rate_per_100k": 100.244,
      "total_tested": 499540,
      "test_rate_per_10k": 7215.55,
      "test_rate_per_100k": 72155.5,
      "total_population": 692310,
      "latitude": 41.505500,
      "longitude": -88.090100
    },
    {
      "County": "Williamson",
      "confirmed_cases": 4986,
      "confirmed_rate_per_10k": 743.558,
      "confirmed_rate_per_100k": 7435.58,
      "deaths": 98,
      "deaths_rate_per_10k": 14.6147,
      "deaths_rate_per_100k": 146.147,
      "total_tested": 59684,
      "test_rate_per_10k": 8900.62,
      "test_rate_per_100k": 89006.2,
      "total_population": 67056,
      "latitude": 37.718300,
      "longitude": -88.864700
    },
    {
      "County": "Winnebago",
      "confirmed_cases": 23392,
      "confirmed_rate_per_10k": 823.427,
      "confirmed_rate_per_100k": 8234.27,
      "deaths": 324,
      "deaths_rate_per_10k": 11.4052,
      "deaths_rate_per_100k": 114.052,
      "total_tested": 237120,
      "test_rate_per_10k": 8346.92,
      "test_rate_per_100k": 83469.2,
      "total_population": 284081,
      "latitude": 42.312100,
      "longitude": -89.170600
    },
    {
      "County": "Woodford",
      "confirmed_cases": 2641,
      "confirmed_rate_per_10k": 686.634,
      "confirmed_rate_per_100k": 6866.34,
      "deaths": 41,
      "deaths_rate_per_10k": 10.6596,
      "deaths_rate_per_100k": 106.596,
      "total_tested": 37593,
      "test_rate_per_10k": 9773.81,
      "test_rate_per_100k": 97738.1,
      "total_population": 38463,
      "latitude": 40.712900,
      "longitude": -89.170600
    }
  ]
}
