{
	"lastUpdatedDate": {
		"year": 2021,
		"month": 1,
		"day": 15
	},
	"county_rates": [
		{
			"County": "Adams",
			"confirmed_cases": 7267,
			"confirmed_rate_per_10k": 1106.23981976222,
			"confirmed_rate_per_100k": 11062.3981976222,
			"deaths": 93,
			"deaths_rate_per_10k": 14.157190482715,
			"deaths_rate_per_100k": 141.57190482715,
			"total_tested": 101705,
			"test_rate_per_10k": 15482.333957467537,
			"test_rate_per_100k": 154823.33957467537,
			"total_population": 65691,
			"latitude": 40.0578,
			"longitude": -91.1353
		},
		{
			"County": "Alexander",
			"confirmed_cases": 380,
			"confirmed_rate_per_10k": 627.062706270627,
			"confirmed_rate_per_100k": 6270.62706270627,
			"deaths": 7,
			"deaths_rate_per_10k": 11.551155115512,
			"deaths_rate_per_100k": 115.51155115512,
			"total_tested": 4141,
			"test_rate_per_10k": 6833.333333333333,
			"test_rate_per_100k": 68333.33333333333,
			"total_population": 6060,
			"latitude": 37.167,
			"longitude": -89.3606
		},
		{
			"County": "Bond",
			"confirmed_cases": 1720,
			"confirmed_rate_per_10k": 1034.275405892965,
			"confirmed_rate_per_100k": 10342.75405892965,
			"deaths": 19,
			"deaths_rate_per_10k": 11.425135297655,
			"deaths_rate_per_100k": 114.25135297655,
			"total_tested": 17508,
			"test_rate_per_10k": 10527.961515333734,
			"test_rate_per_100k": 105279.61515333733,
			"total_population": 16630,
			"latitude": 38.903,
			"longitude": -89.4742
		},
		{
			"County": "Boone",
			"confirmed_cases": 5490,
			"confirmed_rate_per_10k": 1024.693431883084,
			"confirmed_rate_per_100k": 10246.93431883084,
			"deaths": 65,
			"deaths_rate_per_10k": 12.132071597887,
			"deaths_rate_per_100k": 121.32071597887,
			"total_tested": 43845,
			"test_rate_per_10k": 8183.548910913265,
			"test_rate_per_100k": 81835.48910913266,
			"total_population": 53577,
			"latitude": 42.3485,
			"longitude": -88.8263
		},
		{
			"County": "Brown",
			"confirmed_cases": 599,
			"confirmed_rate_per_10k": 913.666870042709,
			"confirmed_rate_per_100k": 9136.66870042709,
			"deaths": 5,
			"deaths_rate_per_10k": 7.626601586333,
			"deaths_rate_per_100k": 76.26601586333,
			"total_tested": 10218,
			"test_rate_per_10k": 15585.723001830384,
			"test_rate_per_100k": 155857.23001830385,
			"total_population": 6556,
			"latitude": 39.938,
			"longitude": -90.7153
		},
		{
			"County": "Bureau",
			"confirmed_cases": 2985,
			"confirmed_rate_per_10k": 904.737368532719,
			"confirmed_rate_per_100k": 9047.37368532719,
			"deaths": 71,
			"deaths_rate_per_10k": 21.519716303458,
			"deaths_rate_per_100k": 215.19716303458,
			"total_tested": 29375,
			"test_rate_per_10k": 8903.403752311096,
			"test_rate_per_100k": 89034.03752311096,
			"total_population": 32993,
			"latitude": 41.3599,
			"longitude": -89.4742
		},
		{
			"County": "Calhoun",
			"confirmed_cases": 435,
			"confirmed_rate_per_10k": 905.872553102874,
			"confirmed_rate_per_100k": 9058.72553102874,
			"deaths": 1,
			"deaths_rate_per_10k": 2.082465639317,
			"deaths_rate_per_100k": 20.82465639317,
			"total_tested": 4193,
			"test_rate_per_10k": 8731.778425655977,
			"test_rate_per_100k": 87317.78425655977,
			"total_population": 4802,
			"latitude": 39.1733,
			"longitude": -90.6583
		},
		{
			"County": "Carroll",
			"confirmed_cases": 1418,
			"confirmed_rate_per_10k": 990.776970374511,
			"confirmed_rate_per_100k": 9907.76970374511,
			"deaths": 31,
			"deaths_rate_per_10k": 21.660145332588,
			"deaths_rate_per_100k": 216.60145332588,
			"total_tested": 14727,
			"test_rate_per_10k": 10289.966461710454,
			"test_rate_per_100k": 102899.66461710453,
			"total_population": 14312,
			"latitude": 42.0386,
			"longitude": -89.9627
		},
		{
			"County": "Cass",
			"confirmed_cases": 1730,
			"confirmed_rate_per_10k": 1411.092985318108,
			"confirmed_rate_per_100k": 14110.92985318108,
			"deaths": 21,
			"deaths_rate_per_10k": 17.128874388254,
			"deaths_rate_per_100k": 171.28874388254,
			"total_tested": 13892,
			"test_rate_per_10k": 11331.15823817292,
			"test_rate_per_100k": 113311.5823817292,
			"total_population": 12260,
			"latitude": 39.9399,
			"longitude": -90.262
		},
		{
			"County": "Champaign",
			"confirmed_cases": 15239,
			"confirmed_rate_per_10k": 725.725415866999,
			"confirmed_rate_per_100k": 7257.25415866999,
			"deaths": 88,
			"deaths_rate_per_10k": 4.190815446965,
			"deaths_rate_per_100k": 41.90815446965,
			"total_tested": 1328021,
			"test_rate_per_10k": 63244.21500788159,
			"test_rate_per_100k": 632442.1500788159,
			"total_population": 209983,
			"latitude": 40.2139,
			"longitude": -88.2461
		},
		{
			"County": "Chicago",
			"confirmed_cases": 222965,
			"confirmed_rate_per_10k": 823.967089357922,
			"confirmed_rate_per_100k": 8239.67089357922,
			"deaths": 4410,
			"deaths_rate_per_10k": 16.297153652225,
			"deaths_rate_per_100k": 162.97153652225,
			"total_tested": 2773590,
			"test_rate_per_10k": 10249.800997341457,
			"test_rate_per_100k": 102498.00997341458,
			"total_population": 2705994,
			"latitude": 41.789896,
			"longitude": -87.627734
		},
		{
			"County": "Christian",
			"confirmed_cases": 2953,
			"confirmed_rate_per_10k": 904.136431830011,
			"confirmed_rate_per_100k": 9041.36431830011,
			"deaths": 56,
			"deaths_rate_per_10k": 17.145831419736,
			"deaths_rate_per_100k": 171.45831419736,
			"total_tested": 31232,
			"test_rate_per_10k": 9562.475123235663,
			"test_rate_per_100k": 95624.75123235663,
			"total_population": 32661,
			"latitude": 39.5672,
			"longitude": -89.3227
		},
		{
			"County": "Clark",
			"confirmed_cases": 1446,
			"confirmed_rate_per_10k": 927.160810464222,
			"confirmed_rate_per_100k": 9271.60810464222,
			"deaths": 26,
			"deaths_rate_per_10k": 16.670941266992,
			"deaths_rate_per_100k": 166.70941266992,
			"total_tested": 10706,
			"test_rate_per_10k": 6864.58066170813,
			"test_rate_per_100k": 68645.8066170813,
			"total_population": 15596,
			"latitude": 39.3824,
			"longitude": -87.7763
		},
		{
			"County": "Clay",
			"confirmed_cases": 1301,
			"confirmed_rate_per_10k": 981.664528785935,
			"confirmed_rate_per_100k": 9816.64528785935,
			"deaths": 33,
			"deaths_rate_per_10k": 24.900022636384,
			"deaths_rate_per_100k": 249.00022636384,
			"total_tested": 11171,
			"test_rate_per_10k": 8429.034935486305,
			"test_rate_per_100k": 84290.34935486305,
			"total_population": 13253,
			"latitude": 38.7279,
			"longitude": -88.5565
		},
		{
			"County": "Clinton",
			"confirmed_cases": 4953,
			"confirmed_rate_per_10k": 1315.922314620473,
			"confirmed_rate_per_100k": 13159.22314620473,
			"deaths": 77,
			"deaths_rate_per_10k": 20.457504184489,
			"deaths_rate_per_100k": 204.57504184489,
			"total_tested": 41855,
			"test_rate_per_10k": 11120.11477456893,
			"test_rate_per_100k": 111201.1477456893,
			"total_population": 37639,
			"latitude": 38.5684,
			"longitude": -89.6252
		},
		{
			"County": "Coles",
			"confirmed_cases": 4663,
			"confirmed_rate_per_10k": 916.38007271298,
			"confirmed_rate_per_100k": 9163.8007271298,
			"deaths": 78,
			"deaths_rate_per_10k": 15.328682322885,
			"deaths_rate_per_100k": 153.28682322885,
			"total_tested": 52379,
			"test_rate_per_10k": 10293.60322295372,
			"test_rate_per_100k": 102936.03222953719,
			"total_population": 50885,
			"latitude": 39.556,
			"longitude": -88.2461
		},
		{
			"County": "Cook",
			"confirmed_cases": 206305,
			"confirmed_rate_per_10k": 833.72432156974,
			"confirmed_rate_per_100k": 8337.2432156974,
			"deaths": 4017,
			"deaths_rate_per_10k": 16.233589102279,
			"deaths_rate_per_100k": 162.33589102279,
			"total_tested": 2509349,
			"test_rate_per_10k": 10140.836589548026,
			"test_rate_per_100k": 101408.36589548027,
			"total_population": 2474499,
			"latitude": 42.050784,
			"longitude": -87.963759
		},
		{
			"County": "Crawford",
			"confirmed_cases": 1734,
			"confirmed_rate_per_10k": 921.997128728665,
			"confirmed_rate_per_100k": 9219.97128728665,
			"deaths": 19,
			"deaths_rate_per_10k": 10.102621364386,
			"deaths_rate_per_100k": 101.02621364386,
			"total_tested": 22985,
			"test_rate_per_10k": 12221.513266337002,
			"test_rate_per_100k": 122215.13266337002,
			"total_population": 18807,
			"latitude": 39.05,
			"longitude": -87.7763
		},
		{
			"County": "Cumberland",
			"confirmed_cases": 1064,
			"confirmed_rate_per_10k": 984.455958549223,
			"confirmed_rate_per_100k": 9844.55958549223,
			"deaths": 15,
			"deaths_rate_per_10k": 13.878608438194,
			"deaths_rate_per_100k": 138.78608438194,
			"total_tested": 8594,
			"test_rate_per_10k": 7951.517394522576,
			"test_rate_per_100k": 79515.17394522576,
			"total_population": 10808,
			"latitude": 39.2654,
			"longitude": -88.2072
		},
		{
			"County": "De Witt",
			"confirmed_cases": 1120,
			"confirmed_rate_per_10k": 710.254296404338,
			"confirmed_rate_per_100k": 7102.54296404338,
			"deaths": 19,
			"deaths_rate_per_10k": 12.048956814002,
			"deaths_rate_per_100k": 120.48956814002,
			"total_tested": 13790,
			"test_rate_per_10k": 8745.006024478407,
			"test_rate_per_100k": 87450.06024478406,
			"total_population": 15769,
			"latitude": 40.181,
			"longitude": -88.9031
		},
		{
			"County": "DeKalb",
			"confirmed_cases": 7335,
			"confirmed_rate_per_10k": 704.320021508887,
			"confirmed_rate_per_100k": 7043.20021508887,
			"deaths": 87,
			"deaths_rate_per_10k": 8.353898005627,
			"deaths_rate_per_100k": 83.53898005627,
			"total_tested": 88743,
			"test_rate_per_10k": 8521.264031187886,
			"test_rate_per_100k": 85212.64031187886,
			"total_population": 104143,
			"latitude": 41.833,
			"longitude": -88.7109
		},
		{
			"County": "Douglas",
			"confirmed_cases": 1986,
			"confirmed_rate_per_10k": 1019.559525643,
			"confirmed_rate_per_100k": 10195.59525643,
			"deaths": 27,
			"deaths_rate_per_10k": 13.861081164331,
			"deaths_rate_per_100k": 138.61081164331,
			"total_tested": 21678,
			"test_rate_per_10k": 11128.908054828276,
			"test_rate_per_100k": 111289.08054828277,
			"total_population": 19479,
			"latitude": 39.7618,
			"longitude": -88.2072
		},
		{
			"County": "DuPage",
			"confirmed_cases": 68156,
			"confirmed_rate_per_10k": 733.973803264954,
			"confirmed_rate_per_100k": 7339.73803264954,
			"deaths": 1052,
			"deaths_rate_per_10k": 11.329016389382,
			"deaths_rate_per_100k": 113.29016389382,
			"total_tested": 855639,
			"test_rate_per_10k": 9214.39948136366,
			"test_rate_per_100k": 92143.9948136366,
			"total_population": 928589,
			"latitude": 41.8244,
			"longitude": -88.0901
		},
		{
			"County": "Edgar",
			"confirmed_cases": 1425,
			"confirmed_rate_per_10k": 820.852534562212,
			"confirmed_rate_per_100k": 8208.52534562212,
			"deaths": 32,
			"deaths_rate_per_10k": 18.433179723502,
			"deaths_rate_per_100k": 184.33179723502,
			"total_tested": 10306,
			"test_rate_per_10k": 5936.635944700461,
			"test_rate_per_100k": 59366.35944700461,
			"total_population": 17360,
			"latitude": 39.7131,
			"longitude": -87.7763
		},
		{
			"County": "Edwards",
			"confirmed_cases": 461,
			"confirmed_rate_per_10k": 721.214017521902,
			"confirmed_rate_per_100k": 7212.14017521902,
			"deaths": 8,
			"deaths_rate_per_10k": 12.515644555695,
			"deaths_rate_per_100k": 125.15644555695,
			"total_tested": 2985,
			"test_rate_per_10k": 4669.899874843554,
			"test_rate_per_100k": 46698.99874843554,
			"total_population": 6392,
			"latitude": 38.4268,
			"longitude": -88.051
		},
		{
			"County": "Effingham",
			"confirmed_cases": 4279,
			"confirmed_rate_per_10k": 1250.876987839102,
			"confirmed_rate_per_100k": 12508.76987839102,
			"deaths": 57,
			"deaths_rate_per_10k": 16.662768942937,
			"deaths_rate_per_100k": 166.62768942937,
			"total_tested": 31213,
			"test_rate_per_10k": 9124.47380729654,
			"test_rate_per_100k": 91244.7380729654,
			"total_population": 34208,
			"latitude": 39.0622,
			"longitude": -88.5565
		},
		{
			"County": "Fayette",
			"confirmed_cases": 2885,
			"confirmed_rate_per_10k": 1347.123645872245,
			"confirmed_rate_per_100k": 13471.23645872245,
			"deaths": 50,
			"deaths_rate_per_10k": 23.347030257751,
			"deaths_rate_per_100k": 233.47030257751,
			"total_tested": 20317,
			"test_rate_per_10k": 9486.832274934628,
			"test_rate_per_100k": 94868.32274934628,
			"total_population": 21416,
			"latitude": 39.067,
			"longitude": -89.0179
		},
		{
			"County": "Ford",
			"confirmed_cases": 1366,
			"confirmed_rate_per_10k": 1029.855247285887,
			"confirmed_rate_per_100k": 10298.55247285887,
			"deaths": 42,
			"deaths_rate_per_10k": 31.664656212304,
			"deaths_rate_per_100k": 316.64656212304,
			"total_tested": 19786,
			"test_rate_per_10k": 14917.068757539204,
			"test_rate_per_100k": 149170.68757539205,
			"total_population": 13264,
			"latitude": 40.4989,
			"longitude": -88.2072
		},
		{
			"County": "Franklin",
			"confirmed_cases": 3783,
			"confirmed_rate_per_10k": 977.494121598925,
			"confirmed_rate_per_100k": 9774.94121598925,
			"deaths": 57,
			"deaths_rate_per_10k": 14.728301594274,
			"deaths_rate_per_100k": 147.28301594274,
			"total_tested": 35245,
			"test_rate_per_10k": 9106.99981912612,
			"test_rate_per_100k": 91069.99819126121,
			"total_population": 38701,
			"latitude": 38.0157,
			"longitude": -88.9031
		},
		{
			"County": "Fulton",
			"confirmed_cases": 2530,
			"confirmed_rate_per_10k": 726.093445069452,
			"confirmed_rate_per_100k": 7260.93445069452,
			"deaths": 40,
			"deaths_rate_per_10k": 11.479738261968,
			"deaths_rate_per_100k": 114.79738261968,
			"total_tested": 49254,
			"test_rate_per_10k": 14135.575708873837,
			"test_rate_per_100k": 141355.75708873838,
			"total_population": 34844,
			"latitude": 40.5532,
			"longitude": -90.2245
		},
		{
			"County": "Gallatin",
			"confirmed_cases": 380,
			"confirmed_rate_per_10k": 751.285092922104,
			"confirmed_rate_per_100k": 7512.85092922104,
			"deaths": 3,
			"deaths_rate_per_10k": 5.931198102017,
			"deaths_rate_per_100k": 59.31198102017,
			"total_tested": 2920,
			"test_rate_per_10k": 5773.032819296164,
			"test_rate_per_100k": 57730.32819296164,
			"total_population": 5058,
			"latitude": 37.7108,
			"longitude": -88.2461
		},
		{
			"County": "Greene",
			"confirmed_cases": 1249,
			"confirmed_rate_per_10k": 957.528365532045,
			"confirmed_rate_per_100k": 9575.28365532045,
			"deaths": 30,
			"deaths_rate_per_10k": 22.999080036799,
			"deaths_rate_per_100k": 229.99080036799,
			"total_tested": 10332,
			"test_rate_per_10k": 7920.883164673413,
			"test_rate_per_100k": 79208.83164673414,
			"total_population": 13044,
			"latitude": 39.403,
			"longitude": -90.3748
		},
		{
			"County": "Grundy",
			"confirmed_cases": 4290,
			"confirmed_rate_per_10k": 841.638546653064,
			"confirmed_rate_per_100k": 8416.38546653064,
			"deaths": 50,
			"deaths_rate_per_10k": 9.809307070549,
			"deaths_rate_per_100k": 98.09307070549,
			"total_tested": 34944,
			"test_rate_per_10k": 6855.528525464961,
			"test_rate_per_100k": 68555.28525464961,
			"total_population": 50972,
			"latitude": 41.3501,
			"longitude": -88.4016
		},
		{
			"County": "Hamilton",
			"confirmed_cases": 709,
			"confirmed_rate_per_10k": 868.553227979909,
			"confirmed_rate_per_100k": 8685.53227979909,
			"deaths": 14,
			"deaths_rate_per_10k": 17.150557393115,
			"deaths_rate_per_100k": 171.50557393115,
			"total_tested": 4988,
			"test_rate_per_10k": 6110.498591204214,
			"test_rate_per_100k": 61104.98591204214,
			"total_population": 8163,
			"latitude": 38.0543,
			"longitude": -88.5565
		},
		{
			"County": "Hancock",
			"confirmed_cases": 1460,
			"confirmed_rate_per_10k": 818.202196816857,
			"confirmed_rate_per_100k": 8182.02196816857,
			"deaths": 22,
			"deaths_rate_per_10k": 12.32907419861,
			"deaths_rate_per_100k": 123.2907419861,
			"total_tested": 13487,
			"test_rate_per_10k": 7558.282896211612,
			"test_rate_per_100k": 75582.82896211612,
			"total_population": 17844,
			"latitude": 40.3849,
			"longitude": -91.1353
		},
		{
			"County": "Hardin",
			"confirmed_cases": 298,
			"confirmed_rate_per_10k": 762.148337595908,
			"confirmed_rate_per_100k": 7621.48337595908,
			"deaths": 8,
			"deaths_rate_per_10k": 20.460358056266,
			"deaths_rate_per_100k": 204.60358056266,
			"total_tested": 3642,
			"test_rate_per_10k": 9314.57800511509,
			"test_rate_per_100k": 93145.7800511509,
			"total_population": 3910,
			"latitude": 37.4995,
			"longitude": -88.3628
		},
		{
			"County": "Henderson",
			"confirmed_cases": 445,
			"confirmed_rate_per_10k": 663.288120435236,
			"confirmed_rate_per_100k": 6632.88120435236,
			"deaths": 7,
			"deaths_rate_per_10k": 10.433745714712,
			"deaths_rate_per_100k": 104.33745714712,
			"total_tested": 4975,
			"test_rate_per_10k": 7415.412132955731,
			"test_rate_per_100k": 74154.12132955731,
			"total_population": 6709,
			"latitude": 40.8336,
			"longitude": -90.9438
		},
		{
			"County": "Henry",
			"confirmed_cases": 3976,
			"confirmed_rate_per_10k": 809.940924831941,
			"confirmed_rate_per_100k": 8099.40924831941,
			"deaths": 48,
			"deaths_rate_per_10k": 9.77795885109,
			"deaths_rate_per_100k": 97.7795885109,
			"total_tested": 48170,
			"test_rate_per_10k": 9812.589122020778,
			"test_rate_per_100k": 98125.89122020778,
			"total_population": 49090,
			"latitude": 41.3611,
			"longitude": -90.0747
		},
		{
			"County": "Illinois",
			"confirmed_cases": 1059324,
			"confirmed_rate_per_10k": 831.424023709136,
			"confirmed_rate_per_100k": 8314.24023709136,
			"deaths": 18049,
			"deaths_rate_per_10k": 14.165989068431,
			"deaths_rate_per_100k": 141.65989068431,
			"total_tested": 14564776,
			"test_rate_per_10k": 11431.351188439285,
			"test_rate_per_100k": 114313.51188439285,
			"total_population": 12741080,
			"latitude": 39.839888,
			"longitude": -89.510168
		},
		{
			"County": "Iroquois",
			"confirmed_cases": 2557,
			"confirmed_rate_per_10k": 926.315026807709,
			"confirmed_rate_per_100k": 9263.15026807709,
			"deaths": 53,
			"deaths_rate_per_10k": 19.200115925228,
			"deaths_rate_per_100k": 192.00115925228,
			"total_tested": 33259,
			"test_rate_per_10k": 12048.616142588031,
			"test_rate_per_100k": 120486.16142588032,
			"total_population": 27604,
			"latitude": 40.774,
			"longitude": -87.6976
		},
		{
			"County": "Jackson",
			"confirmed_cases": 4107,
			"confirmed_rate_per_10k": 715.2684651422,
			"confirmed_rate_per_100k": 7152.684651422,
			"deaths": 57,
			"deaths_rate_per_10k": 9.927027638935,
			"deaths_rate_per_100k": 99.27027638935,
			"total_tested": 50205,
			"test_rate_per_10k": 8743.621449346036,
			"test_rate_per_100k": 87436.21449346036,
			"total_population": 57419,
			"latitude": 37.7218,
			"longitude": -89.3227
		},
		{
			"County": "Jasper",
			"confirmed_cases": 1019,
			"confirmed_rate_per_10k": 1060.243471022786,
			"confirmed_rate_per_100k": 10602.43471022786,
			"deaths": 15,
			"deaths_rate_per_10k": 15.607116845281,
			"deaths_rate_per_100k": 156.07116845281,
			"total_tested": 8309,
			"test_rate_per_10k": 8645.30225782957,
			"test_rate_per_100k": 86453.0225782957,
			"total_population": 9611,
			"latitude": 39.0555,
			"longitude": -88.0901
		},
		{
			"County": "Jefferson",
			"confirmed_cases": 3356,
			"confirmed_rate_per_10k": 887.361184558435,
			"confirmed_rate_per_100k": 8873.61184558435,
			"deaths": 101,
			"deaths_rate_per_10k": 26.705446853517,
			"deaths_rate_per_100k": 267.05446853517,
			"total_tested": 29138,
			"test_rate_per_10k": 7704.389212057113,
			"test_rate_per_100k": 77043.89212057112,
			"total_population": 37820,
			"latitude": 38.2267,
			"longitude": -88.8647
		},
		{
			"County": "Jersey",
			"confirmed_cases": 2172,
			"confirmed_rate_per_10k": 994.186844875727,
			"confirmed_rate_per_100k": 9941.86844875727,
			"deaths": 37,
			"deaths_rate_per_10k": 16.935963747883,
			"deaths_rate_per_100k": 169.35963747883,
			"total_tested": 21412,
			"test_rate_per_10k": 9800.88799377489,
			"test_rate_per_100k": 98008.87993774889,
			"total_population": 21847,
			"latitude": 39.0705,
			"longitude": -90.3748
		},
		{
			"County": "Jo Daviess",
			"confirmed_cases": 1474,
			"confirmed_rate_per_10k": 689.881119535711,
			"confirmed_rate_per_100k": 6898.81119535711,
			"deaths": 21,
			"deaths_rate_per_10k": 9.828699803426,
			"deaths_rate_per_100k": 98.28699803426,
			"total_tested": 16065,
			"test_rate_per_10k": 7518.955349620893,
			"test_rate_per_100k": 75189.55349620893,
			"total_population": 21366,
			"latitude": 42.3149,
			"longitude": -90.2245
		},
		{
			"County": "Johnson",
			"confirmed_cases": 1208,
			"confirmed_rate_per_10k": 969.813744380218,
			"confirmed_rate_per_100k": 9698.13744380218,
			"deaths": 9,
			"deaths_rate_per_10k": 7.225433526012,
			"deaths_rate_per_100k": 72.25433526012,
			"total_tested": 16581,
			"test_rate_per_10k": 13311.657032755298,
			"test_rate_per_100k": 133116.570327553,
			"total_population": 12456,
			"latitude": 37.4204,
			"longitude": -88.9031
		},
		{
			"County": "Kane",
			"confirmed_cases": 45300,
			"confirmed_rate_per_10k": 847.971606990431,
			"confirmed_rate_per_100k": 8479.71606990431,
			"deaths": 622,
			"deaths_rate_per_10k": 11.643230453599,
			"deaths_rate_per_100k": 116.43230453599,
			"total_tested": 443379,
			"test_rate_per_10k": 8299.620378273958,
			"test_rate_per_100k": 82996.20378273957,
			"total_population": 534216,
			"latitude": 41.9879,
			"longitude": -88.4016
		},
		{
			"County": "Kankakee",
			"confirmed_cases": 11358,
			"confirmed_rate_per_10k": 1032.320221042682,
			"confirmed_rate_per_100k": 10323.20221042682,
			"deaths": 168,
			"deaths_rate_per_10k": 15.269395768196,
			"deaths_rate_per_100k": 152.69395768196,
			"total_tested": 151018,
			"test_rate_per_10k": 13725.91434596088,
			"test_rate_per_100k": 137259.1434596088,
			"total_population": 110024,
			"latitude": 41.1791,
			"longitude": -87.7763
		},
		{
			"County": "Kendall",
			"confirmed_cases": 9514,
			"confirmed_rate_per_10k": 743.775163194309,
			"confirmed_rate_per_100k": 7437.75163194309,
			"deaths": 70,
			"deaths_rate_per_10k": 5.472384005003,
			"deaths_rate_per_100k": 54.72384005003,
			"total_tested": 88842,
			"test_rate_per_10k": 6945.393425321503,
			"test_rate_per_100k": 69453.93425321503,
			"total_population": 127915,
			"latitude": 41.5507,
			"longitude": -88.4404
		},
		{
			"County": "Knox",
			"confirmed_cases": 4531,
			"confirmed_rate_per_10k": 904.174648786718,
			"confirmed_rate_per_100k": 9041.74648786718,
			"deaths": 113,
			"deaths_rate_per_10k": 22.549489144317,
			"deaths_rate_per_100k": 225.49489144317,
			"total_tested": 57122,
			"test_rate_per_10k": 11398.866538952747,
			"test_rate_per_100k": 113988.66538952746,
			"total_population": 50112,
			"latitude": 40.8776,
			"longitude": -90.2245
		},
		{
			"County": "Lake",
			"confirmed_cases": 52591,
			"confirmed_rate_per_10k": 750.408086388749,
			"confirmed_rate_per_100k": 7504.08086388749,
			"deaths": 812,
			"deaths_rate_per_10k": 11.586228939318,
			"deaths_rate_per_100k": 115.86228939318,
			"total_tested": 642183,
			"test_rate_per_10k": 9163.151796721611,
			"test_rate_per_100k": 91631.5179672161,
			"total_population": 700832,
			"latitude": 42.3689,
			"longitude": -87.8272
		},
		{
			"County": "LaSalle",
			"confirmed_cases": 9271,
			"confirmed_rate_per_10k": 847.20826098876,
			"confirmed_rate_per_100k": 8472.0826098876,
			"deaths": 196,
			"deaths_rate_per_10k": 17.910993329069,
			"deaths_rate_per_100k": 179.10993329069,
			"total_tested": 105901,
			"test_rate_per_10k": 9677.510737457736,
			"test_rate_per_100k": 96775.10737457736,
			"total_population": 109430,
			"latitude": 41.4364,
			"longitude": -88.9414
		},
		{
			"County": "Lawrence",
			"confirmed_cases": 2151,
			"confirmed_rate_per_10k": 1364.41484300666,
			"confirmed_rate_per_100k": 13644.1484300666,
			"deaths": 21,
			"deaths_rate_per_10k": 13.320647002854,
			"deaths_rate_per_100k": 133.20647002854,
			"total_tested": 21038,
			"test_rate_per_10k": 13344.751030764352,
			"test_rate_per_100k": 133447.5103076435,
			"total_population": 15765,
			"latitude": 38.7158,
			"longitude": -87.7763
		},
		{
			"County": "Lee",
			"confirmed_cases": 3003,
			"confirmed_rate_per_10k": 877.480057271426,
			"confirmed_rate_per_100k": 8774.80057271426,
			"deaths": 35,
			"deaths_rate_per_10k": 10.227040294539,
			"deaths_rate_per_100k": 102.27040294539,
			"total_tested": 38257,
			"test_rate_per_10k": 11178.73944423341,
			"test_rate_per_100k": 111787.3944423341,
			"total_population": 34223,
			"latitude": 41.679,
			"longitude": -89.3227
		},
		{
			"County": "Livingston",
			"confirmed_cases": 3579,
			"confirmed_rate_per_10k": 1000.810939291407,
			"confirmed_rate_per_100k": 10008.10939291407,
			"deaths": 58,
			"deaths_rate_per_10k": 16.218785828137,
			"deaths_rate_per_100k": 162.18785828137,
			"total_tested": 54639,
			"test_rate_per_10k": 15278.935152820111,
			"test_rate_per_100k": 152789.3515282011,
			"total_population": 35761,
			"latitude": 40.8689,
			"longitude": -88.5565
		},
		{
			"County": "Logan",
			"confirmed_cases": 3042,
			"confirmed_rate_per_10k": 1051.685393258427,
			"confirmed_rate_per_100k": 10516.85393258427,
			"deaths": 43,
			"deaths_rate_per_10k": 14.866032843561,
			"deaths_rate_per_100k": 148.66032843561,
			"total_tested": 50872,
			"test_rate_per_10k": 17587.554019014693,
			"test_rate_per_100k": 175875.54019014692,
			"total_population": 28925,
			"latitude": 40.0613,
			"longitude": -89.3227
		},
		{
			"County": "Macon",
			"confirmed_cases": 8701,
			"confirmed_rate_per_10k": 830.945832378333,
			"confirmed_rate_per_100k": 8309.45832378333,
			"deaths": 167,
			"deaths_rate_per_10k": 15.948506379403,
			"deaths_rate_per_100k": 159.48506379403,
			"total_tested": 110816,
			"test_rate_per_10k": 10582.932233172893,
			"test_rate_per_100k": 105829.32233172892,
			"total_population": 104712,
			"latitude": 39.8949,
			"longitude": -89.0179
		},
		{
			"County": "Macoupin",
			"confirmed_cases": 3772,
			"confirmed_rate_per_10k": 832.432193851654,
			"confirmed_rate_per_100k": 8324.32193851654,
			"deaths": 68,
			"deaths_rate_per_10k": 15.00673096021,
			"deaths_rate_per_100k": 150.0673096021,
			"total_tested": 49547,
			"test_rate_per_10k": 10934.38968949308,
			"test_rate_per_100k": 109343.8968949308,
			"total_population": 45313,
			"latitude": 39.2375,
			"longitude": -89.9253
		},
		{
			"County": "Madison",
			"confirmed_cases": 23853,
			"confirmed_rate_per_10k": 901.947735204813,
			"confirmed_rate_per_100k": 9019.47735204813,
			"deaths": 395,
			"deaths_rate_per_10k": 14.936039718522,
			"deaths_rate_per_100k": 149.36039718522,
			"total_tested": 213707,
			"test_rate_per_10k": 8080.851240825679,
			"test_rate_per_100k": 80808.51240825679,
			"total_population": 264461,
			"latitude": 38.9041,
			"longitude": -89.9253
		},
		{
			"County": "Marion",
			"confirmed_cases": 3923,
			"confirmed_rate_per_10k": 1042.796384901648,
			"confirmed_rate_per_100k": 10427.96384901648,
			"deaths": 105,
			"deaths_rate_per_10k": 27.910685805423,
			"deaths_rate_per_100k": 279.10685805423,
			"total_tested": 45244,
			"test_rate_per_10k": 12026.581605528974,
			"test_rate_per_100k": 120265.81605528975,
			"total_population": 37620,
			"latitude": 38.7313,
			"longitude": -88.8647
		},
		{
			"County": "Marshall",
			"confirmed_cases": 652,
			"confirmed_rate_per_10k": 565.285243627536,
			"confirmed_rate_per_100k": 5652.85243627536,
			"deaths": 12,
			"deaths_rate_per_10k": 10.40402288885,
			"deaths_rate_per_100k": 104.0402288885,
			"total_tested": 12794,
			"test_rate_per_10k": 11092.422403329287,
			"test_rate_per_100k": 110924.22403329286,
			"total_population": 11534,
			"latitude": 40.9973,
			"longitude": -89.3606
		},
		{
			"County": "Mason",
			"confirmed_cases": 1155,
			"confirmed_rate_per_10k": 851.455952819757,
			"confirmed_rate_per_100k": 8514.55952819757,
			"deaths": 39,
			"deaths_rate_per_10k": 28.750460744563,
			"deaths_rate_per_100k": 287.50460744563,
			"total_tested": 14645,
			"test_rate_per_10k": 10796.166605234059,
			"test_rate_per_100k": 107961.66605234057,
			"total_population": 13565,
			"latitude": 40.2271,
			"longitude": -89.9253
		},
		{
			"County": "Massac",
			"confirmed_cases": 1004,
			"confirmed_rate_per_10k": 713.068181818182,
			"confirmed_rate_per_100k": 7130.68181818182,
			"deaths": 28,
			"deaths_rate_per_10k": 19.886363636364,
			"deaths_rate_per_100k": 198.86363636364,
			"total_tested": 8062,
			"test_rate_per_10k": 5725.852272727273,
			"test_rate_per_100k": 57258.52272727273,
			"total_population": 14080,
			"latitude": 37.2478,
			"longitude": -88.7494
		},
		{
			"County": "McDonough",
			"confirmed_cases": 2114,
			"confirmed_rate_per_10k": 705.725254548489,
			"confirmed_rate_per_100k": 7057.25254548489,
			"deaths": 38,
			"deaths_rate_per_10k": 12.685695209481,
			"deaths_rate_per_100k": 126.85695209481,
			"total_tested": 29965,
			"test_rate_per_10k": 10003.3383408446,
			"test_rate_per_100k": 100033.383408446,
			"total_population": 29955,
			"latitude": 40.3885,
			"longitude": -90.6773
		},
		{
			"County": "McHenry",
			"confirmed_cases": 21268,
			"confirmed_rate_per_10k": 689.243931684869,
			"confirmed_rate_per_100k": 6892.43931684869,
			"deaths": 226,
			"deaths_rate_per_10k": 7.324107981981,
			"deaths_rate_per_100k": 73.24107981981,
			"total_tested": 215200,
			"test_rate_per_10k": 6974.106361603526,
			"test_rate_per_100k": 69741.06361603526,
			"total_population": 308570,
			"latitude": 42.304,
			"longitude": -88.4016
		},
		{
			"County": "McLean",
			"confirmed_cases": 13013,
			"confirmed_rate_per_10k": 752.945124632583,
			"confirmed_rate_per_100k": 7529.45124632583,
			"deaths": 128,
			"deaths_rate_per_10k": 7.406207327516,
			"deaths_rate_per_100k": 74.06207327516,
			"total_tested": 203513,
			"test_rate_per_10k": 11775.464623787811,
			"test_rate_per_100k": 117754.64623787811,
			"total_population": 172828,
			"latitude": 40.5478,
			"longitude": -88.8647
		},
		{
			"County": "Menard",
			"confirmed_cases": 853,
			"confirmed_rate_per_10k": 694.173177083333,
			"confirmed_rate_per_100k": 6941.73177083333,
			"deaths": 6,
			"deaths_rate_per_10k": 4.8828125,
			"deaths_rate_per_100k": 48.828125,
			"total_tested": 13100,
			"test_rate_per_10k": 10660.807291666668,
			"test_rate_per_100k": 106608.07291666667,
			"total_population": 12288,
			"latitude": 40.0221,
			"longitude": -89.813
		},
		{
			"County": "Mercer",
			"confirmed_cases": 1161,
			"confirmed_rate_per_10k": 744.183065188129,
			"confirmed_rate_per_100k": 7441.83065188129,
			"deaths": 28,
			"deaths_rate_per_10k": 17.947567463624,
			"deaths_rate_per_100k": 179.47567463624,
			"total_tested": 12795,
			"test_rate_per_10k": 8201.397346323954,
			"test_rate_per_100k": 82013.97346323954,
			"total_population": 15601,
			"latitude": 41.1985,
			"longitude": -90.6773
		},
		{
			"County": "Monroe",
			"confirmed_cases": 3517,
			"confirmed_rate_per_10k": 1024.319207805446,
			"confirmed_rate_per_100k": 10243.19207805446,
			"deaths": 68,
			"deaths_rate_per_10k": 19.804863841561,
			"deaths_rate_per_100k": 198.04863841561,
			"total_tested": 28629,
			"test_rate_per_10k": 8338.138925294888,
			"test_rate_per_100k": 83381.3892529489,
			"total_population": 34335,
			"latitude": 38.2743,
			"longitude": -90.187
		},
		{
			"County": "Montgomery",
			"confirmed_cases": 2970,
			"confirmed_rate_per_10k": 1038.425229887067,
			"confirmed_rate_per_100k": 10384.25229887067,
			"deaths": 35,
			"deaths_rate_per_10k": 12.237334358938,
			"deaths_rate_per_100k": 122.37334358938,
			"total_tested": 40429,
			"test_rate_per_10k": 14135.51973707213,
			"test_rate_per_100k": 141355.1973707213,
			"total_population": 28601,
			"latitude": 39.2364,
			"longitude": -89.4742
		},
		{
			"County": "Morgan",
			"confirmed_cases": 3229,
			"confirmed_rate_per_10k": 950.376736519896,
			"confirmed_rate_per_100k": 9503.76736519896,
			"deaths": 71,
			"deaths_rate_per_10k": 20.897103838003,
			"deaths_rate_per_100k": 208.97103838003,
			"total_tested": 38212,
			"test_rate_per_10k": 11246.76242053214,
			"test_rate_per_100k": 112467.6242053214,
			"total_population": 33976,
			"latitude": 39.7341,
			"longitude": -90.2245
		},
		{
			"County": "Moultrie",
			"confirmed_cases": 1352,
			"confirmed_rate_per_10k": 918.665488890399,
			"confirmed_rate_per_100k": 9186.65488890399,
			"deaths": 20,
			"deaths_rate_per_10k": 13.589726167018,
			"deaths_rate_per_100k": 135.89726167018,
			"total_tested": 16178,
			"test_rate_per_10k": 10992.729496500646,
			"test_rate_per_100k": 109927.29496500645,
			"total_population": 14717,
			"latitude": 39.6021,
			"longitude": -88.5952
		},
		{
			"County": "Ogle",
			"confirmed_cases": 4554,
			"confirmed_rate_per_10k": 894.291381104805,
			"confirmed_rate_per_100k": 8942.91381104805,
			"deaths": 63,
			"deaths_rate_per_10k": 12.371619896707,
			"deaths_rate_per_100k": 123.71619896707,
			"total_tested": 41765,
			"test_rate_per_10k": 8201.598491840621,
			"test_rate_per_100k": 82015.98491840622,
			"total_population": 50923,
			"latitude": 41.997,
			"longitude": -89.3227
		},
		{
			"County": "Peoria",
			"confirmed_cases": 14775,
			"confirmed_rate_per_10k": 818.011194711578,
			"confirmed_rate_per_100k": 8180.11194711578,
			"deaths": 222,
			"deaths_rate_per_10k": 12.290929626123,
			"deaths_rate_per_100k": 122.90929626123,
			"total_tested": 210539,
			"test_rate_per_10k": 11656.39654303763,
			"test_rate_per_100k": 116563.96543037631,
			"total_population": 180621,
			"latitude": 40.7156,
			"longitude": -89.7755
		},
		{
			"County": "Perry",
			"confirmed_cases": 2613,
			"confirmed_rate_per_10k": 1234.060640408048,
			"confirmed_rate_per_100k": 12340.60640408048,
			"deaths": 52,
			"deaths_rate_per_10k": 24.558420704638,
			"deaths_rate_per_100k": 245.58420704638,
			"total_tested": 23826,
			"test_rate_per_10k": 11252.479455936525,
			"test_rate_per_100k": 112524.79455936525,
			"total_population": 21174,
			"latitude": 38.0612,
			"longitude": -89.3227
		},
		{
			"County": "Piatt",
			"confirmed_cases": 1159,
			"confirmed_rate_per_10k": 706.879726762625,
			"confirmed_rate_per_100k": 7068.79726762625,
			"deaths": 11,
			"deaths_rate_per_10k": 6.708953403269,
			"deaths_rate_per_100k": 67.08953403269,
			"total_tested": 21916,
			"test_rate_per_10k": 13366.674798731397,
			"test_rate_per_100k": 133666.74798731398,
			"total_population": 16396,
			"latitude": 40.02861312,
			"longitude": -88.57328
		},
		{
			"County": "Pike",
			"confirmed_cases": 1529,
			"confirmed_rate_per_10k": 979.437576068157,
			"confirmed_rate_per_100k": 9794.37576068157,
			"deaths": 42,
			"deaths_rate_per_10k": 26.904106079047,
			"deaths_rate_per_100k": 269.04106079047,
			"total_tested": 12781,
			"test_rate_per_10k": 8187.175709435654,
			"test_rate_per_100k": 81871.75709435654,
			"total_population": 15611,
			"latitude": 39.5662,
			"longitude": -90.8294
		},
		{
			"County": "Pope",
			"confirmed_cases": 240,
			"confirmed_rate_per_10k": 569.80056980057,
			"confirmed_rate_per_100k": 5698.0056980057,
			"deaths": 2,
			"deaths_rate_per_10k": 4.748338081671,
			"deaths_rate_per_100k": 47.48338081671,
			"total_tested": 2019,
			"test_rate_per_10k": 4793.447293447293,
			"test_rate_per_100k": 47934.47293447293,
			"total_population": 4212,
			"latitude": 37.4171,
			"longitude": -88.5952
		},
		{
			"County": "Pulaski",
			"confirmed_cases": 605,
			"confirmed_rate_per_10k": 1107.450118982244,
			"confirmed_rate_per_100k": 11074.50118982244,
			"deaths": 3,
			"deaths_rate_per_10k": 5.4914881933,
			"deaths_rate_per_100k": 54.914881933,
			"total_tested": 4256,
			"test_rate_per_10k": 7790.591250228812,
			"test_rate_per_100k": 77905.91250228812,
			"total_population": 5463,
			"latitude": 37.2512,
			"longitude": -89.1325
		},
		{
			"County": "Putnam",
			"confirmed_cases": 345,
			"confirmed_rate_per_10k": 601.045296167247,
			"confirmed_rate_per_100k": 6010.45296167247,
			"deaths": 1,
			"deaths_rate_per_10k": 1.742160278746,
			"deaths_rate_per_100k": 17.42160278746,
			"total_tested": 3905,
			"test_rate_per_10k": 6803.135888501742,
			"test_rate_per_100k": 68031.35888501741,
			"total_population": 5740,
			"latitude": 41.2385,
			"longitude": -89.2847
		},
		{
			"County": "Randolph",
			"confirmed_cases": 3665,
			"confirmed_rate_per_10k": 1141.531177972965,
			"confirmed_rate_per_100k": 11415.31177972965,
			"deaths": 61,
			"deaths_rate_per_10k": 18.999563944434,
			"deaths_rate_per_100k": 189.99563944434,
			"total_tested": 35357,
			"test_rate_per_10k": 11012.58331775992,
			"test_rate_per_100k": 110125.8331775992,
			"total_population": 32106,
			"latitude": 38.0629,
			"longitude": -89.7755
		},
		{
			"County": "Richland",
			"confirmed_cases": 1510,
			"confirmed_rate_per_10k": 957.939478525661,
			"confirmed_rate_per_100k": 9579.39478525661,
			"deaths": 35,
			"deaths_rate_per_10k": 22.203895197615,
			"deaths_rate_per_100k": 222.03895197615,
			"total_tested": 17763,
			"test_rate_per_10k": 11268.794011292268,
			"test_rate_per_100k": 112687.94011292268,
			"total_population": 15763,
			"latitude": 38.7213,
			"longitude": -88.0901
		},
		{
			"County": "Rock Island",
			"confirmed_cases": 11752,
			"confirmed_rate_per_10k": 819.085985907149,
			"confirmed_rate_per_100k": 8190.85985907149,
			"deaths": 259,
			"deaths_rate_per_10k": 18.051673787436,
			"deaths_rate_per_100k": 180.51673787436,
			"total_tested": 131766,
			"test_rate_per_10k": 9183.771614962678,
			"test_rate_per_100k": 91837.71614962677,
			"total_population": 143477,
			"latitude": 41.5095,
			"longitude": -90.5787
		},
		{
			"County": "Saline",
			"confirmed_cases": 1998,
			"confirmed_rate_per_10k": 835.773445996821,
			"confirmed_rate_per_100k": 8357.73445996821,
			"deaths": 38,
			"deaths_rate_per_10k": 15.895591065005,
			"deaths_rate_per_100k": 158.95591065005,
			"total_tested": 21741,
			"test_rate_per_10k": 9094.369614322764,
			"test_rate_per_100k": 90943.69614322764,
			"total_population": 23906,
			"latitude": 37.715,
			"longitude": -88.5565
		},
		{
			"County": "Sangamon",
			"confirmed_cases": 14299,
			"confirmed_rate_per_10k": 731.975756086574,
			"confirmed_rate_per_100k": 7319.75756086574,
			"deaths": 199,
			"deaths_rate_per_10k": 10.186948420255,
			"deaths_rate_per_100k": 101.86948420255,
			"total_tested": 254112,
			"test_rate_per_10k": 13008.170035014437,
			"test_rate_per_100k": 130081.70035014435,
			"total_population": 195348,
			"latitude": 39.7337,
			"longitude": -89.6252
		},
		{
			"County": "Schuyler",
			"confirmed_cases": 612,
			"confirmed_rate_per_10k": 886.057622701607,
			"confirmed_rate_per_100k": 8860.57622701607,
			"deaths": 4,
			"deaths_rate_per_10k": 5.791226292167,
			"deaths_rate_per_100k": 57.91226292167,
			"total_tested": 8147,
			"test_rate_per_10k": 11795.280150571883,
			"test_rate_per_100k": 117952.80150571885,
			"total_population": 6907,
			"latitude": 40.1845,
			"longitude": -90.6394
		},
		{
			"County": "Scott",
			"confirmed_cases": 367,
			"confirmed_rate_per_10k": 745.026390580593,
			"confirmed_rate_per_100k": 7450.26390580593,
			"deaths": 1,
			"deaths_rate_per_10k": 2.030044660983,
			"deaths_rate_per_100k": 20.30044660983,
			"total_tested": 5913,
			"test_rate_per_10k": 12003.65408038977,
			"test_rate_per_100k": 120036.54080389769,
			"total_population": 4926,
			"latitude": 39.6095,
			"longitude": -90.488
		},
		{
			"County": "Shelby",
			"confirmed_cases": 1950,
			"confirmed_rate_per_10k": 896.922864633642,
			"confirmed_rate_per_100k": 8969.22864633642,
			"deaths": 32,
			"deaths_rate_per_10k": 14.71873418886,
			"deaths_rate_per_100k": 147.1873418886,
			"total_tested": 17229,
			"test_rate_per_10k": 7924.658479370774,
			"test_rate_per_100k": 79246.58479370773,
			"total_population": 21741,
			"latitude": 39.3981,
			"longitude": -88.8647
		},
		{
			"County": "St. Clair",
			"confirmed_cases": 21836,
			"confirmed_rate_per_10k": 836.439272348396,
			"confirmed_rate_per_100k": 8364.39272348396,
			"deaths": 378,
			"deaths_rate_per_10k": 14.479485480294,
			"deaths_rate_per_100k": 144.79485480294,
			"total_tested": 224928,
			"test_rate_per_10k": 8615.983360083354,
			"test_rate_per_100k": 86159.83360083353,
			"total_population": 261059,
			"latitude": 38.4008,
			"longitude": -89.9253
		},
		{
			"County": "Stark",
			"confirmed_cases": 492,
			"confirmed_rate_per_10k": 906.578220011056,
			"confirmed_rate_per_100k": 9065.78220011056,
			"deaths": 20,
			"deaths_rate_per_10k": 36.852773171181,
			"deaths_rate_per_100k": 368.52773171181,
			"total_tested": 6336,
			"test_rate_per_10k": 11674.958540630181,
			"test_rate_per_100k": 116749.58540630182,
			"total_population": 5427,
			"latitude": 41.0796,
			"longitude": -89.813
		},
		{
			"County": "Stephenson",
			"confirmed_cases": 3488,
			"confirmed_rate_per_10k": 779.389091234107,
			"confirmed_rate_per_100k": 7793.89091234107,
			"deaths": 54,
			"deaths_rate_per_10k": 12.066230196858,
			"deaths_rate_per_100k": 120.66230196858,
			"total_tested": 37782,
			"test_rate_per_10k": 8442.339061068533,
			"test_rate_per_100k": 84423.39061068532,
			"total_population": 44753,
			"latitude": 42.3145,
			"longitude": -89.6252
		},
		{
			"County": "Tazewell",
			"confirmed_cases": 11765,
			"confirmed_rate_per_10k": 889.078653043951,
			"confirmed_rate_per_100k": 8890.78653043951,
			"deaths": 211,
			"deaths_rate_per_10k": 15.945227011668,
			"deaths_rate_per_100k": 159.45227011668,
			"total_tested": 149767,
			"test_rate_per_10k": 11317.861677044919,
			"test_rate_per_100k": 113178.6167704492,
			"total_population": 132328,
			"latitude": 40.5522,
			"longitude": -89.4742
		},
		{
			"County": "Union",
			"confirmed_cases": 1957,
			"confirmed_rate_per_10k": 1162.045009203729,
			"confirmed_rate_per_100k": 11620.45009203729,
			"deaths": 30,
			"deaths_rate_per_10k": 17.81366902203,
			"deaths_rate_per_100k": 178.1366902203,
			"total_tested": 22771,
			"test_rate_per_10k": 13521.168576687845,
			"test_rate_per_100k": 135211.68576687845,
			"total_population": 16841,
			"latitude": 37.5087,
			"longitude": -89.2847
		},
		{
			"County": "Vermilion",
			"confirmed_cases": 7325,
			"confirmed_rate_per_10k": 953.701533734344,
			"confirmed_rate_per_100k": 9537.01533734344,
			"deaths": 93,
			"deaths_rate_per_10k": 12.108429028982,
			"deaths_rate_per_100k": 121.08429028982,
			"total_tested": 85589,
			"test_rate_per_10k": 11143.530453349998,
			"test_rate_per_100k": 111435.30453349999,
			"total_population": 76806,
			"latitude": 40.1225,
			"longitude": -87.6976
		},
		{
			"County": "Wabash",
			"confirmed_cases": 1162,
			"confirmed_rate_per_10k": 1006.147718417179,
			"confirmed_rate_per_100k": 10061.47718417179,
			"deaths": 11,
			"deaths_rate_per_10k": 9.52463416746,
			"deaths_rate_per_100k": 95.2463416746,
			"total_tested": 9885,
			"test_rate_per_10k": 8559.182613213265,
			"test_rate_per_100k": 85591.82613213266,
			"total_population": 11549,
			"latitude": 38.4226,
			"longitude": -87.8157
		},
		{
			"County": "Warren",
			"confirmed_cases": 1575,
			"confirmed_rate_per_10k": 924.729920150305,
			"confirmed_rate_per_100k": 9247.29920150305,
			"deaths": 40,
			"deaths_rate_per_10k": 23.485204321278,
			"deaths_rate_per_100k": 234.85204321278,
			"total_tested": 11760,
			"test_rate_per_10k": 6904.650070455613,
			"test_rate_per_100k": 69046.50070455614,
			"total_population": 17032,
			"latitude": 40.8759,
			"longitude": -90.6773
		},
		{
			"County": "Washington",
			"confirmed_cases": 1432,
			"confirmed_rate_per_10k": 1023.222579492676,
			"confirmed_rate_per_100k": 10232.22579492676,
			"deaths": 19,
			"deaths_rate_per_10k": 13.576277241872,
			"deaths_rate_per_100k": 135.76277241872,
			"total_tested": 9152,
			"test_rate_per_10k": 6539.478385137549,
			"test_rate_per_100k": 65394.78385137549,
			"total_population": 13995,
			"latitude": 38.3989,
			"longitude": -89.3227
		},
		{
			"County": "Wayne",
			"confirmed_cases": 1487,
			"confirmed_rate_per_10k": 910.482488366397,
			"confirmed_rate_per_100k": 9104.82488366397,
			"deaths": 42,
			"deaths_rate_per_10k": 25.716385011021,
			"deaths_rate_per_100k": 257.16385011021,
			"total_tested": 11607,
			"test_rate_per_10k": 7106.906686260103,
			"test_rate_per_100k": 71069.06686260103,
			"total_population": 16332,
			"latitude": 38.39,
			"longitude": -88.4016
		},
		{
			"County": "White",
			"confirmed_cases": 1314,
			"confirmed_rate_per_10k": 961.580680570801,
			"confirmed_rate_per_100k": 9615.80680570801,
			"deaths": 22,
			"deaths_rate_per_10k": 16.099524332236,
			"deaths_rate_per_100k": 160.99524332236,
			"total_tested": 17071,
			"test_rate_per_10k": 12492.4990852543,
			"test_rate_per_100k": 124924.990852543,
			"total_population": 13665,
			"latitude": 38.0501,
			"longitude": -88.2461
		},
		{
			"County": "Whiteside",
			"confirmed_cases": 5201,
			"confirmed_rate_per_10k": 934.99442706648,
			"confirmed_rate_per_100k": 9349.9442706648,
			"deaths": 134,
			"deaths_rate_per_10k": 24.089454571603,
			"deaths_rate_per_100k": 240.89454571603,
			"total_tested": 45654,
			"test_rate_per_10k": 8207.313126955021,
			"test_rate_per_100k": 82073.13126955021,
			"total_population": 55626,
			"latitude": 41.7606,
			"longitude": -89.8505
		},
		{
			"County": "Will",
			"confirmed_cases": 57429,
			"confirmed_rate_per_10k": 829.527234909217,
			"confirmed_rate_per_100k": 8295.27234909217,
			"deaths": 792,
			"deaths_rate_per_10k": 11.439961866794,
			"deaths_rate_per_100k": 114.39961866794,
			"total_tested": 568451,
			"test_rate_per_10k": 8210.931519117157,
			"test_rate_per_100k": 82109.31519117158,
			"total_population": 692310,
			"latitude": 41.5055,
			"longitude": -88.0901
		},
		{
			"County": "Williamson",
			"confirmed_cases": 6102,
			"confirmed_rate_per_10k": 909.985683607731,
			"confirmed_rate_per_100k": 9099.85683607731,
			"deaths": 105,
			"deaths_rate_per_10k": 15.658554044381,
			"deaths_rate_per_100k": 156.58554044381,
			"total_tested": 70173,
			"test_rate_per_10k": 10464.835361488906,
			"test_rate_per_100k": 104648.35361488906,
			"total_population": 67056,
			"latitude": 37.7183,
			"longitude": -88.8647
		},
		{
			"County": "Winnebago",
			"confirmed_cases": 25971,
			"confirmed_rate_per_10k": 914.211087682738,
			"confirmed_rate_per_100k": 9142.11087682738,
			"deaths": 370,
			"deaths_rate_per_10k": 13.024454292966,
			"deaths_rate_per_100k": 130.24454292966,
			"total_tested": 265759,
			"test_rate_per_10k": 9355.043103903465,
			"test_rate_per_100k": 93550.43103903464,
			"total_population": 284081,
			"latitude": 42.3121,
			"longitude": -89.1706
		},
		{
			"County": "Woodford",
			"confirmed_cases": 3125,
			"confirmed_rate_per_10k": 812.469126173205,
			"confirmed_rate_per_100k": 8124.69126173205,
			"deaths": 53,
			"deaths_rate_per_10k": 13.779476379898,
			"deaths_rate_per_100k": 137.79476379898,
			"total_tested": 44087,
			"test_rate_per_10k": 11462.184436991394,
			"test_rate_per_100k": 114621.84436991395,
			"total_population": 38463,
			"latitude": 40.7129,
			"longitude": -89.1706
		}
	]
}