{
  "LastUpdateDate": {
    "year": 2020,
    "month": 10,
    "day": 30
  },
  "county_rates": [
    {
      "County": "Adams",
      "confirmed_cases": 2136,
      "confirmed_rate_per_10k": 325.159,
      "confirmed_rate_per_100k": 3251.59,
      "deaths": 24,
      "deaths_rate_per_10k": 3.65347,
      "deaths_rate_per_100k": 36.5347,
      "total_tested": 40599,
      "test_rate_per_10k": 6180.3,
      "test_rate_per_100k": 61803,
      "total_population": 65691,
      "latitude": 40.057800,
      "longitude": -91.135300
    },
    {
      "County": "Alexander",
      "confirmed_cases": 147,
      "confirmed_rate_per_10k": 242.574,
      "confirmed_rate_per_100k": 2425.74,
      "deaths": 1,
      "deaths_rate_per_10k": 1.65017,
      "deaths_rate_per_100k": 16.5017,
      "total_tested": 2486,
      "test_rate_per_10k": 4102.31,
      "test_rate_per_100k": 41023.1,
      "total_population": 6060,
      "latitude": 37.167000,
      "longitude": -89.360600
    },
    {
      "County": "Bond",
      "confirmed_cases": 532,
      "confirmed_rate_per_10k": 319.904,
      "confirmed_rate_per_100k": 3199.04,
      "deaths": 9,
      "deaths_rate_per_10k": 5.41191,
      "deaths_rate_per_100k": 54.1191,
      "total_tested": 8045,
      "test_rate_per_10k": 4837.64,
      "test_rate_per_100k": 48376.4,
      "total_population": 16630,
      "latitude": 38.903000,
      "longitude": -89.474200
    },
    {
      "County": "Boone",
      "confirmed_cases": 2038,
      "confirmed_rate_per_10k": 380.387,
      "confirmed_rate_per_100k": 3803.87,
      "deaths": 25,
      "deaths_rate_per_10k": 4.66618,
      "deaths_rate_per_100k": 46.6618,
      "total_tested": 22857,
      "test_rate_per_10k": 4266.2,
      "test_rate_per_100k": 42662,
      "total_population": 53577,
      "latitude": 42.348500,
      "longitude": -88.826300
    },
    {
      "County": "Brown",
      "confirmed_cases": 121,
      "confirmed_rate_per_10k": 184.564,
      "confirmed_rate_per_100k": 1845.64,
      "deaths": 0,
      "deaths_rate_per_10k": 0,
      "deaths_rate_per_100k": 0,
      "total_tested": 2310,
      "test_rate_per_10k": 3523.49,
      "test_rate_per_100k": 35234.9,
      "total_population": 6556,
      "latitude": 39.938000,
      "longitude": -90.715300
    },
    {
      "County": "Bureau",
      "confirmed_cases": 986,
      "confirmed_rate_per_10k": 298.851,
      "confirmed_rate_per_100k": 2988.51,
      "deaths": 17,
      "deaths_rate_per_10k": 5.15261,
      "deaths_rate_per_100k": 51.5261,
      "total_tested": 13534,
      "test_rate_per_10k": 4102.08,
      "test_rate_per_100k": 41020.8,
      "total_population": 32993,
      "latitude": 41.359900,
      "longitude": -89.474200
    },
    {
      "County": "Calhoun",
      "confirmed_cases": 70,
      "confirmed_rate_per_10k": 145.773,
      "confirmed_rate_per_100k": 1457.73,
      "deaths": 0,
      "deaths_rate_per_10k": 0,
      "deaths_rate_per_100k": 0,
      "total_tested": 1735,
      "test_rate_per_10k": 3613.08,
      "test_rate_per_100k": 36130.8,
      "total_population": 4802,
      "latitude": 39.173300,
      "longitude": -90.658300
    },
    {
      "County": "Carroll",
      "confirmed_cases": 490,
      "confirmed_rate_per_10k": 342.37,
      "confirmed_rate_per_100k": 3423.7,
      "deaths": 13,
      "deaths_rate_per_10k": 9.08329,
      "deaths_rate_per_100k": 90.8329,
      "total_tested": 7459,
      "test_rate_per_10k": 5211.71,
      "test_rate_per_100k": 52117.1,
      "total_population": 14312,
      "latitude": 42.038600,
      "longitude": -89.962700
    },
    {
      "County": "Cass",
      "confirmed_cases": 474,
      "confirmed_rate_per_10k": 386.623,
      "confirmed_rate_per_100k": 3866.23,
      "deaths": 11,
      "deaths_rate_per_10k": 8.97227,
      "deaths_rate_per_100k": 89.7227,
      "total_tested": 5837,
      "test_rate_per_10k": 4761.01,
      "test_rate_per_100k": 47610.1,
      "total_population": 12260,
      "latitude": 39.939900,
      "longitude": -90.262000
    },
    {
      "County": "Champaign",
      "confirmed_cases": 6585,
      "confirmed_rate_per_10k": 313.597,
      "confirmed_rate_per_100k": 3135.97,
      "deaths": 28,
      "deaths_rate_per_10k": 1.33344,
      "deaths_rate_per_100k": 13.3344,
      "total_tested": 802137,
      "test_rate_per_10k": 38200.1,
      "test_rate_per_100k": 382001,
      "total_population": 209983,
      "latitude": 40.213900,
      "longitude": -88.246100
    },
    {
      "County": "Chicago",
      "confirmed_cases": 100952,
      "confirmed_rate_per_10k": 373.068,
      "confirmed_rate_per_100k": 3730.68,
      "deaths": 3068,
      "deaths_rate_per_10k": 11.3378,
      "deaths_rate_per_100k": 113.378,
      "total_tested": 1525227,
      "test_rate_per_10k": 5636.48,
      "test_rate_per_100k": 56364.8,
      "total_population": 2705994,
      "latitude": 41.789896,
      "longitude": -87.627734
    },
    {
      "County": "Christian",
      "confirmed_cases": 888,
      "confirmed_rate_per_10k": 271.884,
      "confirmed_rate_per_100k": 2718.84,
      "deaths": 31,
      "deaths_rate_per_10k": 9.49144,
      "deaths_rate_per_100k": 94.9144,
      "total_tested": 14844,
      "test_rate_per_10k": 4544.87,
      "test_rate_per_100k": 45448.7,
      "total_population": 32661,
      "latitude": 39.567200,
      "longitude": -89.322700
    },
    {
      "County": "Clark",
      "confirmed_cases": 328,
      "confirmed_rate_per_10k": 210.31,
      "confirmed_rate_per_100k": 2103.1,
      "deaths": 18,
      "deaths_rate_per_10k": 11.5414,
      "deaths_rate_per_100k": 115.414,
      "total_tested": 5700,
      "test_rate_per_10k": 3654.78,
      "test_rate_per_100k": 36547.8,
      "total_population": 15596,
      "latitude": 39.382400,
      "longitude": -87.776300
    },
    {
      "County": "Clay",
      "confirmed_cases": 335,
      "confirmed_rate_per_10k": 252.773,
      "confirmed_rate_per_100k": 2527.73,
      "deaths": 14,
      "deaths_rate_per_10k": 10.5636,
      "deaths_rate_per_100k": 105.636,
      "total_tested": 4677,
      "test_rate_per_10k": 3529.01,
      "test_rate_per_100k": 35290.1,
      "total_population": 13253,
      "latitude": 38.727900,
      "longitude": -88.556500
    },
    {
      "County": "Clinton",
      "confirmed_cases": 1877,
      "confirmed_rate_per_10k": 498.685,
      "confirmed_rate_per_100k": 4986.85,
      "deaths": 31,
      "deaths_rate_per_10k": 8.23614,
      "deaths_rate_per_100k": 82.3614,
      "total_tested": 18448,
      "test_rate_per_10k": 4901.3,
      "test_rate_per_100k": 49013,
      "total_population": 37639,
      "latitude": 38.568400,
      "longitude": -89.625200
    },
    {
      "County": "Coles",
      "confirmed_cases": 2111,
      "confirmed_rate_per_10k": 414.857,
      "confirmed_rate_per_100k": 4148.57,
      "deaths": 40,
      "deaths_rate_per_10k": 7.86086,
      "deaths_rate_per_100k": 78.6086,
      "total_tested": 28423,
      "test_rate_per_10k": 5585.73,
      "test_rate_per_100k": 55857.3,
      "total_population": 50885,
      "latitude": 39.556000,
      "longitude": -88.246100
    },
    {
      "County": "Cook",
      "confirmed_cases": 85453,
      "confirmed_rate_per_10k": 345.335,
      "confirmed_rate_per_100k": 3453.35,
      "deaths": 2401,
      "deaths_rate_per_10k": 9.70297,
      "deaths_rate_per_100k": 97.0297,
      "total_tested": 1330314,
      "test_rate_per_10k": 5376.09,
      "test_rate_per_100k": 53760.9,
      "total_population": 2474499,
      "latitude": 42.050784,
      "longitude": -87.963759
    },
    {
      "County": "Crawford",
      "confirmed_cases": 676,
      "confirmed_rate_per_10k": 359.441,
      "confirmed_rate_per_100k": 3594.41,
      "deaths": 6,
      "deaths_rate_per_10k": 3.1903,
      "deaths_rate_per_100k": 31.903,
      "total_tested": 6159,
      "test_rate_per_10k": 3274.84,
      "test_rate_per_100k": 32748.4,
      "total_population": 18807,
      "latitude": 39.050000,
      "longitude": -87.776300
    },
    {
      "County": "Cumberland",
      "confirmed_cases": 313,
      "confirmed_rate_per_10k": 289.6,
      "confirmed_rate_per_100k": 2896,
      "deaths": 6,
      "deaths_rate_per_10k": 5.55144,
      "deaths_rate_per_100k": 55.5144,
      "total_tested": 4741,
      "test_rate_per_10k": 4386.57,
      "test_rate_per_100k": 43865.7,
      "total_population": 10808,
      "latitude": 39.265400,
      "longitude": -88.207200
    },
    {
      "County": "De Witt",
      "confirmed_cases": 282,
      "confirmed_rate_per_10k": 178.832,
      "confirmed_rate_per_100k": 1788.32,
      "deaths": 6,
      "deaths_rate_per_10k": 3.80493,
      "deaths_rate_per_100k": 38.0493,
      "total_tested": 6248,
      "test_rate_per_10k": 3962.2,
      "test_rate_per_100k": 39622,
      "total_population": 15769,
      "latitude": 40.181000,
      "longitude": -88.903100
    },
    {
      "County": "DeKalb",
      "confirmed_cases": 2605,
      "confirmed_rate_per_10k": 250.137,
      "confirmed_rate_per_100k": 2501.37,
      "deaths": 43,
      "deaths_rate_per_10k": 4.12894,
      "deaths_rate_per_100k": 41.2894,
      "total_tested": 47001,
      "test_rate_per_10k": 4513.12,
      "test_rate_per_100k": 45131.2,
      "total_population": 104143,
      "latitude": 41.833000,
      "longitude": -88.710900
    },
    {
      "County": "Douglas",
      "confirmed_cases": 787,
      "confirmed_rate_per_10k": 404.025,
      "confirmed_rate_per_100k": 4040.25,
      "deaths": 9,
      "deaths_rate_per_10k": 4.62036,
      "deaths_rate_per_100k": 46.2036,
      "total_tested": 11675,
      "test_rate_per_10k": 5993.63,
      "test_rate_per_100k": 59936.3,
      "total_population": 19479,
      "latitude": 39.761800,
      "longitude": -88.207200
    },
    {
      "County": "DuPage",
      "confirmed_cases": 24696,
      "confirmed_rate_per_10k": 265.952,
      "confirmed_rate_per_100k": 2659.52,
      "deaths": 619,
      "deaths_rate_per_10k": 6.66603,
      "deaths_rate_per_100k": 66.6603,
      "total_tested": 438190,
      "test_rate_per_10k": 4718.88,
      "test_rate_per_100k": 47188.8,
      "total_population": 928589,
      "latitude": 41.824400,
      "longitude": -88.090100
    },
    {
      "County": "Edgar",
      "confirmed_cases": 167,
      "confirmed_rate_per_10k": 96.1982,
      "confirmed_rate_per_100k": 961.982,
      "deaths": 11,
      "deaths_rate_per_10k": 6.33641,
      "deaths_rate_per_100k": 63.3641,
      "total_tested": 4852,
      "test_rate_per_10k": 2794.93,
      "test_rate_per_100k": 27949.3,
      "total_population": 17360,
      "latitude": 39.713100,
      "longitude": -87.776300
    },
    {
      "County": "Edwards",
      "confirmed_cases": 114,
      "confirmed_rate_per_10k": 178.348,
      "confirmed_rate_per_100k": 1783.48,
      "deaths": 0,
      "deaths_rate_per_10k": 0,
      "deaths_rate_per_100k": 0,
      "total_tested": 1170,
      "test_rate_per_10k": 1830.41,
      "test_rate_per_100k": 18304.1,
      "total_population": 6392,
      "latitude": 38.426800,
      "longitude": -88.051000
    },
    {
      "County": "Effingham",
      "confirmed_cases": 1285,
      "confirmed_rate_per_10k": 375.643,
      "confirmed_rate_per_100k": 3756.43,
      "deaths": 4,
      "deaths_rate_per_10k": 1.16932,
      "deaths_rate_per_100k": 11.6932,
      "total_tested": 15342,
      "test_rate_per_10k": 4484.92,
      "test_rate_per_100k": 44849.2,
      "total_population": 34208,
      "latitude": 39.062200,
      "longitude": -88.556500
    },
    {
      "County": "Fayette",
      "confirmed_cases": 720,
      "confirmed_rate_per_10k": 336.197,
      "confirmed_rate_per_100k": 3361.97,
      "deaths": 24,
      "deaths_rate_per_10k": 11.2066,
      "deaths_rate_per_100k": 112.066,
      "total_tested": 8462,
      "test_rate_per_10k": 3951.25,
      "test_rate_per_100k": 39512.5,
      "total_population": 21416,
      "latitude": 39.067000,
      "longitude": -89.017900
    },
    {
      "County": "Ford",
      "confirmed_cases": 217,
      "confirmed_rate_per_10k": 163.601,
      "confirmed_rate_per_100k": 1636.01,
      "deaths": 16,
      "deaths_rate_per_10k": 12.0627,
      "deaths_rate_per_100k": 120.627,
      "total_tested": 7695,
      "test_rate_per_10k": 5801.42,
      "test_rate_per_100k": 58014.2,
      "total_population": 13264,
      "latitude": 40.498900,
      "longitude": -88.207200
    },
    {
      "County": "Franklin",
      "confirmed_cases": 1081,
      "confirmed_rate_per_10k": 279.321,
      "confirmed_rate_per_100k": 2793.21,
      "deaths": 10,
      "deaths_rate_per_10k": 2.58391,
      "deaths_rate_per_100k": 25.8391,
      "total_tested": 16809,
      "test_rate_per_10k": 4343.3,
      "test_rate_per_100k": 43433,
      "total_population": 38701,
      "latitude": 38.015700,
      "longitude": -88.903100
    },
    {
      "County": "Fulton",
      "confirmed_cases": 622,
      "confirmed_rate_per_10k": 178.51,
      "confirmed_rate_per_100k": 1785.1,
      "deaths": 2,
      "deaths_rate_per_10k": 0.573987,
      "deaths_rate_per_100k": 5.73987,
      "total_tested": 16419,
      "test_rate_per_10k": 4712.15,
      "test_rate_per_100k": 47121.5,
      "total_population": 34844,
      "latitude": 40.553200,
      "longitude": -90.224500
    },
    {
      "County": "Gallatin",
      "confirmed_cases": 113,
      "confirmed_rate_per_10k": 223.408,
      "confirmed_rate_per_100k": 2234.08,
      "deaths": 2,
      "deaths_rate_per_10k": 3.95413,
      "deaths_rate_per_100k": 39.5413,
      "total_tested": 1155,
      "test_rate_per_10k": 2283.51,
      "test_rate_per_100k": 22835.1,
      "total_population": 5058,
      "latitude": 37.710800,
      "longitude": -88.246100
    },
    {
      "County": "Greene",
      "confirmed_cases": 329,
      "confirmed_rate_per_10k": 252.223,
      "confirmed_rate_per_100k": 2522.23,
      "deaths": 17,
      "deaths_rate_per_10k": 13.0328,
      "deaths_rate_per_100k": 130.328,
      "total_tested": 5072,
      "test_rate_per_10k": 3888.38,
      "test_rate_per_100k": 38883.8,
      "total_population": 13044,
      "latitude": 39.403000,
      "longitude": -90.374800
    },
    {
      "County": "Grundy",
      "confirmed_cases": 1086,
      "confirmed_rate_per_10k": 213.058,
      "confirmed_rate_per_100k": 2130.58,
      "deaths": 7,
      "deaths_rate_per_10k": 1.3733,
      "deaths_rate_per_100k": 13.733,
      "total_tested": 14979,
      "test_rate_per_10k": 2938.67,
      "test_rate_per_100k": 29386.7,
      "total_population": 50972,
      "latitude": 41.350100,
      "longitude": -88.401600
    },
    {
      "County": "Hamilton",
      "confirmed_cases": 143,
      "confirmed_rate_per_10k": 175.181,
      "confirmed_rate_per_100k": 1751.81,
      "deaths": 2,
      "deaths_rate_per_10k": 2.45008,
      "deaths_rate_per_100k": 24.5008,
      "total_tested": 2140,
      "test_rate_per_10k": 2621.59,
      "test_rate_per_100k": 26215.9,
      "total_population": 8163,
      "latitude": 38.054300,
      "longitude": -88.556500
    },
    {
      "County": "Hancock",
      "confirmed_cases": 345,
      "confirmed_rate_per_10k": 193.342,
      "confirmed_rate_per_100k": 1933.42,
      "deaths": 4,
      "deaths_rate_per_10k": 2.24165,
      "deaths_rate_per_100k": 22.4165,
      "total_tested": 7204,
      "test_rate_per_10k": 4037.21,
      "test_rate_per_100k": 40372.1,
      "total_population": 17844,
      "latitude": 40.384900,
      "longitude": -91.135300
    },
    {
      "County": "Hardin",
      "confirmed_cases": 58,
      "confirmed_rate_per_10k": 148.338,
      "confirmed_rate_per_100k": 1483.38,
      "deaths": 0,
      "deaths_rate_per_10k": 0,
      "deaths_rate_per_100k": 0,
      "total_tested": 1422,
      "test_rate_per_10k": 3636.83,
      "test_rate_per_100k": 36368.3,
      "total_population": 3910,
      "latitude": 37.499500,
      "longitude": -88.362800
    },
    {
      "County": "Henderson",
      "confirmed_cases": 136,
      "confirmed_rate_per_10k": 202.713,
      "confirmed_rate_per_100k": 2027.13,
      "deaths": 0,
      "deaths_rate_per_10k": 0,
      "deaths_rate_per_100k": 0,
      "total_tested": 2078,
      "test_rate_per_10k": 3097.33,
      "test_rate_per_100k": 30973.3,
      "total_population": 6709,
      "latitude": 40.833600,
      "longitude": -90.943800
    },
    {
      "County": "Henry",
      "confirmed_cases": 879,
      "confirmed_rate_per_10k": 179.059,
      "confirmed_rate_per_100k": 1790.59,
      "deaths": 7,
      "deaths_rate_per_10k": 1.42595,
      "deaths_rate_per_100k": 14.2595,
      "total_tested": 21856,
      "test_rate_per_10k": 4452.23,
      "test_rate_per_100k": 44522.3,
      "total_population": 49090,
      "latitude": 41.361100,
      "longitude": -90.074700
    },
    {
      "County": "Iroquois",
      "confirmed_cases": 539,
      "confirmed_rate_per_10k": 195.262,
      "confirmed_rate_per_100k": 1952.62,
      "deaths": 19,
      "deaths_rate_per_10k": 6.88306,
      "deaths_rate_per_100k": 68.8306,
      "total_tested": 14616,
      "test_rate_per_10k": 5294.88,
      "test_rate_per_100k": 52948.8,
      "total_population": 27604,
      "latitude": 40.774000,
      "longitude": -87.697600
    },
    {
      "County": "Jackson",
      "confirmed_cases": 1637,
      "confirmed_rate_per_10k": 285.097,
      "confirmed_rate_per_100k": 2850.97,
      "deaths": 26,
      "deaths_rate_per_10k": 4.52812,
      "deaths_rate_per_100k": 45.2812,
      "total_tested": 23832,
      "test_rate_per_10k": 4150.54,
      "test_rate_per_100k": 41505.4,
      "total_population": 57419,
      "latitude": 37.721800,
      "longitude": -89.322700
    },
    {
      "County": "Jasper",
      "confirmed_cases": 280,
      "confirmed_rate_per_10k": 291.333,
      "confirmed_rate_per_100k": 2913.33,
      "deaths": 10,
      "deaths_rate_per_10k": 10.4047,
      "deaths_rate_per_100k": 104.047,
      "total_tested": 3544,
      "test_rate_per_10k": 3687.44,
      "test_rate_per_100k": 36874.4,
      "total_population": 9611,
      "latitude": 39.055500,
      "longitude": -88.090100
    },
    {
      "County": "Jefferson",
      "confirmed_cases": 973,
      "confirmed_rate_per_10k": 257.271,
      "confirmed_rate_per_100k": 2572.71,
      "deaths": 52,
      "deaths_rate_per_10k": 13.7493,
      "deaths_rate_per_100k": 137.493,
      "total_tested": 13629,
      "test_rate_per_10k": 3603.65,
      "test_rate_per_100k": 36036.5,
      "total_population": 37820,
      "latitude": 38.226700,
      "longitude": -88.864700
    },
    {
      "County": "Jersey",
      "confirmed_cases": 485,
      "confirmed_rate_per_10k": 221.998,
      "confirmed_rate_per_100k": 2219.98,
      "deaths": 21,
      "deaths_rate_per_10k": 9.6123,
      "deaths_rate_per_100k": 96.123,
      "total_tested": 8443,
      "test_rate_per_10k": 3864.6,
      "test_rate_per_100k": 38646,
      "total_population": 21847,
      "latitude": 39.070500,
      "longitude": -90.374800
    },
    {
      "County": "Jo Daviess",
      "confirmed_cases": 556,
      "confirmed_rate_per_10k": 260.227,
      "confirmed_rate_per_100k": 2602.27,
      "deaths": 9,
      "deaths_rate_per_10k": 4.2123,
      "deaths_rate_per_100k": 42.123,
      "total_tested": 7864,
      "test_rate_per_10k": 3680.61,
      "test_rate_per_100k": 36806.1,
      "total_population": 21366,
      "latitude": 42.314900,
      "longitude": -90.224500
    },
    {
      "County": "Johnson",
      "confirmed_cases": 392,
      "confirmed_rate_per_10k": 314.708,
      "confirmed_rate_per_100k": 3147.08,
      "deaths": 0,
      "deaths_rate_per_10k": 0,
      "deaths_rate_per_100k": 0,
      "total_tested": 4133,
      "test_rate_per_10k": 3318.08,
      "test_rate_per_100k": 33180.8,
      "total_population": 12456,
      "latitude": 37.420400,
      "longitude": -88.903100
    },
    {
      "County": "Kane",
      "confirmed_cases": 18030,
      "confirmed_rate_per_10k": 337.504,
      "confirmed_rate_per_100k": 3375.04,
      "deaths": 351,
      "deaths_rate_per_10k": 6.57038,
      "deaths_rate_per_100k": 65.7038,
      "total_tested": 234084,
      "test_rate_per_10k": 4381.82,
      "test_rate_per_100k": 43818.2,
      "total_population": 534216,
      "latitude": 41.987900,
      "longitude": -88.401600
    },
    {
      "County": "Kankakee",
      "confirmed_cases": 3682,
      "confirmed_rate_per_10k": 334.654,
      "confirmed_rate_per_100k": 3346.54,
      "deaths": 81,
      "deaths_rate_per_10k": 7.36203,
      "deaths_rate_per_100k": 73.6203,
      "total_tested": 68744,
      "test_rate_per_10k": 6248.09,
      "test_rate_per_100k": 62480.9,
      "total_population": 110024,
      "latitude": 41.179100,
      "longitude": -87.776300
    },
    {
      "County": "Kendall",
      "confirmed_cases": 2938,
      "confirmed_rate_per_10k": 229.684,
      "confirmed_rate_per_100k": 2296.84,
      "deaths": 30,
      "deaths_rate_per_10k": 2.34531,
      "deaths_rate_per_100k": 23.4531,
      "total_tested": 45703,
      "test_rate_per_10k": 3572.92,
      "test_rate_per_100k": 35729.2,
      "total_population": 127915,
      "latitude": 41.550700,
      "longitude": -88.440400
    },
    {
      "County": "Knox",
      "confirmed_cases": 1418,
      "confirmed_rate_per_10k": 282.966,
      "confirmed_rate_per_100k": 2829.66,
      "deaths": 21,
      "deaths_rate_per_10k": 4.19061,
      "deaths_rate_per_100k": 41.9061,
      "total_tested": 25207,
      "test_rate_per_10k": 5030.13,
      "test_rate_per_100k": 50301.3,
      "total_population": 50112,
      "latitude": 40.877600,
      "longitude": -90.224500
    },
    {
      "County": "Lake",
      "confirmed_cases": 21819,
      "confirmed_rate_per_10k": 311.33,
      "confirmed_rate_per_100k": 3113.3,
      "deaths": 518,
      "deaths_rate_per_10k": 7.39122,
      "deaths_rate_per_100k": 73.9122,
      "total_tested": 334004,
      "test_rate_per_10k": 4765.82,
      "test_rate_per_100k": 47658.2,
      "total_population": 700832,
      "latitude": 42.368900,
      "longitude": -87.827200
    },
    {
      "County": "LaSalle",
      "confirmed_cases": 2652,
      "confirmed_rate_per_10k": 242.347,
      "confirmed_rate_per_100k": 2423.47,
      "deaths": 68,
      "deaths_rate_per_10k": 6.21402,
      "deaths_rate_per_100k": 62.1402,
      "total_tested": 41280,
      "test_rate_per_10k": 3772.27,
      "test_rate_per_100k": 37722.7,
      "total_population": 109430,
      "latitude": 41.436400,
      "longitude": -88.941400
    },
    {
      "County": "Lawrence",
      "confirmed_cases": 362,
      "confirmed_rate_per_10k": 229.623,
      "confirmed_rate_per_100k": 2296.23,
      "deaths": 8,
      "deaths_rate_per_10k": 5.07453,
      "deaths_rate_per_100k": 50.7453,
      "total_tested": 6973,
      "test_rate_per_10k": 4423.09,
      "test_rate_per_100k": 44230.9,
      "total_population": 15765,
      "latitude": 38.715800,
      "longitude": -87.776300
    },
    {
      "County": "Lee",
      "confirmed_cases": 840,
      "confirmed_rate_per_10k": 245.449,
      "confirmed_rate_per_100k": 2454.49,
      "deaths": 2,
      "deaths_rate_per_10k": 0.584402,
      "deaths_rate_per_100k": 5.84402,
      "total_tested": 11396,
      "test_rate_per_10k": 3329.92,
      "test_rate_per_100k": 33299.2,
      "total_population": 34223,
      "latitude": 41.679000,
      "longitude": -89.322700
    },
    {
      "County": "Livingston",
      "confirmed_cases": 730,
      "confirmed_rate_per_10k": 204.133,
      "confirmed_rate_per_100k": 2041.33,
      "deaths": 12,
      "deaths_rate_per_10k": 3.35561,
      "deaths_rate_per_100k": 33.5561,
      "total_tested": 18649,
      "test_rate_per_10k": 5214.9,
      "test_rate_per_100k": 52149,
      "total_population": 35761,
      "latitude": 40.868900,
      "longitude": -88.556500
    },
    {
      "County": "Logan",
      "confirmed_cases": 645,
      "confirmed_rate_per_10k": 222.99,
      "confirmed_rate_per_100k": 2229.9,
      "deaths": 4,
      "deaths_rate_per_10k": 1.38289,
      "deaths_rate_per_100k": 13.8289,
      "total_tested": 18923,
      "test_rate_per_10k": 6542.09,
      "test_rate_per_100k": 65420.9,
      "total_population": 28925,
      "latitude": 40.061300,
      "longitude": -89.322700
    },
    {
      "County": "Macon",
      "confirmed_cases": 3555,
      "confirmed_rate_per_10k": 339.503,
      "confirmed_rate_per_100k": 3395.03,
      "deaths": 56,
      "deaths_rate_per_10k": 5.348,
      "deaths_rate_per_100k": 53.48,
      "total_tested": 56138,
      "test_rate_per_10k": 5361.18,
      "test_rate_per_100k": 53611.8,
      "total_population": 104712,
      "latitude": 39.894900,
      "longitude": -89.017900
    },
    {
      "County": "Macoupin",
      "confirmed_cases": 854,
      "confirmed_rate_per_10k": 188.467,
      "confirmed_rate_per_100k": 1884.67,
      "deaths": 11,
      "deaths_rate_per_10k": 2.42756,
      "deaths_rate_per_100k": 24.2756,
      "total_tested": 23141,
      "test_rate_per_10k": 5106.92,
      "test_rate_per_100k": 51069.2,
      "total_population": 45313,
      "latitude": 39.237500,
      "longitude": -89.925300
    },
    {
      "County": "Madison",
      "confirmed_cases": 7554,
      "confirmed_rate_per_10k": 285.638,
      "confirmed_rate_per_100k": 2856.38,
      "deaths": 158,
      "deaths_rate_per_10k": 5.97442,
      "deaths_rate_per_100k": 59.7442,
      "total_tested": 101874,
      "test_rate_per_10k": 3852.14,
      "test_rate_per_100k": 38521.4,
      "total_population": 264461,
      "latitude": 38.904100,
      "longitude": -89.925300
    },
    {
      "County": "Marion",
      "confirmed_cases": 1170,
      "confirmed_rate_per_10k": 311.005,
      "confirmed_rate_per_100k": 3110.05,
      "deaths": 23,
      "deaths_rate_per_10k": 6.11377,
      "deaths_rate_per_100k": 61.1377,
      "total_tested": 19943,
      "test_rate_per_10k": 5301.17,
      "test_rate_per_100k": 53011.7,
      "total_population": 37620,
      "latitude": 38.731300,
      "longitude": -88.864700
    },
    {
      "County": "Marshall",
      "confirmed_cases": 171,
      "confirmed_rate_per_10k": 148.257,
      "confirmed_rate_per_100k": 1482.57,
      "deaths": 3,
      "deaths_rate_per_10k": 2.60101,
      "deaths_rate_per_100k": 26.0101,
      "total_tested": 5968,
      "test_rate_per_10k": 5174.27,
      "test_rate_per_100k": 51742.7,
      "total_population": 11534,
      "latitude": 40.997300,
      "longitude": -89.360600
    },
    {
      "County": "Mason",
      "confirmed_cases": 346,
      "confirmed_rate_per_10k": 255.068,
      "confirmed_rate_per_100k": 2550.68,
      "deaths": 5,
      "deaths_rate_per_10k": 3.68596,
      "deaths_rate_per_100k": 36.8596,
      "total_tested": 6436,
      "test_rate_per_10k": 4744.56,
      "test_rate_per_100k": 47445.6,
      "total_population": 13565,
      "latitude": 40.227100,
      "longitude": -89.925300
    },
    {
      "County": "Massac",
      "confirmed_cases": 165,
      "confirmed_rate_per_10k": 117.188,
      "confirmed_rate_per_100k": 1171.88,
      "deaths": 2,
      "deaths_rate_per_10k": 1.42045,
      "deaths_rate_per_100k": 14.2045,
      "total_tested": 3479,
      "test_rate_per_10k": 2470.88,
      "test_rate_per_100k": 24708.8,
      "total_population": 14080,
      "latitude": 37.247800,
      "longitude": -88.749400
    },
    {
      "County": "McDonough",
      "confirmed_cases": 818,
      "confirmed_rate_per_10k": 273.076,
      "confirmed_rate_per_100k": 2730.76,
      "deaths": 22,
      "deaths_rate_per_10k": 7.34435,
      "deaths_rate_per_100k": 73.4435,
      "total_tested": 13716,
      "test_rate_per_10k": 4578.87,
      "test_rate_per_100k": 45788.7,
      "total_population": 29955,
      "latitude": 40.388500,
      "longitude": -90.677300
    },
    {
      "County": "McHenry",
      "confirmed_cases": 6953,
      "confirmed_rate_per_10k": 225.33,
      "confirmed_rate_per_100k": 2253.3,
      "deaths": 121,
      "deaths_rate_per_10k": 3.92131,
      "deaths_rate_per_100k": 39.2131,
      "total_tested": 105614,
      "test_rate_per_10k": 3422.69,
      "test_rate_per_100k": 34226.9,
      "total_population": 308570,
      "latitude": 42.304000,
      "longitude": -88.401600
    },
    {
      "County": "McLean",
      "confirmed_cases": 4392,
      "confirmed_rate_per_10k": 254.125,
      "confirmed_rate_per_100k": 2541.25,
      "deaths": 37,
      "deaths_rate_per_10k": 2.14086,
      "deaths_rate_per_100k": 21.4086,
      "total_tested": 102803,
      "test_rate_per_10k": 5948.28,
      "test_rate_per_100k": 59482.8,
      "total_population": 172828,
      "latitude": 40.547800,
      "longitude": -88.864700
    },
    {
      "County": "Menard",
      "confirmed_cases": 191,
      "confirmed_rate_per_10k": 155.436,
      "confirmed_rate_per_100k": 1554.36,
      "deaths": 1,
      "deaths_rate_per_10k": 0.813802,
      "deaths_rate_per_100k": 8.13802,
      "total_tested": 6198,
      "test_rate_per_10k": 5043.95,
      "test_rate_per_100k": 50439.5,
      "total_population": 12288,
      "latitude": 40.022100,
      "longitude": -89.813000
    },
    {
      "County": "Mercer",
      "confirmed_cases": 311,
      "confirmed_rate_per_10k": 199.346,
      "confirmed_rate_per_100k": 1993.46,
      "deaths": 6,
      "deaths_rate_per_10k": 3.84591,
      "deaths_rate_per_100k": 38.4591,
      "total_tested": 6753,
      "test_rate_per_10k": 4328.57,
      "test_rate_per_100k": 43285.7,
      "total_population": 15601,
      "latitude": 41.198500,
      "longitude": -90.677300
    },
    {
      "County": "Monroe",
      "confirmed_cases": 1016,
      "confirmed_rate_per_10k": 295.908,
      "confirmed_rate_per_100k": 2959.08,
      "deaths": 30,
      "deaths_rate_per_10k": 8.73744,
      "deaths_rate_per_100k": 87.3744,
      "total_tested": 11602,
      "test_rate_per_10k": 3379.06,
      "test_rate_per_100k": 33790.6,
      "total_population": 34335,
      "latitude": 38.274300,
      "longitude": -90.187000
    },
    {
      "County": "Montgomery",
      "confirmed_cases": 667,
      "confirmed_rate_per_10k": 233.209,
      "confirmed_rate_per_100k": 2332.09,
      "deaths": 16,
      "deaths_rate_per_10k": 5.59421,
      "deaths_rate_per_100k": 55.9421,
      "total_tested": 18160,
      "test_rate_per_10k": 6349.43,
      "test_rate_per_100k": 63494.3,
      "total_population": 28601,
      "latitude": 39.236400,
      "longitude": -89.474200
    },
    {
      "County": "Morgan",
      "confirmed_cases": 1032,
      "confirmed_rate_per_10k": 303.744,
      "confirmed_rate_per_100k": 3037.44,
      "deaths": 26,
      "deaths_rate_per_10k": 7.65246,
      "deaths_rate_per_100k": 76.5246,
      "total_tested": 16700,
      "test_rate_per_10k": 4915.23,
      "test_rate_per_100k": 49152.3,
      "total_population": 33976,
      "latitude": 39.734100,
      "longitude": -90.224500
    },
    {
      "County": "Moultrie",
      "confirmed_cases": 470,
      "confirmed_rate_per_10k": 319.359,
      "confirmed_rate_per_100k": 3193.59,
      "deaths": 6,
      "deaths_rate_per_10k": 4.07692,
      "deaths_rate_per_100k": 40.7692,
      "total_tested": 7257,
      "test_rate_per_10k": 4931.03,
      "test_rate_per_100k": 49310.3,
      "total_population": 14717,
      "latitude": 39.602100,
      "longitude": -88.595200
    },
    {
      "County": "Ogle",
      "confirmed_cases": 1354,
      "confirmed_rate_per_10k": 265.892,
      "confirmed_rate_per_100k": 2658.92,
      "deaths": 8,
      "deaths_rate_per_10k": 1.571,
      "deaths_rate_per_100k": 15.71,
      "total_tested": 20694,
      "test_rate_per_10k": 4063.78,
      "test_rate_per_100k": 40637.8,
      "total_population": 50923,
      "latitude": 41.997000,
      "longitude": -89.322700
    },
    {
      "County": "Peoria",
      "confirmed_cases": 4893,
      "confirmed_rate_per_10k": 270.899,
      "confirmed_rate_per_100k": 2708.99,
      "deaths": 78,
      "deaths_rate_per_10k": 4.31843,
      "deaths_rate_per_100k": 43.1843,
      "total_tested": 113691,
      "test_rate_per_10k": 6294.45,
      "test_rate_per_100k": 62944.5,
      "total_population": 180621,
      "latitude": 40.715600,
      "longitude": -89.775500
    },
    {
      "County": "Perry",
      "confirmed_cases": 485,
      "confirmed_rate_per_10k": 229.055,
      "confirmed_rate_per_100k": 2290.55,
      "deaths": 16,
      "deaths_rate_per_10k": 7.55644,
      "deaths_rate_per_100k": 75.5644,
      "total_tested": 7913,
      "test_rate_per_10k": 3737.13,
      "test_rate_per_100k": 37371.3,
      "total_population": 21174,
      "latitude": 38.061200,
      "longitude": -89.322700
    },
    {
      "County": "Piatt",
      "confirmed_cases": 282,
      "confirmed_rate_per_10k": 171.993,
      "confirmed_rate_per_100k": 1719.93,
      "deaths": 2,
      "deaths_rate_per_10k": 1.21981,
      "deaths_rate_per_100k": 12.1981,
      "total_tested": 11353,
      "test_rate_per_10k": 6924.25,
      "test_rate_per_100k": 69242.5,
      "total_population": 16396,
      "latitude": 40.054400,
      "longitude": -88.855650
    },
    {
      "County": "Pike",
      "confirmed_cases": 423,
      "confirmed_rate_per_10k": 270.963,
      "confirmed_rate_per_100k": 2709.63,
      "deaths": 7,
      "deaths_rate_per_10k": 4.48402,
      "deaths_rate_per_100k": 44.8402,
      "total_tested": 5742,
      "test_rate_per_10k": 3678.18,
      "test_rate_per_100k": 36781.8,
      "total_population": 15611,
      "latitude": 39.566200,
      "longitude": -90.829400
    },
    {
      "County": "Pope",
      "confirmed_cases": 44,
      "confirmed_rate_per_10k": 104.463,
      "confirmed_rate_per_100k": 1044.63,
      "deaths": 1,
      "deaths_rate_per_10k": 2.37417,
      "deaths_rate_per_100k": 23.7417,
      "total_tested": 845,
      "test_rate_per_10k": 2006.17,
      "test_rate_per_100k": 20061.7,
      "total_population": 4212,
      "latitude": 37.417100,
      "longitude": -88.595200
    },
    {
      "County": "Pulaski",
      "confirmed_cases": 246,
      "confirmed_rate_per_10k": 450.302,
      "confirmed_rate_per_100k": 4503.02,
      "deaths": 1,
      "deaths_rate_per_10k": 1.8305,
      "deaths_rate_per_100k": 18.305,
      "total_tested": 2126,
      "test_rate_per_10k": 3891.63,
      "test_rate_per_100k": 38916.3,
      "total_population": 5463,
      "latitude": 37.251200,
      "longitude": -89.132500
    },
    {
      "County": "Putnam",
      "confirmed_cases": 101,
      "confirmed_rate_per_10k": 175.958,
      "confirmed_rate_per_100k": 1759.58,
      "deaths": 0,
      "deaths_rate_per_10k": 0,
      "deaths_rate_per_100k": 0,
      "total_tested": 1654,
      "test_rate_per_10k": 2881.53,
      "test_rate_per_100k": 28815.3,
      "total_population": 5740,
      "latitude": 41.238500,
      "longitude": -89.284700
    },
    {
      "County": "Randolph",
      "confirmed_cases": 1358,
      "confirmed_rate_per_10k": 422.974,
      "confirmed_rate_per_100k": 4229.74,
      "deaths": 15,
      "deaths_rate_per_10k": 4.67202,
      "deaths_rate_per_100k": 46.7202,
      "total_tested": 16396,
      "test_rate_per_10k": 5106.83,
      "test_rate_per_100k": 51068.3,
      "total_population": 32106,
      "latitude": 38.062900,
      "longitude": -89.775500
    },
    {
      "County": "Richland",
      "confirmed_cases": 347,
      "confirmed_rate_per_10k": 220.136,
      "confirmed_rate_per_100k": 2201.36,
      "deaths": 18,
      "deaths_rate_per_10k": 11.4191,
      "deaths_rate_per_100k": 114.191,
      "total_tested": 8155,
      "test_rate_per_10k": 5173.51,
      "test_rate_per_100k": 51735.1,
      "total_population": 15763,
      "latitude": 38.721300,
      "longitude": -88.090100
    },
    {
      "County": "Rock Island",
      "confirmed_cases": 4349,
      "confirmed_rate_per_10k": 303.115,
      "confirmed_rate_per_100k": 3031.15,
      "deaths": 95,
      "deaths_rate_per_10k": 6.62127,
      "deaths_rate_per_100k": 66.2127,
      "total_tested": 76360,
      "test_rate_per_10k": 5322.11,
      "test_rate_per_100k": 53221.1,
      "total_population": 143477,
      "latitude": 41.509500,
      "longitude": -90.578700
    },
    {
      "County": "Saline",
      "confirmed_cases": 637,
      "confirmed_rate_per_10k": 266.46,
      "confirmed_rate_per_100k": 2664.6,
      "deaths": 11,
      "deaths_rate_per_10k": 4.60136,
      "deaths_rate_per_100k": 46.0136,
      "total_tested": 8713,
      "test_rate_per_10k": 3644.69,
      "test_rate_per_100k": 36446.9,
      "total_population": 23906,
      "latitude": 37.715000,
      "longitude": -88.556500
    },
    {
      "County": "Sangamon",
      "confirmed_cases": 4450,
      "confirmed_rate_per_10k": 227.799,
      "confirmed_rate_per_100k": 2277.99,
      "deaths": 64,
      "deaths_rate_per_10k": 3.2762,
      "deaths_rate_per_100k": 32.762,
      "total_tested": 137907,
      "test_rate_per_10k": 7059.56,
      "test_rate_per_100k": 70595.6,
      "total_population": 195348,
      "latitude": 39.733700,
      "longitude": -89.625200
    },
    {
      "County": "Schuyler",
      "confirmed_cases": 101,
      "confirmed_rate_per_10k": 146.228,
      "confirmed_rate_per_100k": 1462.28,
      "deaths": 1,
      "deaths_rate_per_10k": 1.44781,
      "deaths_rate_per_100k": 14.4781,
      "total_tested": 2350,
      "test_rate_per_10k": 3402.35,
      "test_rate_per_100k": 34023.5,
      "total_population": 6907,
      "latitude": 40.184500,
      "longitude": -90.639400
    },
    {
      "County": "Scott",
      "confirmed_cases": 116,
      "confirmed_rate_per_10k": 235.485,
      "confirmed_rate_per_100k": 2354.85,
      "deaths": 0,
      "deaths_rate_per_10k": 0,
      "deaths_rate_per_100k": 0,
      "total_tested": 2892,
      "test_rate_per_10k": 5870.89,
      "test_rate_per_100k": 58708.9,
      "total_population": 4926,
      "latitude": 39.609500,
      "longitude": -90.488000
    },
    {
      "County": "Shelby",
      "confirmed_cases": 746,
      "confirmed_rate_per_10k": 343.13,
      "confirmed_rate_per_100k": 3431.3,
      "deaths": 12,
      "deaths_rate_per_10k": 5.51953,
      "deaths_rate_per_100k": 55.1953,
      "total_tested": 9022,
      "test_rate_per_10k": 4149.76,
      "test_rate_per_100k": 41497.6,
      "total_population": 21741,
      "latitude": 39.398100,
      "longitude": -88.864700
    },
    {
      "County": "St. Clair",
      "confirmed_cases": 8247,
      "confirmed_rate_per_10k": 315.906,
      "confirmed_rate_per_100k": 3159.06,
      "deaths": 224,
      "deaths_rate_per_10k": 8.58044,
      "deaths_rate_per_100k": 85.8044,
      "total_tested": 109596,
      "test_rate_per_10k": 4198.13,
      "test_rate_per_100k": 41981.3,
      "total_population": 261059,
      "latitude": 38.400800,
      "longitude": -89.925300
    },
    {
      "County": "Stark",
      "confirmed_cases": 96,
      "confirmed_rate_per_10k": 176.893,
      "confirmed_rate_per_100k": 1768.93,
      "deaths": 3,
      "deaths_rate_per_10k": 5.52792,
      "deaths_rate_per_100k": 55.2792,
      "total_tested": 2806,
      "test_rate_per_10k": 5170.44,
      "test_rate_per_100k": 51704.4,
      "total_population": 5427,
      "latitude": 41.079600,
      "longitude": -89.813000
    },
    {
      "County": "Stephenson",
      "confirmed_cases": 1182,
      "confirmed_rate_per_10k": 264.116,
      "confirmed_rate_per_100k": 2641.16,
      "deaths": 9,
      "deaths_rate_per_10k": 2.01104,
      "deaths_rate_per_100k": 20.1104,
      "total_tested": 17939,
      "test_rate_per_10k": 4008.45,
      "test_rate_per_100k": 40084.5,
      "total_population": 44753,
      "latitude": 42.314500,
      "longitude": -89.625200
    },
    {
      "County": "Tazewell",
      "confirmed_cases": 2905,
      "confirmed_rate_per_10k": 219.53,
      "confirmed_rate_per_100k": 2195.3,
      "deaths": 59,
      "deaths_rate_per_10k": 4.45862,
      "deaths_rate_per_100k": 44.5862,
      "total_tested": 77495,
      "test_rate_per_10k": 5856.28,
      "test_rate_per_100k": 58562.8,
      "total_population": 132328,
      "latitude": 40.552200,
      "longitude": -89.474200
    },
    {
      "County": "Union",
      "confirmed_cases": 810,
      "confirmed_rate_per_10k": 480.969,
      "confirmed_rate_per_100k": 4809.69,
      "deaths": 25,
      "deaths_rate_per_10k": 14.8447,
      "deaths_rate_per_100k": 148.447,
      "total_tested": 9125,
      "test_rate_per_10k": 5418.32,
      "test_rate_per_100k": 54183.2,
      "total_population": 16841,
      "latitude": 37.508700,
      "longitude": -89.284700
    },
    {
      "County": "Vermilion",
      "confirmed_cases": 1893,
      "confirmed_rate_per_10k": 246.465,
      "confirmed_rate_per_100k": 2464.65,
      "deaths": 11,
      "deaths_rate_per_10k": 1.43218,
      "deaths_rate_per_100k": 14.3218,
      "total_tested": 38166,
      "test_rate_per_10k": 4969.14,
      "test_rate_per_100k": 49691.4,
      "total_population": 76806,
      "latitude": 40.122500,
      "longitude": -87.697600
    },
    {
      "County": "Wabash",
      "confirmed_cases": 256,
      "confirmed_rate_per_10k": 221.664,
      "confirmed_rate_per_100k": 2216.64,
      "deaths": 6,
      "deaths_rate_per_10k": 5.19526,
      "deaths_rate_per_100k": 51.9526,
      "total_tested": 3099,
      "test_rate_per_10k": 2683.35,
      "test_rate_per_100k": 26833.5,
      "total_population": 11549,
      "latitude": 38.422600,
      "longitude": -87.815700
    },
    {
      "County": "Warren",
      "confirmed_cases": 561,
      "confirmed_rate_per_10k": 329.38,
      "confirmed_rate_per_100k": 3293.8,
      "deaths": 9,
      "deaths_rate_per_10k": 5.28417,
      "deaths_rate_per_100k": 52.8417,
      "total_tested": 5914,
      "test_rate_per_10k": 3472.29,
      "test_rate_per_100k": 34722.9,
      "total_population": 17032,
      "latitude": 40.875900,
      "longitude": -90.677300
    },
    {
      "County": "Washington",
      "confirmed_cases": 339,
      "confirmed_rate_per_10k": 242.229,
      "confirmed_rate_per_100k": 2422.29,
      "deaths": 2,
      "deaths_rate_per_10k": 1.42908,
      "deaths_rate_per_100k": 14.2908,
      "total_tested": 4272,
      "test_rate_per_10k": 3052.52,
      "test_rate_per_100k": 30525.2,
      "total_population": 13995,
      "latitude": 38.398900,
      "longitude": -89.322700
    },
    {
      "County": "Wayne",
      "confirmed_cases": 532,
      "confirmed_rate_per_10k": 325.741,
      "confirmed_rate_per_100k": 3257.41,
      "deaths": 17,
      "deaths_rate_per_10k": 10.409,
      "deaths_rate_per_100k": 104.09,
      "total_tested": 5790,
      "test_rate_per_10k": 3545.19,
      "test_rate_per_100k": 35451.9,
      "total_population": 16332,
      "latitude": 38.390000,
      "longitude": -88.401600
    },
    {
      "County": "White",
      "confirmed_cases": 289,
      "confirmed_rate_per_10k": 211.489,
      "confirmed_rate_per_100k": 2114.89,
      "deaths": 5,
      "deaths_rate_per_10k": 3.65898,
      "deaths_rate_per_100k": 36.5898,
      "total_tested": 7579,
      "test_rate_per_10k": 5546.29,
      "test_rate_per_100k": 55462.9,
      "total_population": 13665,
      "latitude": 38.050100,
      "longitude": -88.246100
    },
    {
      "County": "Whiteside",
      "confirmed_cases": 1691,
      "confirmed_rate_per_10k": 303.995,
      "confirmed_rate_per_100k": 3039.95,
      "deaths": 30,
      "deaths_rate_per_10k": 5.39316,
      "deaths_rate_per_100k": 53.9316,
      "total_tested": 21810,
      "test_rate_per_10k": 3920.83,
      "test_rate_per_100k": 39208.3,
      "total_population": 55626,
      "latitude": 41.760600,
      "longitude": -89.850500
    },
    {
      "County": "Will",
      "confirmed_cases": 19946,
      "confirmed_rate_per_10k": 288.108,
      "confirmed_rate_per_100k": 2881.08,
      "deaths": 439,
      "deaths_rate_per_10k": 6.34109,
      "deaths_rate_per_100k": 63.4109,
      "total_tested": 288914,
      "test_rate_per_10k": 4173.19,
      "test_rate_per_100k": 41731.9,
      "total_population": 692310,
      "latitude": 41.505500,
      "longitude": -88.090100
    },
    {
      "County": "Williamson",
      "confirmed_cases": 2016,
      "confirmed_rate_per_10k": 300.644,
      "confirmed_rate_per_100k": 3006.44,
      "deaths": 61,
      "deaths_rate_per_10k": 9.09687,
      "deaths_rate_per_100k": 90.9687,
      "total_tested": 33056,
      "test_rate_per_10k": 4929.61,
      "test_rate_per_100k": 49296.1,
      "total_population": 67056,
      "latitude": 37.718300,
      "longitude": -88.864700
    },
    {
      "County": "Winnebago",
      "confirmed_cases": 11084,
      "confirmed_rate_per_10k": 390.17,
      "confirmed_rate_per_100k": 3901.7,
      "deaths": 186,
      "deaths_rate_per_10k": 6.54743,
      "deaths_rate_per_100k": 65.4743,
      "total_tested": 140765,
      "test_rate_per_10k": 4955.1,
      "test_rate_per_100k": 49551,
      "total_population": 284081,
      "latitude": 42.312100,
      "longitude": -89.170600
    },
    {
      "County": "Woodford",
      "confirmed_cases": 723,
      "confirmed_rate_per_10k": 187.973,
      "confirmed_rate_per_100k": 1879.73,
      "deaths": 15,
      "deaths_rate_per_10k": 3.89985,
      "deaths_rate_per_100k": 38.9985,
      "total_tested": 18100,
      "test_rate_per_10k": 4705.82,
      "test_rate_per_100k": 47058.2,
      "total_population": 38463,
      "latitude": 40.712900,
      "longitude": -89.170600
    }
  ]
}
