{
  "LastUpdateDate": {
    "year": 2020,
    "month": 9,
    "day": 8
  },
  "county_rates": [
    {
      "County": "Adams",
      "confirmed_cases": 820,
      "confirmed_rate_per_10k": 124.827,
      "confirmed_rate_per_100k": 1248.27,
      "deaths": 9,
      "deaths_rate_per_10k": 1.37005,
      "deaths_rate_per_100k": 13.7005,
      "total_tested": 26654,
      "test_rate_per_10k": 4057.48,
      "test_rate_per_100k": 40574.8,
      "total_population": 65691,
      "latitude": 40.057800,
      "longitude": -91.135300
    },
    {
      "County": "Alexander",
      "confirmed_cases": 51,
      "confirmed_rate_per_10k": 84.1584,
      "confirmed_rate_per_100k": 841.584,
      "deaths": 1,
      "deaths_rate_per_10k": 1.65017,
      "deaths_rate_per_100k": 16.5017,
      "total_tested": 1479,
      "test_rate_per_10k": 2440.59,
      "test_rate_per_100k": 24405.9,
      "total_population": 6060,
      "latitude": 37.167000,
      "longitude": -89.360600
    },
    {
      "County": "Bond",
      "confirmed_cases": 209,
      "confirmed_rate_per_10k": 125.676,
      "confirmed_rate_per_100k": 1256.76,
      "deaths": 4,
      "deaths_rate_per_10k": 2.40529,
      "deaths_rate_per_100k": 24.0529,
      "total_tested": 5165,
      "test_rate_per_10k": 3105.83,
      "test_rate_per_100k": 31058.3,
      "total_population": 16630,
      "latitude": 38.903000,
      "longitude": -89.474200
    },
    {
      "County": "Boone",
      "confirmed_cases": 924,
      "confirmed_rate_per_10k": 172.462,
      "confirmed_rate_per_100k": 1724.62,
      "deaths": 23,
      "deaths_rate_per_10k": 4.29289,
      "deaths_rate_per_100k": 42.9289,
      "total_tested": 12433,
      "test_rate_per_10k": 2320.59,
      "test_rate_per_100k": 23205.9,
      "total_population": 53577,
      "latitude": 42.348500,
      "longitude": -88.826300
    },
    {
      "County": "Brown",
      "confirmed_cases": 25,
      "confirmed_rate_per_10k": 38.133,
      "confirmed_rate_per_100k": 381.33,
      "deaths": 0,
      "deaths_rate_per_10k": 0,
      "deaths_rate_per_100k": 0,
      "total_tested": 1318,
      "test_rate_per_10k": 2010.37,
      "test_rate_per_100k": 20103.7,
      "total_population": 6556,
      "latitude": 39.938000,
      "longitude": -90.715300
    },
    {
      "County": "Bureau",
      "confirmed_cases": 453,
      "confirmed_rate_per_10k": 137.302,
      "confirmed_rate_per_100k": 1373.02,
      "deaths": 9,
      "deaths_rate_per_10k": 2.72785,
      "deaths_rate_per_100k": 27.2785,
      "total_tested": 6871,
      "test_rate_per_10k": 2082.56,
      "test_rate_per_100k": 20825.6,
      "total_population": 32993,
      "latitude": 41.359900,
      "longitude": -89.474200
    },
    {
      "County": "Calhoun",
      "confirmed_cases": 33,
      "confirmed_rate_per_10k": 68.7214,
      "confirmed_rate_per_100k": 687.214,
      "deaths": 0,
      "deaths_rate_per_10k": 0,
      "deaths_rate_per_100k": 0,
      "total_tested": 905,
      "test_rate_per_10k": 1884.63,
      "test_rate_per_100k": 18846.3,
      "total_population": 4802,
      "latitude": 39.173300,
      "longitude": -90.658300
    },
    {
      "County": "Carroll",
      "confirmed_cases": 150,
      "confirmed_rate_per_10k": 104.807,
      "confirmed_rate_per_100k": 1048.07,
      "deaths": 4,
      "deaths_rate_per_10k": 2.79486,
      "deaths_rate_per_100k": 27.9486,
      "total_tested": 2918,
      "test_rate_per_10k": 2038.85,
      "test_rate_per_100k": 20388.5,
      "total_population": 14312,
      "latitude": 42.038600,
      "longitude": -89.962700
    },
    {
      "County": "Cass",
      "confirmed_cases": 337,
      "confirmed_rate_per_10k": 274.878,
      "confirmed_rate_per_100k": 2748.78,
      "deaths": 11,
      "deaths_rate_per_10k": 8.97227,
      "deaths_rate_per_100k": 89.7227,
      "total_tested": 4211,
      "test_rate_per_10k": 3434.75,
      "test_rate_per_100k": 34347.5,
      "total_population": 12260,
      "latitude": 39.939900,
      "longitude": -90.262000
    },
    {
      "County": "Champaign",
      "confirmed_cases": 3628,
      "confirmed_rate_per_10k": 172.776,
      "confirmed_rate_per_100k": 1727.76,
      "deaths": 20,
      "deaths_rate_per_10k": 0.952458,
      "deaths_rate_per_100k": 9.52458,
      "total_tested": 312364,
      "test_rate_per_10k": 14875.7,
      "test_rate_per_100k": 148757,
      "total_population": 209983,
      "latitude": 40.213900,
      "longitude": -88.246100
    },
    {
      "County": "Chicago",
      "confirmed_cases": 73828,
      "confirmed_rate_per_10k": 272.831,
      "confirmed_rate_per_100k": 2728.31,
      "deaths": 2897,
      "deaths_rate_per_10k": 10.7059,
      "deaths_rate_per_100k": 107.059,
      "total_tested": 985457,
      "test_rate_per_10k": 3641.76,
      "test_rate_per_100k": 36417.6,
      "total_population": 2705994,
      "latitude": 41.789896,
      "longitude": -87.627734
    },
    {
      "County": "Christian",
      "confirmed_cases": 267,
      "confirmed_rate_per_10k": 81.7489,
      "confirmed_rate_per_100k": 817.489,
      "deaths": 6,
      "deaths_rate_per_10k": 1.83705,
      "deaths_rate_per_100k": 18.3705,
      "total_tested": 9403,
      "test_rate_per_10k": 2878.97,
      "test_rate_per_100k": 28789.7,
      "total_population": 32661,
      "latitude": 39.567200,
      "longitude": -89.322700
    },
    {
      "County": "Clark",
      "confirmed_cases": 121,
      "confirmed_rate_per_10k": 77.584,
      "confirmed_rate_per_100k": 775.84,
      "deaths": 2,
      "deaths_rate_per_10k": 1.28238,
      "deaths_rate_per_100k": 12.8238,
      "total_tested": 3687,
      "test_rate_per_10k": 2364.07,
      "test_rate_per_100k": 23640.7,
      "total_population": 15596,
      "latitude": 39.382400,
      "longitude": -87.776300
    },
    {
      "County": "Clay",
      "confirmed_cases": 114,
      "confirmed_rate_per_10k": 86.0183,
      "confirmed_rate_per_100k": 860.183,
      "deaths": 0,
      "deaths_rate_per_10k": 0,
      "deaths_rate_per_100k": 0,
      "total_tested": 2764,
      "test_rate_per_10k": 2085.57,
      "test_rate_per_100k": 20855.7,
      "total_population": 13253,
      "latitude": 38.727900,
      "longitude": -88.556500
    },
    {
      "County": "Clinton",
      "confirmed_cases": 869,
      "confirmed_rate_per_10k": 230.878,
      "confirmed_rate_per_100k": 2308.78,
      "deaths": 19,
      "deaths_rate_per_10k": 5.04796,
      "deaths_rate_per_100k": 50.4796,
      "total_tested": 10340,
      "test_rate_per_10k": 2747.15,
      "test_rate_per_100k": 27471.5,
      "total_population": 37639,
      "latitude": 38.568400,
      "longitude": -89.625200
    },
    {
      "County": "Coles",
      "confirmed_cases": 1146,
      "confirmed_rate_per_10k": 225.214,
      "confirmed_rate_per_100k": 2252.14,
      "deaths": 24,
      "deaths_rate_per_10k": 4.71652,
      "deaths_rate_per_100k": 47.1652,
      "total_tested": 20757,
      "test_rate_per_10k": 4079.2,
      "test_rate_per_100k": 40792,
      "total_population": 50885,
      "latitude": 39.556000,
      "longitude": -88.246100
    },
    {
      "County": "Cook",
      "confirmed_cases": 58244,
      "confirmed_rate_per_10k": 235.377,
      "confirmed_rate_per_100k": 2353.77,
      "deaths": 2201,
      "deaths_rate_per_10k": 8.89473,
      "deaths_rate_per_100k": 88.9473,
      "total_tested": 824167,
      "test_rate_per_10k": 3330.64,
      "test_rate_per_100k": 33306.4,
      "total_population": 2474499,
      "latitude": 42.050784,
      "longitude": -87.963759
    },
    {
      "County": "Crawford",
      "confirmed_cases": 177,
      "confirmed_rate_per_10k": 94.1139,
      "confirmed_rate_per_100k": 941.139,
      "deaths": 1,
      "deaths_rate_per_10k": 0.531717,
      "deaths_rate_per_100k": 5.31717,
      "total_tested": 2806,
      "test_rate_per_10k": 1492,
      "test_rate_per_100k": 14920,
      "total_population": 18807,
      "latitude": 41.833000,
      "longitude": -88.710900
    },
    {
      "County": "Cumberland",
      "confirmed_cases": 170,
      "confirmed_rate_per_10k": 157.291,
      "confirmed_rate_per_100k": 1572.91,
      "deaths": 4,
      "deaths_rate_per_10k": 3.70096,
      "deaths_rate_per_100k": 37.0096,
      "total_tested": 3310,
      "test_rate_per_10k": 3062.55,
      "test_rate_per_100k": 30625.5,
      "total_population": 10808,
      "latitude": 39.265400,
      "longitude": -88.207200
    },
    {
      "County": "De Witt",
      "confirmed_cases": 60,
      "confirmed_rate_per_10k": 38.0493,
      "confirmed_rate_per_100k": 380.493,
      "deaths": 1,
      "deaths_rate_per_10k": 0.634156,
      "deaths_rate_per_100k": 6.34156,
      "total_tested": 2936,
      "test_rate_per_10k": 1861.88,
      "test_rate_per_100k": 18618.8,
      "total_population": 15769,
      "latitude": 40.181000,
      "longitude": -88.903100
    },
    {
      "County": "DeKalb",
      "confirmed_cases": 1259,
      "confirmed_rate_per_10k": 120.891,
      "confirmed_rate_per_100k": 1208.91,
      "deaths": 36,
      "deaths_rate_per_10k": 3.45679,
      "deaths_rate_per_100k": 34.5679,
      "total_tested": 24436,
      "test_rate_per_10k": 2346.39,
      "test_rate_per_100k": 23463.9,
      "total_population": 104143,
      "latitude": 41.833000,
      "longitude": -88.710900
    },
    {
      "County": "Douglas",
      "confirmed_cases": 240,
      "confirmed_rate_per_10k": 123.21,
      "confirmed_rate_per_100k": 1232.1,
      "deaths": 5,
      "deaths_rate_per_10k": 2.56687,
      "deaths_rate_per_100k": 25.6687,
      "total_tested": 6751,
      "test_rate_per_10k": 3465.78,
      "test_rate_per_100k": 34657.8,
      "total_population": 19479,
      "latitude": 39.761800,
      "longitude": -88.207200
    },
    {
      "County": "DuPage",
      "confirmed_cases": 15499,
      "confirmed_rate_per_10k": 166.909,
      "confirmed_rate_per_100k": 1669.09,
      "deaths": 540,
      "deaths_rate_per_10k": 5.81527,
      "deaths_rate_per_100k": 58.1527,
      "total_tested": 274098,
      "test_rate_per_10k": 2951.77,
      "test_rate_per_100k": 29517.7,
      "total_population": 928589,
      "latitude": 41.824400,
      "longitude": -88.090100
    },
    {
      "County": "Edgar",
      "confirmed_cases": 96,
      "confirmed_rate_per_10k": 55.2995,
      "confirmed_rate_per_100k": 552.995,
      "deaths": 2,
      "deaths_rate_per_10k": 1.15207,
      "deaths_rate_per_100k": 11.5207,
      "total_tested": 2692,
      "test_rate_per_10k": 1550.69,
      "test_rate_per_100k": 15506.9,
      "total_population": 17360,
      "latitude": 39.713100,
      "longitude": -87.776300
    },
    {
      "County": "Edwards",
      "confirmed_cases": 48,
      "confirmed_rate_per_10k": 75.0939,
      "confirmed_rate_per_100k": 750.939,
      "deaths": 0,
      "deaths_rate_per_10k": 0,
      "deaths_rate_per_100k": 0,
      "total_tested": 676,
      "test_rate_per_10k": 1057.57,
      "test_rate_per_100k": 10575.7,
      "total_population": 6392,
      "latitude": 38.426800,
      "longitude": -88.051000
    },
    {
      "County": "Effingham",
      "confirmed_cases": 664,
      "confirmed_rate_per_10k": 194.107,
      "confirmed_rate_per_100k": 1941.07,
      "deaths": 1,
      "deaths_rate_per_10k": 0.292329,
      "deaths_rate_per_100k": 2.92329,
      "total_tested": 9589,
      "test_rate_per_10k": 2803.15,
      "test_rate_per_100k": 28031.5,
      "total_population": 34208,
      "latitude": 39.062200,
      "longitude": -88.556500
    },
    {
      "County": "Fayette",
      "confirmed_cases": 217,
      "confirmed_rate_per_10k": 101.326,
      "confirmed_rate_per_100k": 1013.26,
      "deaths": 3,
      "deaths_rate_per_10k": 1.40082,
      "deaths_rate_per_100k": 14.0082,
      "total_tested": 4661,
      "test_rate_per_10k": 2176.41,
      "test_rate_per_100k": 21764.1,
      "total_population": 21416,
      "latitude": 39.067000,
      "longitude": -89.017900
    },
    {
      "County": "Ford",
      "confirmed_cases": 79,
      "confirmed_rate_per_10k": 59.5597,
      "confirmed_rate_per_100k": 595.597,
      "deaths": 3,
      "deaths_rate_per_10k": 2.26176,
      "deaths_rate_per_100k": 22.6176,
      "total_tested": 3899,
      "test_rate_per_10k": 2939.54,
      "test_rate_per_100k": 29395.4,
      "total_population": 13264,
      "latitude": 40.498900,
      "longitude": -88.207200
    },
    {
      "County": "Franklin",
      "confirmed_cases": 387,
      "confirmed_rate_per_10k": 99.9974,
      "confirmed_rate_per_100k": 999.974,
      "deaths": 1,
      "deaths_rate_per_10k": 0.258391,
      "deaths_rate_per_100k": 2.58391,
      "total_tested": 9451,
      "test_rate_per_10k": 2442.06,
      "test_rate_per_100k": 24420.6,
      "total_population": 38701,
      "latitude": 38.015700,
      "longitude": -88.903100
    },
    {
      "County": "Fulton",
      "confirmed_cases": 104,
      "confirmed_rate_per_10k": 29.8473,
      "confirmed_rate_per_100k": 298.473,
      "deaths": 0,
      "deaths_rate_per_10k": 0,
      "deaths_rate_per_100k": 0,
      "total_tested": 7975,
      "test_rate_per_10k": 2288.77,
      "test_rate_per_100k": 22887.7,
      "total_population": 34844,
      "latitude": 40.553200,
      "longitude": -90.224500
    },
    {
      "County": "Gallatin",
      "confirmed_cases": 67,
      "confirmed_rate_per_10k": 132.463,
      "confirmed_rate_per_100k": 1324.63,
      "deaths": 2,
      "deaths_rate_per_10k": 3.95413,
      "deaths_rate_per_100k": 39.5413,
      "total_tested": 667,
      "test_rate_per_10k": 1318.7,
      "test_rate_per_100k": 13187,
      "total_population": 5058,
      "latitude": 37.710800,
      "longitude": -88.246100
    },
    {
      "County": "Greene",
      "confirmed_cases": 160,
      "confirmed_rate_per_10k": 122.662,
      "confirmed_rate_per_100k": 1226.62,
      "deaths": 1,
      "deaths_rate_per_10k": 0.766636,
      "deaths_rate_per_100k": 7.66636,
      "total_tested": 2845,
      "test_rate_per_10k": 2181.08,
      "test_rate_per_100k": 21810.8,
      "total_population": 13044,
      "latitude": 39.403000,
      "longitude": -90.374800
    },
    {
      "County": "Grundy",
      "confirmed_cases": 550,
      "confirmed_rate_per_10k": 107.902,
      "confirmed_rate_per_100k": 1079.02,
      "deaths": 5,
      "deaths_rate_per_10k": 0.980931,
      "deaths_rate_per_100k": 9.80931,
      "total_tested": 9184,
      "test_rate_per_10k": 1801.77,
      "test_rate_per_100k": 18017.7,
      "total_population": 50972,
      "latitude": 41.350100,
      "longitude": -88.401600
    },
    {
      "County": "Hamilton",
      "confirmed_cases": 47,
      "confirmed_rate_per_10k": 57.5769,
      "confirmed_rate_per_100k": 575.769,
      "deaths": 0,
      "deaths_rate_per_10k": 0,
      "deaths_rate_per_100k": 0,
      "total_tested": 1121,
      "test_rate_per_10k": 1373.27,
      "test_rate_per_100k": 13732.7,
      "total_population": 8163,
      "latitude": 38.054300,
      "longitude": -88.556500
    },
    {
      "County": "Hancock",
      "confirmed_cases": 159,
      "confirmed_rate_per_10k": 89.1056,
      "confirmed_rate_per_100k": 891.056,
      "deaths": 2,
      "deaths_rate_per_10k": 1.12082,
      "deaths_rate_per_100k": 11.2082,
      "total_tested": 4764,
      "test_rate_per_10k": 2669.8,
      "test_rate_per_100k": 26698,
      "total_population": 17844,
      "latitude": 40.384900,
      "longitude": -91.135300
    },
    {
      "County": "Hardin",
      "confirmed_cases": 22,
      "confirmed_rate_per_10k": 56.266,
      "confirmed_rate_per_100k": 562.66,
      "deaths": 0,
      "deaths_rate_per_10k": 0,
      "deaths_rate_per_100k": 0,
      "total_tested": 670,
      "test_rate_per_10k": 1713.55,
      "test_rate_per_100k": 17135.5,
      "total_population": 3910,
      "latitude": 37.499500,
      "longitude": -88.362800
    },
    {
      "County": "Henderson",
      "confirmed_cases": 57,
      "confirmed_rate_per_10k": 84.9605,
      "confirmed_rate_per_100k": 849.605,
      "deaths": 0,
      "deaths_rate_per_10k": 0,
      "deaths_rate_per_100k": 0,
      "total_tested": 1036,
      "test_rate_per_10k": 1544.19,
      "test_rate_per_100k": 15441.9,
      "total_population": 6709,
      "latitude": 40.833600,
      "longitude": -90.943800
    },
    {
      "County": "Henry",
      "confirmed_cases": 541,
      "confirmed_rate_per_10k": 110.206,
      "confirmed_rate_per_100k": 1102.06,
      "deaths": 3,
      "deaths_rate_per_10k": 0.611122,
      "deaths_rate_per_100k": 6.11122,
      "total_tested": 13686,
      "test_rate_per_10k": 2787.94,
      "test_rate_per_100k": 27879.4,
      "total_population": 49090,
      "latitude": 41.361100,
      "longitude": -90.074700
    },
    {
      "County": "Iroquois",
      "confirmed_cases": 319,
      "confirmed_rate_per_10k": 115.563,
      "confirmed_rate_per_100k": 1155.63,
      "deaths": 19,
      "deaths_rate_per_10k": 6.88306,
      "deaths_rate_per_100k": 68.8306,
      "total_tested": 9310,
      "test_rate_per_10k": 3372.7,
      "test_rate_per_100k": 33727,
      "total_population": 27604,
      "latitude": 40.774000,
      "longitude": -87.697600
    },
    {
      "County": "Jackson",
      "confirmed_cases": 1072,
      "confirmed_rate_per_10k": 186.698,
      "confirmed_rate_per_100k": 1866.98,
      "deaths": 23,
      "deaths_rate_per_10k": 4.00564,
      "deaths_rate_per_100k": 40.0564,
      "total_tested": 15612,
      "test_rate_per_10k": 2718.96,
      "test_rate_per_100k": 27189.6,
      "total_population": 57419,
      "latitude": 37.721800,
      "longitude": -89.322700
    },
    {
      "County": "Jasper",
      "confirmed_cases": 166,
      "confirmed_rate_per_10k": 172.719,
      "confirmed_rate_per_100k": 1727.19,
      "deaths": 7,
      "deaths_rate_per_10k": 7.28332,
      "deaths_rate_per_100k": 72.8332,
      "total_tested": 2219,
      "test_rate_per_10k": 2308.81,
      "test_rate_per_100k": 23088.1,
      "total_population": 9611,
      "latitude": 39.055500,
      "longitude": -88.090100
    },
    {
      "County": "Jefferson",
      "confirmed_cases": 499,
      "confirmed_rate_per_10k": 131.941,
      "confirmed_rate_per_100k": 1319.41,
      "deaths": 37,
      "deaths_rate_per_10k": 9.78318,
      "deaths_rate_per_100k": 97.8318,
      "total_tested": 7616,
      "test_rate_per_10k": 2013.75,
      "test_rate_per_100k": 20137.5,
      "total_population": 37820,
      "latitude": 38.226700,
      "longitude": -88.864700
    },
    {
      "County": "Jersey",
      "confirmed_cases": 324,
      "confirmed_rate_per_10k": 148.304,
      "confirmed_rate_per_100k": 1483.04,
      "deaths": 6,
      "deaths_rate_per_10k": 2.74637,
      "deaths_rate_per_100k": 27.4637,
      "total_tested": 5062,
      "test_rate_per_10k": 2317.02,
      "test_rate_per_100k": 23170.2,
      "total_population": 21847,
      "latitude": 39.070500,
      "longitude": -90.374800
    },
    {
      "County": "Jo Daviess",
      "confirmed_cases": 199,
      "confirmed_rate_per_10k": 93.1386,
      "confirmed_rate_per_100k": 931.386,
      "deaths": 2,
      "deaths_rate_per_10k": 0.936067,
      "deaths_rate_per_100k": 9.36067,
      "total_tested": 4527,
      "test_rate_per_10k": 2118.79,
      "test_rate_per_100k": 21187.9,
      "total_population": 21366,
      "latitude": 42.314900,
      "longitude": -90.224500
    },
    {
      "County": "Johnson",
      "confirmed_cases": 126,
      "confirmed_rate_per_10k": 101.156,
      "confirmed_rate_per_100k": 1011.56,
      "deaths": 0,
      "deaths_rate_per_10k": 0,
      "deaths_rate_per_100k": 0,
      "total_tested": 2229,
      "test_rate_per_10k": 1789.5,
      "test_rate_per_100k": 17895,
      "total_population": 12456,
      "latitude": 37.420400,
      "longitude": -88.903100
    },
    {
      "County": "Kane",
      "confirmed_cases": 11761,
      "confirmed_rate_per_10k": 220.154,
      "confirmed_rate_per_100k": 2201.54,
      "deaths": 316,
      "deaths_rate_per_10k": 5.91521,
      "deaths_rate_per_100k": 59.1521,
      "total_tested": 147197,
      "test_rate_per_10k": 2755.38,
      "test_rate_per_100k": 27553.8,
      "total_population": 534216,
      "latitude": 41.987900,
      "longitude": -88.401600
    },
    {
      "County": "Kankakee",
      "confirmed_cases": 2426,
      "confirmed_rate_per_10k": 220.497,
      "confirmed_rate_per_100k": 2204.97,
      "deaths": 72,
      "deaths_rate_per_10k": 6.54403,
      "deaths_rate_per_100k": 65.4403,
      "total_tested": 43089,
      "test_rate_per_10k": 3916.33,
      "test_rate_per_100k": 39163.3,
      "total_population": 110024,
      "latitude": 41.179100,
      "longitude": -87.776300
    },
    {
      "County": "Kendall",
      "confirmed_cases": 1746,
      "confirmed_rate_per_10k": 136.497,
      "confirmed_rate_per_100k": 1364.97,
      "deaths": 25,
      "deaths_rate_per_10k": 1.95442,
      "deaths_rate_per_100k": 19.5442,
      "total_tested": 28706,
      "test_rate_per_10k": 2244.15,
      "test_rate_per_100k": 22441.5,
      "total_population": 127915,
      "latitude": 41.550700,
      "longitude": -88.440400
    },
    {
      "County": "Knox",
      "confirmed_cases": 498,
      "confirmed_rate_per_10k": 99.3774,
      "confirmed_rate_per_100k": 993.774,
      "deaths": 3,
      "deaths_rate_per_10k": 0.598659,
      "deaths_rate_per_100k": 5.98659,
      "total_tested": 13720,
      "test_rate_per_10k": 2737.87,
      "test_rate_per_100k": 27378.7,
      "total_population": 50112,
      "latitude": 40.877600,
      "longitude": -90.224500
    },
    {
      "County": "Lake",
      "confirmed_cases": 15349,
      "confirmed_rate_per_10k": 219.011,
      "confirmed_rate_per_100k": 2190.11,
      "deaths": 473,
      "deaths_rate_per_10k": 6.74912,
      "deaths_rate_per_100k": 67.4912,
      "total_tested": 210681,
      "test_rate_per_10k": 3006.16,
      "test_rate_per_100k": 30061.6,
      "total_population": 700832,
      "latitude": 42.368900,
      "longitude": -87.827200
    },
    {
      "County": "LaSalle",
      "confirmed_cases": 1413,
      "confirmed_rate_per_10k": 129.124,
      "confirmed_rate_per_100k": 1291.24,
      "deaths": 53,
      "deaths_rate_per_10k": 4.84328,
      "deaths_rate_per_100k": 48.4328,
      "total_tested": 25487,
      "test_rate_per_10k": 2329.07,
      "test_rate_per_100k": 23290.7,
      "total_population": 109430,
      "latitude": 41.436400,
      "longitude": -88.941400
    },
    {
      "County": "Lawrence",
      "confirmed_cases": 205,
      "confirmed_rate_per_10k": 130.035,
      "confirmed_rate_per_100k": 1300.35,
      "deaths": 0,
      "deaths_rate_per_10k": 0,
      "deaths_rate_per_100k": 0,
      "total_tested": 4067,
      "test_rate_per_10k": 2579.77,
      "test_rate_per_100k": 25797.7,
      "total_population": 15765,
      "latitude": 38.715800,
      "longitude": -87.776300
    },
    {
      "County": "Lee",
      "confirmed_cases": 283,
      "confirmed_rate_per_10k": 82.6929,
      "confirmed_rate_per_100k": 826.929,
      "deaths": 1,
      "deaths_rate_per_10k": 0.292201,
      "deaths_rate_per_100k": 2.92201,
      "total_tested": 6152,
      "test_rate_per_10k": 1797.62,
      "test_rate_per_100k": 17976.2,
      "total_population": 34223,
      "latitude": 41.679000,
      "longitude": -89.322700
    },
    {
      "County": "Livingston",
      "confirmed_cases": 245,
      "confirmed_rate_per_10k": 68.5104,
      "confirmed_rate_per_100k": 685.104,
      "deaths": 4,
      "deaths_rate_per_10k": 1.11854,
      "deaths_rate_per_100k": 11.1854,
      "total_tested": 8733,
      "test_rate_per_10k": 2442.05,
      "test_rate_per_100k": 24420.5,
      "total_population": 35761,
      "latitude": 40.868900,
      "longitude": -88.556500
    },
    {
      "County": "Logan",
      "confirmed_cases": 323,
      "confirmed_rate_per_10k": 111.668,
      "confirmed_rate_per_100k": 1116.68,
      "deaths": 1,
      "deaths_rate_per_10k": 0.345722,
      "deaths_rate_per_100k": 3.45722,
      "total_tested": 11557,
      "test_rate_per_10k": 3995.51,
      "test_rate_per_100k": 39955.1,
      "total_population": 28925,
      "latitude": 40.061300,
      "longitude": -89.322700
    },
    {
      "County": "Macon",
      "confirmed_cases": 1129,
      "confirmed_rate_per_10k": 107.82,
      "confirmed_rate_per_100k": 1078.2,
      "deaths": 28,
      "deaths_rate_per_10k": 2.674,
      "deaths_rate_per_100k": 26.74,
      "total_tested": 29785,
      "test_rate_per_10k": 2844.47,
      "test_rate_per_100k": 28444.7,
      "total_population": 104712,
      "latitude": 39.894900,
      "longitude": -89.017900
    },
    {
      "County": "Macoupin",
      "confirmed_cases": 402,
      "confirmed_rate_per_10k": 88.7163,
      "confirmed_rate_per_100k": 887.163,
      "deaths": 6,
      "deaths_rate_per_10k": 1.32412,
      "deaths_rate_per_100k": 13.2412,
      "total_tested": 15394,
      "test_rate_per_10k": 3397.26,
      "test_rate_per_100k": 33972.6,
      "total_population": 45313,
      "latitude": 39.237500,
      "longitude": -89.925300
    },
    {
      "County": "Madison",
      "confirmed_cases": 4585,
      "confirmed_rate_per_10k": 173.371,
      "confirmed_rate_per_100k": 1733.71,
      "deaths": 108,
      "deaths_rate_per_10k": 4.08378,
      "deaths_rate_per_100k": 40.8378,
      "total_tested": 62823,
      "test_rate_per_10k": 2375.51,
      "test_rate_per_100k": 23755.1,
      "total_population": 264461,
      "latitude": 38.904100,
      "longitude": -89.925300
    },
    {
      "County": "Marion",
      "confirmed_cases": 368,
      "confirmed_rate_per_10k": 97.8203,
      "confirmed_rate_per_100k": 978.203,
      "deaths": 0,
      "deaths_rate_per_10k": 0,
      "deaths_rate_per_100k": 0,
      "total_tested": 9216,
      "test_rate_per_10k": 2449.76,
      "test_rate_per_100k": 24497.6,
      "total_population": 37620,
      "latitude": 38.731300,
      "longitude": -88.864700
    },
    {
      "County": "Marshall",
      "confirmed_cases": 59,
      "confirmed_rate_per_10k": 51.1531,
      "confirmed_rate_per_100k": 511.531,
      "deaths": 0,
      "deaths_rate_per_10k": 0,
      "deaths_rate_per_100k": 0,
      "total_tested": 2701,
      "test_rate_per_10k": 2341.77,
      "test_rate_per_100k": 23417.7,
      "total_population": 11534,
      "latitude": 40.997300,
      "longitude": -89.360600
    },
    {
      "County": "Mason",
      "confirmed_cases": 97,
      "confirmed_rate_per_10k": 71.5076,
      "confirmed_rate_per_100k": 715.076,
      "deaths": 1,
      "deaths_rate_per_10k": 0.737191,
      "deaths_rate_per_100k": 7.37191,
      "total_tested": 3707,
      "test_rate_per_10k": 2732.77,
      "test_rate_per_100k": 27327.7,
      "total_population": 13565,
      "latitude": 40.227100,
      "longitude": -89.925300
    },
    {
      "County": "Massac",
      "confirmed_cases": 74,
      "confirmed_rate_per_10k": 52.5568,
      "confirmed_rate_per_100k": 525.568,
      "deaths": 1,
      "deaths_rate_per_10k": 0.710227,
      "deaths_rate_per_100k": 7.10227,
      "total_tested": 2326,
      "test_rate_per_10k": 1651.99,
      "test_rate_per_100k": 16519.9,
      "total_population": 14080,
      "latitude": 37.247800,
      "longitude": -88.749400
    },
    {
      "County": "McDonough",
      "confirmed_cases": 336,
      "confirmed_rate_per_10k": 112.168,
      "confirmed_rate_per_100k": 1121.68,
      "deaths": 15,
      "deaths_rate_per_10k": 5.00751,
      "deaths_rate_per_100k": 50.0751,
      "total_tested": 6415,
      "test_rate_per_10k": 2141.55,
      "test_rate_per_100k": 21415.5,
      "total_population": 29955,
      "latitude": 40.388500,
      "longitude": -90.677300
    },
    {
      "County": "McHenry",
      "confirmed_cases": 4139,
      "confirmed_rate_per_10k": 134.135,
      "confirmed_rate_per_100k": 1341.35,
      "deaths": 116,
      "deaths_rate_per_10k": 3.75928,
      "deaths_rate_per_100k": 37.5928,
      "total_tested": 64176,
      "test_rate_per_10k": 2079.79,
      "test_rate_per_100k": 20797.9,
      "total_population": 308570,
      "latitude": 42.304000,
      "longitude": -88.401600
    },
    {
      "County": "McLean",
      "confirmed_cases": 2662,
      "confirmed_rate_per_10k": 154.026,
      "confirmed_rate_per_100k": 1540.26,
      "deaths": 17,
      "deaths_rate_per_10k": 0.983637,
      "deaths_rate_per_100k": 9.83637,
      "total_tested": 57950,
      "test_rate_per_10k": 3353.04,
      "test_rate_per_100k": 33530.4,
      "total_population": 172828,
      "latitude": 40.547800,
      "longitude": -88.864700
    },
    {
      "County": "Menard",
      "confirmed_cases": 81,
      "confirmed_rate_per_10k": 65.918,
      "confirmed_rate_per_100k": 659.18,
      "deaths": 0,
      "deaths_rate_per_10k": 0,
      "deaths_rate_per_100k": 0,
      "total_tested": 3857,
      "test_rate_per_10k": 3138.83,
      "test_rate_per_100k": 31388.3,
      "total_population": 12288,
      "latitude": 40.022100,
      "longitude": -89.813000
    },
    {
      "County": "Mercer",
      "confirmed_cases": 113,
      "confirmed_rate_per_10k": 72.4313,
      "confirmed_rate_per_100k": 724.313,
      "deaths": 5,
      "deaths_rate_per_10k": 3.20492,
      "deaths_rate_per_100k": 32.0492,
      "total_tested": 3849,
      "test_rate_per_10k": 2467.15,
      "test_rate_per_100k": 24671.5,
      "total_population": 15601,
      "latitude": 41.198500,
      "longitude": -90.677300
    },
    {
      "County": "Monroe",
      "confirmed_cases": 533,
      "confirmed_rate_per_10k": 155.235,
      "confirmed_rate_per_100k": 1552.35,
      "deaths": 15,
      "deaths_rate_per_10k": 4.36872,
      "deaths_rate_per_100k": 43.6872,
      "total_tested": 5950,
      "test_rate_per_10k": 1732.93,
      "test_rate_per_100k": 17329.3,
      "total_population": 34335,
      "latitude": 38.274300,
      "longitude": -90.187000
    },
    {
      "County": "Montgomery",
      "confirmed_cases": 270,
      "confirmed_rate_per_10k": 94.4023,
      "confirmed_rate_per_100k": 944.023,
      "deaths": 11,
      "deaths_rate_per_10k": 3.84602,
      "deaths_rate_per_100k": 38.4602,
      "total_tested": 10756,
      "test_rate_per_10k": 3760.71,
      "test_rate_per_100k": 37607.1,
      "total_population": 28601,
      "latitude": 39.236400,
      "longitude": -89.474200
    },
    {
      "County": "Morgan",
      "confirmed_cases": 577,
      "confirmed_rate_per_10k": 169.826,
      "confirmed_rate_per_100k": 1698.26,
      "deaths": 21,
      "deaths_rate_per_10k": 6.18083,
      "deaths_rate_per_100k": 61.8083,
      "total_tested": 11595,
      "test_rate_per_10k": 3412.7,
      "test_rate_per_100k": 34127,
      "total_population": 33976,
      "latitude": 39.734100,
      "longitude": -90.224500
    },
    {
      "County": "Moultrie",
      "confirmed_cases": 181,
      "confirmed_rate_per_10k": 122.987,
      "confirmed_rate_per_100k": 1229.87,
      "deaths": 3,
      "deaths_rate_per_10k": 2.03846,
      "deaths_rate_per_100k": 20.3846,
      "total_tested": 3843,
      "test_rate_per_10k": 2611.27,
      "test_rate_per_100k": 26112.7,
      "total_population": 14717,
      "latitude": 39.602100,
      "longitude": -88.595200
    },
    {
      "County": "Ogle",
      "confirmed_cases": 526,
      "confirmed_rate_per_10k": 103.293,
      "confirmed_rate_per_100k": 1032.93,
      "deaths": 5,
      "deaths_rate_per_10k": 0.981875,
      "deaths_rate_per_100k": 9.81875,
      "total_tested": 11928,
      "test_rate_per_10k": 2342.36,
      "test_rate_per_100k": 23423.6,
      "total_population": 50923,
      "latitude": 41.997000,
      "longitude": -89.322700
    },
    {
      "County": "Peoria",
      "confirmed_cases": 2659,
      "confirmed_rate_per_10k": 147.214,
      "confirmed_rate_per_100k": 1472.14,
      "deaths": 41,
      "deaths_rate_per_10k": 2.26995,
      "deaths_rate_per_100k": 22.6995,
      "total_tested": 71259,
      "test_rate_per_10k": 3945.22,
      "test_rate_per_100k": 39452.2,
      "total_population": 180621,
      "latitude": 40.715600,
      "longitude": -89.775500
    },
    {
      "County": "Perry",
      "confirmed_cases": 309,
      "confirmed_rate_per_10k": 145.934,
      "confirmed_rate_per_100k": 1459.34,
      "deaths": 13,
      "deaths_rate_per_10k": 6.13961,
      "deaths_rate_per_100k": 61.3961,
      "total_tested": 5491,
      "test_rate_per_10k": 2593.27,
      "test_rate_per_100k": 25932.7,
      "total_population": 21174,
      "latitude": 38.061200,
      "longitude": -89.322700
    },
    {
      "County": "Piatt",
      "confirmed_cases": 98,
      "confirmed_rate_per_10k": 59.7707,
      "confirmed_rate_per_100k": 597.707,
      "deaths": 0,
      "deaths_rate_per_10k": 0,
      "deaths_rate_per_100k": 0,
      "total_tested": 6254,
      "test_rate_per_10k": 3814.34,
      "test_rate_per_100k": 38143.4,
      "total_population": 16396,
      "latitude": 40.054400,
      "longitude": -88.855650
    },
    {
      "County": "Pike",
      "confirmed_cases": 82,
      "confirmed_rate_per_10k": 52.5271,
      "confirmed_rate_per_100k": 525.271,
      "deaths": 1,
      "deaths_rate_per_10k": 0.640574,
      "deaths_rate_per_100k": 6.40574,
      "total_tested": 2418,
      "test_rate_per_10k": 1548.91,
      "test_rate_per_100k": 15489.1,
      "total_population": 15611,
      "latitude": 39.566200,
      "longitude": -90.829400
    },
    {
      "County": "Pope",
      "confirmed_cases": 23,
      "confirmed_rate_per_10k": 54.6059,
      "confirmed_rate_per_100k": 546.059,
      "deaths": 1,
      "deaths_rate_per_10k": 2.37417,
      "deaths_rate_per_100k": 23.7417,
      "total_tested": 489,
      "test_rate_per_10k": 1160.97,
      "test_rate_per_100k": 11609.7,
      "total_population": 4212,
      "latitude": 37.417100,
      "longitude": -88.595200
    },
    {
      "County": "Pulaski",
      "confirmed_cases": 140,
      "confirmed_rate_per_10k": 256.269,
      "confirmed_rate_per_100k": 2562.69,
      "deaths": 1,
      "deaths_rate_per_10k": 1.8305,
      "deaths_rate_per_100k": 18.305,
      "total_tested": 1237,
      "test_rate_per_10k": 2264.32,
      "test_rate_per_100k": 22643.2,
      "total_population": 5463,
      "latitude": 37.251200,
      "longitude": -89.132500
    },
    {
      "County": "Putnam",
      "confirmed_cases": 22,
      "confirmed_rate_per_10k": 38.3275,
      "confirmed_rate_per_100k": 383.275,
      "deaths": 0,
      "deaths_rate_per_10k": 0,
      "deaths_rate_per_100k": 0,
      "total_tested": 875,
      "test_rate_per_10k": 1524.39,
      "test_rate_per_100k": 15243.9,
      "total_population": 5740,
      "latitude": 41.238500,
      "longitude": -89.284700
    },
    {
      "County": "Randolph",
      "confirmed_cases": 801,
      "confirmed_rate_per_10k": 249.486,
      "confirmed_rate_per_100k": 2494.86,
      "deaths": 7,
      "deaths_rate_per_10k": 2.18028,
      "deaths_rate_per_100k": 21.8028,
      "total_tested": 9321,
      "test_rate_per_10k": 2903.2,
      "test_rate_per_100k": 29032,
      "total_population": 32106,
      "latitude": 38.062900,
      "longitude": -89.775500
    },
    {
      "County": "Richland",
      "confirmed_cases": 91,
      "confirmed_rate_per_10k": 57.7301,
      "confirmed_rate_per_100k": 577.301,
      "deaths": 4,
      "deaths_rate_per_10k": 2.53759,
      "deaths_rate_per_100k": 25.3759,
      "total_tested": 3886,
      "test_rate_per_10k": 2465.27,
      "test_rate_per_100k": 24652.7,
      "total_population": 15763,
      "latitude": 38.721300,
      "longitude": -88.090100
    },
    {
      "County": "Rock Island",
      "confirmed_cases": 2507,
      "confirmed_rate_per_10k": 174.732,
      "confirmed_rate_per_100k": 1747.32,
      "deaths": 63,
      "deaths_rate_per_10k": 4.39095,
      "deaths_rate_per_100k": 43.9095,
      "total_tested": 50053,
      "test_rate_per_10k": 3488.57,
      "test_rate_per_100k": 34885.7,
      "total_population": 143477,
      "latitude": 41.509500,
      "longitude": -90.578700
    },
    {
      "County": "Saline",
      "confirmed_cases": 186,
      "confirmed_rate_per_10k": 77.8047,
      "confirmed_rate_per_100k": 778.047,
      "deaths": 3,
      "deaths_rate_per_10k": 1.25492,
      "deaths_rate_per_100k": 12.5492,
      "total_tested": 5284,
      "test_rate_per_10k": 2210.32,
      "test_rate_per_100k": 22103.2,
      "total_population": 23906,
      "latitude": 37.715000,
      "longitude": -88.556500
    },
    {
      "County": "Sangamon",
      "confirmed_cases": 2004,
      "confirmed_rate_per_10k": 102.586,
      "confirmed_rate_per_100k": 1025.86,
      "deaths": 39,
      "deaths_rate_per_10k": 1.99644,
      "deaths_rate_per_100k": 19.9644,
      "total_tested": 84967,
      "test_rate_per_10k": 4349.52,
      "test_rate_per_100k": 43495.2,
      "total_population": 195348,
      "latitude": 39.733700,
      "longitude": -89.625200
    },
    {
      "County": "Schuyler",
      "confirmed_cases": 31,
      "confirmed_rate_per_10k": 44.882,
      "confirmed_rate_per_100k": 448.82,
      "deaths": 0,
      "deaths_rate_per_10k": 0,
      "deaths_rate_per_100k": 0,
      "total_tested": 1470,
      "test_rate_per_10k": 2128.28,
      "test_rate_per_100k": 21282.8,
      "total_population": 6907,
      "latitude": 40.184500,
      "longitude": -90.639400
    },
    {
      "County": "Scott",
      "confirmed_cases": 52,
      "confirmed_rate_per_10k": 105.562,
      "confirmed_rate_per_100k": 1055.62,
      "deaths": 0,
      "deaths_rate_per_10k": 0,
      "deaths_rate_per_100k": 0,
      "total_tested": 1712,
      "test_rate_per_10k": 3475.44,
      "test_rate_per_100k": 34754.4,
      "total_population": 4926,
      "latitude": 39.609500,
      "longitude": -90.488000
    },
    {
      "County": "Shelby",
      "confirmed_cases": 264,
      "confirmed_rate_per_10k": 121.43,
      "confirmed_rate_per_100k": 1214.3,
      "deaths": 3,
      "deaths_rate_per_10k": 1.37988,
      "deaths_rate_per_100k": 13.7988,
      "total_tested": 5695,
      "test_rate_per_10k": 2619.47,
      "test_rate_per_100k": 26194.7,
      "total_population": 21741,
      "latitude": 39.398100,
      "longitude": -88.864700
    },
    {
      "County": "St. Clair",
      "confirmed_cases": 5751,
      "confirmed_rate_per_10k": 220.295,
      "confirmed_rate_per_100k": 2202.95,
      "deaths": 175,
      "deaths_rate_per_10k": 6.70347,
      "deaths_rate_per_100k": 67.0347,
      "total_tested": 66929,
      "test_rate_per_10k": 2563.75,
      "test_rate_per_100k": 25637.5,
      "total_population": 261059,
      "latitude": 38.400800,
      "longitude": -89.925300
    },
    {
      "County": "Stark",
      "confirmed_cases": 41,
      "confirmed_rate_per_10k": 75.5482,
      "confirmed_rate_per_100k": 755.482,
      "deaths": 1,
      "deaths_rate_per_10k": 1.84264,
      "deaths_rate_per_100k": 18.4264,
      "total_tested": 1501,
      "test_rate_per_10k": 2765.8,
      "test_rate_per_100k": 27658,
      "total_population": 5427,
      "latitude": 41.079600,
      "longitude": -89.813000
    },
    {
      "County": "Stephenson",
      "confirmed_cases": 402,
      "confirmed_rate_per_10k": 89.8264,
      "confirmed_rate_per_100k": 898.264,
      "deaths": 6,
      "deaths_rate_per_10k": 1.34069,
      "deaths_rate_per_100k": 13.4069,
      "total_tested": 9890,
      "test_rate_per_10k": 2209.91,
      "test_rate_per_100k": 22099.1,
      "total_population": 44753,
      "latitude": 42.314500,
      "longitude": -89.625200
    },
    {
      "County": "Tazewell",
      "confirmed_cases": 1284,
      "confirmed_rate_per_10k": 97.0316,
      "confirmed_rate_per_100k": 970.316,
      "deaths": 11,
      "deaths_rate_per_10k": 0.831268,
      "deaths_rate_per_100k": 8.31268,
      "total_tested": 47606,
      "test_rate_per_10k": 3597.58,
      "test_rate_per_100k": 35975.8,
      "total_population": 132328,
      "latitude": 40.552200,
      "longitude": -89.474200
    },
    {
      "County": "Union",
      "confirmed_cases": 451,
      "confirmed_rate_per_10k": 267.799,
      "confirmed_rate_per_100k": 2677.99,
      "deaths": 24,
      "deaths_rate_per_10k": 14.2509,
      "deaths_rate_per_100k": 142.509,
      "total_tested": 5294,
      "test_rate_per_10k": 3143.52,
      "test_rate_per_100k": 31435.2,
      "total_population": 16841,
      "latitude": 37.508700,
      "longitude": -89.284700
    },
    {
      "County": "Vermilion",
      "confirmed_cases": 407,
      "confirmed_rate_per_10k": 52.9907,
      "confirmed_rate_per_100k": 529.907,
      "deaths": 4,
      "deaths_rate_per_10k": 0.520793,
      "deaths_rate_per_100k": 5.20793,
      "total_tested": 20743,
      "test_rate_per_10k": 2700.7,
      "test_rate_per_100k": 27007,
      "total_population": 76806,
      "latitude": 40.122500,
      "longitude": -87.697600
    },
    {
      "County": "Wabash",
      "confirmed_cases": 123,
      "confirmed_rate_per_10k": 106.503,
      "confirmed_rate_per_100k": 1065.03,
      "deaths": 1,
      "deaths_rate_per_10k": 0.865876,
      "deaths_rate_per_100k": 8.65876,
      "total_tested": 2088,
      "test_rate_per_10k": 1807.95,
      "test_rate_per_100k": 18079.5,
      "total_population": 11549,
      "latitude": 38.422600,
      "longitude": -87.815700
    },
    {
      "County": "Warren",
      "confirmed_cases": 276,
      "confirmed_rate_per_10k": 162.048,
      "confirmed_rate_per_100k": 1620.48,
      "deaths": 1,
      "deaths_rate_per_10k": 0.58713,
      "deaths_rate_per_100k": 5.8713,
      "total_tested": 3289,
      "test_rate_per_10k": 1931.07,
      "test_rate_per_100k": 19310.7,
      "total_population": 17032,
      "latitude": 40.875900,
      "longitude": -90.677300
    },
    {
      "County": "Washington",
      "confirmed_cases": 138,
      "confirmed_rate_per_10k": 98.6066,
      "confirmed_rate_per_100k": 986.066,
      "deaths": 1,
      "deaths_rate_per_10k": 0.714541,
      "deaths_rate_per_100k": 7.14541,
      "total_tested": 2438,
      "test_rate_per_10k": 1742.05,
      "test_rate_per_100k": 17420.5,
      "total_population": 13995,
      "latitude": 38.398900,
      "longitude": -89.322700
    },
    {
      "County": "Wayne",
      "confirmed_cases": 145,
      "confirmed_rate_per_10k": 88.7828,
      "confirmed_rate_per_100k": 887.828,
      "deaths": 2,
      "deaths_rate_per_10k": 1.22459,
      "deaths_rate_per_100k": 12.2459,
      "total_tested": 3007,
      "test_rate_per_10k": 1841.17,
      "test_rate_per_100k": 18411.7,
      "total_population": 16332,
      "latitude": 38.390000,
      "longitude": -88.401600
    },
    {
      "County": "White",
      "confirmed_cases": 144,
      "confirmed_rate_per_10k": 105.379,
      "confirmed_rate_per_100k": 1053.79,
      "deaths": 0,
      "deaths_rate_per_10k": 0,
      "deaths_rate_per_100k": 0,
      "total_tested": 3074,
      "test_rate_per_10k": 2249.54,
      "test_rate_per_100k": 22495.4,
      "total_population": 13665,
      "latitude": 38.050100,
      "longitude": -88.246100
    },
    {
      "County": "Whiteside",
      "confirmed_cases": 590,
      "confirmed_rate_per_10k": 106.066,
      "confirmed_rate_per_100k": 1060.66,
      "deaths": 19,
      "deaths_rate_per_10k": 3.41567,
      "deaths_rate_per_100k": 34.1567,
      "total_tested": 11951,
      "test_rate_per_10k": 2148.46,
      "test_rate_per_100k": 21484.6,
      "total_population": 55626,
      "latitude": 41.760600,
      "longitude": -89.850500
    },
    {
      "County": "Will",
      "confirmed_cases": 12415,
      "confirmed_rate_per_10k": 179.327,
      "confirmed_rate_per_100k": 1793.27,
      "deaths": 361,
      "deaths_rate_per_10k": 5.21443,
      "deaths_rate_per_100k": 52.1443,
      "total_tested": 180160,
      "test_rate_per_10k": 2602.3,
      "test_rate_per_100k": 26023,
      "total_population": 692310,
      "latitude": 41.505500,
      "longitude": -88.090100
    },
    {
      "County": "Williamson",
      "confirmed_cases": 1065,
      "confirmed_rate_per_10k": 158.822,
      "confirmed_rate_per_100k": 1588.22,
      "deaths": 20,
      "deaths_rate_per_10k": 2.98258,
      "deaths_rate_per_100k": 29.8258,
      "total_tested": 20666,
      "test_rate_per_10k": 3081.9,
      "test_rate_per_100k": 30819,
      "total_population": 67056,
      "latitude": 37.718300,
      "longitude": -88.864700
    },
    {
      "County": "Winnebago",
      "confirmed_cases": 4572,
      "confirmed_rate_per_10k": 160.94,
      "confirmed_rate_per_100k": 1609.4,
      "deaths": 147,
      "deaths_rate_per_10k": 5.17458,
      "deaths_rate_per_100k": 51.7458,
      "total_tested": 74359,
      "test_rate_per_10k": 2617.53,
      "test_rate_per_100k": 26175.3,
      "total_population": 284081,
      "latitude": 42.312100,
      "longitude": -89.170600
    },
    {
      "County": "Woodford",
      "confirmed_cases": 329,
      "confirmed_rate_per_10k": 85.5367,
      "confirmed_rate_per_100k": 855.367,
      "deaths": 3,
      "deaths_rate_per_10k": 0.77997,
      "deaths_rate_per_100k": 7.7997,
      "total_tested": 10073,
      "test_rate_per_10k": 2618.88,
      "test_rate_per_100k": 26188.8,
      "total_population": 38463,
      "latitude": 40.712900,
      "longitude": -89.170600
    }
  ]
}
