{
  "LastUpdateDate": {
    "year": 2020,
    "month": 7,
    "day": 23
  },
  "county_rates": [
    {
      "County": "Adams",
      "confirmed_cases": 302,
      "confirmed_rate_per_10k": 46.5116,
      "confirmed_rate_per_100k": 465.116,
      "deaths": 1,
      "deaths_rate_per_10k": 0.154012,
      "deaths_rate_per_100k": 1.54012,
      "total_tested": 14224,
      "test_rate_per_10k": 2190.67,
      "test_rate_per_100k": 21906.7,
      "total_population": 64930,
      "latitude": 40.057800,
      "longitude": -91.135300
    },
    {
      "County": "Alexander",
      "confirmed_cases": 33,
      "confirmed_rate_per_10k": 57.4113,
      "confirmed_rate_per_100k": 574.113,
      "deaths": 0,
      "deaths_rate_per_10k": 0,
      "deaths_rate_per_100k": 0,
      "total_tested": 870,
      "test_rate_per_10k": 1513.57,
      "test_rate_per_100k": 15135.7,
      "total_population": 5748,
      "latitude": 37.167000,
      "longitude": -89.360600
    },
    {
      "County": "Bond",
      "confirmed_cases": 30,
      "confirmed_rate_per_10k": 16.7075,
      "confirmed_rate_per_100k": 167.075,
      "deaths": 1,
      "deaths_rate_per_10k": 0.556917,
      "deaths_rate_per_100k": 5.56917,
      "total_tested": 1861,
      "test_rate_per_10k": 1036.42,
      "test_rate_per_100k": 10364.2,
      "total_population": 17956,
      "latitude": 38.903000,
      "longitude": -89.474200
    },
    {
      "County": "Boone",
      "confirmed_cases": 669,
      "confirmed_rate_per_10k": 130.404,
      "confirmed_rate_per_100k": 1304.04,
      "deaths": 22,
      "deaths_rate_per_10k": 4.28833,
      "deaths_rate_per_100k": 42.8833,
      "total_tested": 7378,
      "test_rate_per_10k": 1438.15,
      "test_rate_per_100k": 14381.5,
      "total_population": 51302,
      "latitude": 42.348500,
      "longitude": -88.826300
    },
    {
      "County": "Brown",
      "confirmed_cases": 12,
      "confirmed_rate_per_10k": 18.7823,
      "confirmed_rate_per_100k": 187.823,
      "deaths": 0,
      "deaths_rate_per_10k": 0,
      "deaths_rate_per_100k": 0,
      "total_tested": 663,
      "test_rate_per_10k": 1037.72,
      "test_rate_per_100k": 10377.2,
      "total_population": 6389,
      "latitude": 39.938000,
      "longitude": -90.715300
    },
    {
      "County": "Bureau",
      "confirmed_cases": 65,
      "confirmed_rate_per_10k": 20.1301,
      "confirmed_rate_per_100k": 201.301,
      "deaths": 2,
      "deaths_rate_per_10k": 0.619387,
      "deaths_rate_per_100k": 6.19387,
      "total_tested": 3376,
      "test_rate_per_10k": 1045.52,
      "test_rate_per_100k": 10455.2,
      "total_population": 32290,
      "latitude": 41.359900,
      "longitude": -89.474200
    },
    {
      "County": "Calhoun",
      "confirmed_cases": 4,
      "confirmed_rate_per_10k": 8.86525,
      "confirmed_rate_per_100k": 88.6525,
      "deaths": 0,
      "deaths_rate_per_10k": 0,
      "deaths_rate_per_100k": 0,
      "total_tested": 372,
      "test_rate_per_10k": 824.468,
      "test_rate_per_100k": 8244.68,
      "total_population": 4512,
      "latitude": 39.173300,
      "longitude": -90.658300
    },
    {
      "County": "Carroll",
      "confirmed_cases": 27,
      "confirmed_rate_per_10k": 18.5491,
      "confirmed_rate_per_100k": 185.491,
      "deaths": 2,
      "deaths_rate_per_10k": 1.374,
      "deaths_rate_per_100k": 13.74,
      "total_tested": 1209,
      "test_rate_per_10k": 830.585,
      "test_rate_per_100k": 8305.85,
      "total_population": 14556,
      "latitude": 42.038600,
      "longitude": -89.962700
    },
    {
      "County": "Cass",
      "confirmed_cases": 161,
      "confirmed_rate_per_10k": 128.226,
      "confirmed_rate_per_100k": 1282.26,
      "deaths": 11,
      "deaths_rate_per_10k": 8.76075,
      "deaths_rate_per_100k": 87.6075,
      "total_tested": 2446,
      "test_rate_per_10k": 1948.07,
      "test_rate_per_100k": 19480.7,
      "total_population": 12556,
      "latitude": 39.939900,
      "longitude": -90.262000
    },
    {
      "County": "Champaign",
      "confirmed_cases": 1318,
      "confirmed_rate_per_10k": 62.5056,
      "confirmed_rate_per_100k": 625.056,
      "deaths": 17,
      "deaths_rate_per_10k": 0.806218,
      "deaths_rate_per_100k": 8.06218,
      "total_tested": 56929,
      "test_rate_per_10k": 2699.84,
      "test_rate_per_100k": 26998.4,
      "total_population": 210861,
      "latitude": 40.213900,
      "longitude": -88.246100
    },
    {
      "County": "Chicago",
      "confirmed_cases": 58080,
      "confirmed_rate_per_10k": 214.635,
      "confirmed_rate_per_100k": 2146.35,
      "deaths": 2743,
      "deaths_rate_per_10k": 10.1368,
      "deaths_rate_per_100k": 101.368,
      "total_tested": 586719,
      "test_rate_per_10k": 2168.22,
      "test_rate_per_100k": 21682.2,
      "total_population": 2.70599e+006,
      "latitude": 41.789896,
      "longitude": -87.627734
    },
    {
      "County": "Christian",
      "confirmed_cases": 65,
      "confirmed_rate_per_10k": 20.6671,
      "confirmed_rate_per_100k": 206.671,
      "deaths": 4,
      "deaths_rate_per_10k": 1.27182,
      "deaths_rate_per_100k": 12.7182,
      "total_tested": 4049,
      "test_rate_per_10k": 1287.4,
      "test_rate_per_100k": 12874,
      "total_population": 31451,
      "latitude": 39.567200,
      "longitude": -89.322700
    },
    {
      "County": "Clark",
      "confirmed_cases": 51,
      "confirmed_rate_per_10k": 31.7105,
      "confirmed_rate_per_100k": 317.105,
      "deaths": 0,
      "deaths_rate_per_10k": 0,
      "deaths_rate_per_100k": 0,
      "total_tested": 1737,
      "test_rate_per_10k": 1080.02,
      "test_rate_per_100k": 10800.2,
      "total_population": 16083,
      "latitude": 39.382400,
      "longitude": -87.776300
    },
    {
      "County": "Clay",
      "confirmed_cases": 9,
      "confirmed_rate_per_10k": 7.09499,
      "confirmed_rate_per_100k": 70.9499,
      "deaths": 0,
      "deaths_rate_per_10k": 0,
      "deaths_rate_per_100k": 0,
      "total_tested": 1494,
      "test_rate_per_10k": 1177.77,
      "test_rate_per_100k": 11777.7,
      "total_population": 12685,
      "latitude": 38.727900,
      "longitude": -88.556500
    },
    {
      "County": "Clinton",
      "confirmed_cases": 288,
      "confirmed_rate_per_10k": 90.8833,
      "confirmed_rate_per_100k": 908.833,
      "deaths": 17,
      "deaths_rate_per_10k": 5.36464,
      "deaths_rate_per_100k": 53.6464,
      "total_tested": 5308,
      "test_rate_per_10k": 1675.03,
      "test_rate_per_100k": 16750.3,
      "total_population": 31689,
      "latitude": 38.568400,
      "longitude": -89.625200
    },
    {
      "County": "Coles",
      "confirmed_cases": 273,
      "confirmed_rate_per_10k": 54.7599,
      "confirmed_rate_per_100k": 547.599,
      "deaths": 17,
      "deaths_rate_per_10k": 3.40996,
      "deaths_rate_per_100k": 34.0996,
      "total_tested": 9306,
      "test_rate_per_10k": 1866.65,
      "test_rate_per_100k": 18666.5,
      "total_population": 49854,
      "latitude": 39.556000,
      "longitude": -88.246100
    },
    {
      "County": "Cook",
      "confirmed_cases": 42715,
      "confirmed_rate_per_10k": 175.055,
      "confirmed_rate_per_100k": 1750.55,
      "deaths": 2067,
      "deaths_rate_per_10k": 8.47102,
      "deaths_rate_per_100k": 84.7102,
      "total_tested": 487043,
      "test_rate_per_10k": 1996.01,
      "test_rate_per_100k": 19960.1,
      "total_population": 2.44008e+006,
      "latitude": 42.050784,
      "longitude": -87.963759
    },
    {
      "County": "Crawford",
      "confirmed_cases": 28,
      "confirmed_rate_per_10k": 14.4085,
      "confirmed_rate_per_100k": 144.085,
      "deaths": 0,
      "deaths_rate_per_10k": 0,
      "deaths_rate_per_100k": 0,
      "total_tested": 1350,
      "test_rate_per_10k": 694.695,
      "test_rate_per_100k": 6946.95,
      "total_population": 19433,
      "latitude": 41.833000,
      "longitude": -88.710900
    },
    {
      "County": "Cumberland",
      "confirmed_cases": 37,
      "confirmed_rate_per_10k": 33.4993,
      "confirmed_rate_per_100k": 334.993,
      "deaths": 1,
      "deaths_rate_per_10k": 0.905387,
      "deaths_rate_per_100k": 9.05387,
      "total_tested": 1594,
      "test_rate_per_10k": 1443.19,
      "test_rate_per_100k": 14431.9,
      "total_population": 11045,
      "latitude": 39.265400,
      "longitude": -88.207200
    },
    {
      "County": "De Witt",
      "confirmed_cases": 24,
      "confirmed_rate_per_10k": 15.5976,
      "confirmed_rate_per_100k": 155.976,
      "deaths": 0,
      "deaths_rate_per_10k": 0,
      "deaths_rate_per_100k": 0,
      "total_tested": 1509,
      "test_rate_per_10k": 980.698,
      "test_rate_per_100k": 9806.98,
      "total_population": 15387,
      "latitude": 40.181000,
      "longitude": -88.903100
    },
    {
      "County": "DeKalb",
      "confirmed_cases": 749,
      "confirmed_rate_per_10k": 71.3442,
      "confirmed_rate_per_100k": 713.442,
      "deaths": 24,
      "deaths_rate_per_10k": 2.28606,
      "deaths_rate_per_100k": 22.8606,
      "total_tested": 13208,
      "test_rate_per_10k": 1258.1,
      "test_rate_per_100k": 12581,
      "total_population": 104984,
      "latitude": 41.833000,
      "longitude": -88.710900
    },
    {
      "County": "Douglas",
      "confirmed_cases": 92,
      "confirmed_rate_per_10k": 41.8258,
      "confirmed_rate_per_100k": 418.258,
      "deaths": 1,
      "deaths_rate_per_10k": 0.454628,
      "deaths_rate_per_100k": 4.54628,
      "total_tested": 2814,
      "test_rate_per_10k": 1279.32,
      "test_rate_per_100k": 12793.2,
      "total_population": 21996,
      "latitude": 39.761800,
      "longitude": -88.207200
    },
    {
      "County": "DuPage",
      "confirmed_cases": 10627,
      "confirmed_rate_per_10k": 110.607,
      "confirmed_rate_per_100k": 1106.07,
      "deaths": 502,
      "deaths_rate_per_10k": 5.22485,
      "deaths_rate_per_100k": 52.2485,
      "total_tested": 151788,
      "test_rate_per_10k": 1579.82,
      "test_rate_per_100k": 15798.2,
      "total_population": 960793,
      "latitude": 41.824400,
      "longitude": -88.090100
    },
    {
      "County": "Edgar",
      "confirmed_cases": 20,
      "confirmed_rate_per_10k": 11.8631,
      "confirmed_rate_per_100k": 118.631,
      "deaths": 0,
      "deaths_rate_per_10k": 0,
      "deaths_rate_per_100k": 0,
      "total_tested": 1619,
      "test_rate_per_10k": 960.318,
      "test_rate_per_100k": 9603.18,
      "total_population": 16859,
      "latitude": 39.713100,
      "longitude": -87.776300
    },
    {
      "County": "Edwards",
      "confirmed_cases": 6,
      "confirmed_rate_per_10k": 10.4131,
      "confirmed_rate_per_100k": 104.131,
      "deaths": 0,
      "deaths_rate_per_10k": 0,
      "deaths_rate_per_100k": 0,
      "total_tested": 349,
      "test_rate_per_10k": 605.692,
      "test_rate_per_100k": 6056.92,
      "total_population": 5762,
      "latitude": 38.426800,
      "longitude": -88.051000
    },
    {
      "County": "Effingham",
      "confirmed_cases": 51,
      "confirmed_rate_per_10k": 15.0221,
      "confirmed_rate_per_100k": 150.221,
      "deaths": 1,
      "deaths_rate_per_10k": 0.294551,
      "deaths_rate_per_100k": 2.94551,
      "total_tested": 4074,
      "test_rate_per_10k": 1200,
      "test_rate_per_100k": 12000,
      "total_population": 33950,
      "latitude": 39.062200,
      "longitude": -88.556500
    },
    {
      "County": "Fayette",
      "confirmed_cases": 40,
      "confirmed_rate_per_10k": 18.5117,
      "confirmed_rate_per_100k": 185.117,
      "deaths": 3,
      "deaths_rate_per_10k": 1.38837,
      "deaths_rate_per_100k": 13.8837,
      "total_tested": 2182,
      "test_rate_per_10k": 1009.81,
      "test_rate_per_100k": 10098.1,
      "total_population": 21608,
      "latitude": 39.067000,
      "longitude": -89.017900
    },
    {
      "County": "Ford",
      "confirmed_cases": 35,
      "confirmed_rate_per_10k": 26.7461,
      "confirmed_rate_per_100k": 267.461,
      "deaths": 1,
      "deaths_rate_per_10k": 0.764175,
      "deaths_rate_per_100k": 7.64175,
      "total_tested": 2060,
      "test_rate_per_10k": 1574.2,
      "test_rate_per_100k": 15742,
      "total_population": 13086,
      "latitude": 40.498900,
      "longitude": -88.207200
    },
    {
      "County": "Franklin",
      "confirmed_cases": 84,
      "confirmed_rate_per_10k": 21.3144,
      "confirmed_rate_per_100k": 213.144,
      "deaths": 0,
      "deaths_rate_per_10k": 0,
      "deaths_rate_per_100k": 0,
      "total_tested": 4328,
      "test_rate_per_10k": 1098.2,
      "test_rate_per_100k": 10982,
      "total_population": 39410,
      "latitude": 38.015700,
      "longitude": -88.903100
    },
    {
      "County": "Fulton",
      "confirmed_cases": 20,
      "confirmed_rate_per_10k": 5.70337,
      "confirmed_rate_per_100k": 57.0337,
      "deaths": 0,
      "deaths_rate_per_10k": 0,
      "deaths_rate_per_100k": 0,
      "total_tested": 3964,
      "test_rate_per_10k": 1130.41,
      "test_rate_per_100k": 11304.1,
      "total_population": 35067,
      "latitude": 40.553200,
      "longitude": -90.224500
    },
    {
      "County": "Gallatin",
      "confirmed_cases": 26,
      "confirmed_rate_per_10k": 51.5975,
      "confirmed_rate_per_100k": 515.975,
      "deaths": 0,
      "deaths_rate_per_10k": 0,
      "deaths_rate_per_100k": 0,
      "total_tested": 310,
      "test_rate_per_10k": 615.201,
      "test_rate_per_100k": 6152.01,
      "total_population": 5039,
      "latitude": 37.710800,
      "longitude": -88.246100
    },
    {
      "County": "Greene",
      "confirmed_cases": 14,
      "confirmed_rate_per_10k": 10.5684,
      "confirmed_rate_per_100k": 105.684,
      "deaths": 0,
      "deaths_rate_per_10k": 0,
      "deaths_rate_per_100k": 0,
      "total_tested": 1279,
      "test_rate_per_10k": 965.502,
      "test_rate_per_100k": 9655.02,
      "total_population": 13247,
      "latitude": 39.403000,
      "longitude": -90.374800
    },
    {
      "County": "Grundy",
      "confirmed_cases": 231,
      "confirmed_rate_per_10k": 44.1666,
      "confirmed_rate_per_100k": 441.666,
      "deaths": 5,
      "deaths_rate_per_10k": 0.955986,
      "deaths_rate_per_100k": 9.55986,
      "total_tested": 5322,
      "test_rate_per_10k": 1017.55,
      "test_rate_per_100k": 10175.5,
      "total_population": 52302,
      "latitude": 41.350100,
      "longitude": -88.401600
    },
    {
      "County": "Hamilton",
      "confirmed_cases": 11,
      "confirmed_rate_per_10k": 13.0517,
      "confirmed_rate_per_100k": 130.517,
      "deaths": 0,
      "deaths_rate_per_10k": 0,
      "deaths_rate_per_100k": 0,
      "total_tested": 584,
      "test_rate_per_10k": 692.928,
      "test_rate_per_100k": 6929.28,
      "total_population": 8428,
      "latitude": 38.054300,
      "longitude": -88.556500
    },
    {
      "County": "Hancock",
      "confirmed_cases": 22,
      "confirmed_rate_per_10k": 11.9513,
      "confirmed_rate_per_100k": 119.513,
      "deaths": 1,
      "deaths_rate_per_10k": 0.543242,
      "deaths_rate_per_100k": 5.43242,
      "total_tested": 2771,
      "test_rate_per_10k": 1505.32,
      "test_rate_per_100k": 15053.2,
      "total_population": 18408,
      "latitude": 40.384900,
      "longitude": -91.135300
    },
    {
      "County": "Hardin",
      "confirmed_cases": 9,
      "confirmed_rate_per_10k": 21.8341,
      "confirmed_rate_per_100k": 218.341,
      "deaths": 0,
      "deaths_rate_per_10k": 0,
      "deaths_rate_per_100k": 0,
      "total_tested": 331,
      "test_rate_per_10k": 803.008,
      "test_rate_per_100k": 8030.08,
      "total_population": 4122,
      "latitude": 37.499500,
      "longitude": -88.362800
    },
    {
      "County": "Henderson",
      "confirmed_cases": 8,
      "confirmed_rate_per_10k": 13.1622,
      "confirmed_rate_per_100k": 131.622,
      "deaths": 0,
      "deaths_rate_per_10k": 0,
      "deaths_rate_per_100k": 0,
      "total_tested": 502,
      "test_rate_per_10k": 825.93,
      "test_rate_per_100k": 8259.3,
      "total_population": 6078,
      "latitude": 40.833600,
      "longitude": -90.943800
    },
    {
      "County": "Henry",
      "confirmed_cases": 153,
      "confirmed_rate_per_10k": 32.1577,
      "confirmed_rate_per_100k": 321.577,
      "deaths": 1,
      "deaths_rate_per_10k": 0.210181,
      "deaths_rate_per_100k": 2.10181,
      "total_tested": 6951,
      "test_rate_per_10k": 1460.97,
      "test_rate_per_100k": 14609.7,
      "total_population": 47578,
      "latitude": 41.361100,
      "longitude": -90.074700
    },
    {
      "County": "Iroquois",
      "confirmed_cases": 202,
      "confirmed_rate_per_10k": 77.9381,
      "confirmed_rate_per_100k": 779.381,
      "deaths": 5,
      "deaths_rate_per_10k": 1.92916,
      "deaths_rate_per_100k": 19.2916,
      "total_tested": 5107,
      "test_rate_per_10k": 1970.45,
      "test_rate_per_100k": 19704.5,
      "total_population": 25918,
      "latitude": 40.774000,
      "longitude": -87.697600
    },
    {
      "County": "Jackson",
      "confirmed_cases": 450,
      "confirmed_rate_per_10k": 74.9813,
      "confirmed_rate_per_100k": 749.813,
      "deaths": 19,
      "deaths_rate_per_10k": 3.16588,
      "deaths_rate_per_100k": 31.6588,
      "total_tested": 7861,
      "test_rate_per_10k": 1309.84,
      "test_rate_per_100k": 13098.4,
      "total_population": 60015,
      "latitude": 37.721800,
      "longitude": -89.322700
    },
    {
      "County": "Jasper",
      "confirmed_cases": 49,
      "confirmed_rate_per_10k": 54.3659,
      "confirmed_rate_per_100k": 543.659,
      "deaths": 7,
      "deaths_rate_per_10k": 7.76656,
      "deaths_rate_per_100k": 77.6656,
      "total_tested": 1220,
      "test_rate_per_10k": 1353.6,
      "test_rate_per_100k": 13536,
      "total_population": 9013,
      "latitude": 39.055500,
      "longitude": -88.090100
    },
    {
      "County": "Jefferson",
      "confirmed_cases": 142,
      "confirmed_rate_per_10k": 38.4397,
      "confirmed_rate_per_100k": 384.397,
      "deaths": 17,
      "deaths_rate_per_10k": 4.60193,
      "deaths_rate_per_100k": 46.0193,
      "total_tested": 4021,
      "test_rate_per_10k": 1088.49,
      "test_rate_per_100k": 10884.9,
      "total_population": 36941,
      "latitude": 38.226700,
      "longitude": -88.864700
    },
    {
      "County": "Jersey",
      "confirmed_cases": 57,
      "confirmed_rate_per_10k": 32.8058,
      "confirmed_rate_per_100k": 328.058,
      "deaths": 1,
      "deaths_rate_per_10k": 0.57554,
      "deaths_rate_per_100k": 5.7554,
      "total_tested": 1807,
      "test_rate_per_10k": 1040,
      "test_rate_per_100k": 10400,
      "total_population": 17375,
      "latitude": 39.070500,
      "longitude": -90.374800
    },
    {
      "County": "Jo Daviess",
      "confirmed_cases": 84,
      "confirmed_rate_per_10k": 40.4118,
      "confirmed_rate_per_100k": 404.118,
      "deaths": 1,
      "deaths_rate_per_10k": 0.481093,
      "deaths_rate_per_100k": 4.81093,
      "total_tested": 2393,
      "test_rate_per_10k": 1151.26,
      "test_rate_per_100k": 11512.6,
      "total_population": 20786,
      "latitude": 42.314900,
      "longitude": -90.224500
    },
    {
      "County": "Johnson",
      "confirmed_cases": 47,
      "confirmed_rate_per_10k": 35.2007,
      "confirmed_rate_per_100k": 352.007,
      "deaths": 0,
      "deaths_rate_per_10k": 0,
      "deaths_rate_per_100k": 0,
      "total_tested": 1103,
      "test_rate_per_10k": 826.093,
      "test_rate_per_100k": 8260.93,
      "total_population": 13352,
      "latitude": 37.420400,
      "longitude": -88.903100
    },
    {
      "County": "Kane",
      "confirmed_cases": 8544,
      "confirmed_rate_per_10k": 180.314,
      "confirmed_rate_per_100k": 1803.14,
      "deaths": 294,
      "deaths_rate_per_10k": 6.20461,
      "deaths_rate_per_100k": 62.0461,
      "total_tested": 82271,
      "test_rate_per_10k": 1736.26,
      "test_rate_per_100k": 17362.6,
      "total_population": 473841,
      "latitude": 41.987900,
      "longitude": -88.401600
    },
    {
      "County": "Kankakee",
      "confirmed_cases": 1563,
      "confirmed_rate_per_10k": 141.749,
      "confirmed_rate_per_100k": 1417.49,
      "deaths": 66,
      "deaths_rate_per_10k": 5.98558,
      "deaths_rate_per_100k": 59.8558,
      "total_tested": 25028,
      "test_rate_per_10k": 2269.8,
      "test_rate_per_100k": 22698,
      "total_population": 110265,
      "latitude": 41.179100,
      "longitude": -87.776300
    },
    {
      "County": "Kendall",
      "confirmed_cases": 1160,
      "confirmed_rate_per_10k": 101.125,
      "confirmed_rate_per_100k": 1011.25,
      "deaths": 21,
      "deaths_rate_per_10k": 1.83072,
      "deaths_rate_per_100k": 18.3072,
      "total_tested": 16096,
      "test_rate_per_10k": 1403.2,
      "test_rate_per_100k": 14032,
      "total_population": 114709,
      "latitude": 41.550700,
      "longitude": -88.440400
    },
    {
      "County": "Knox",
      "confirmed_cases": 199,
      "confirmed_rate_per_10k": 40.1939,
      "confirmed_rate_per_100k": 401.939,
      "deaths": 1,
      "deaths_rate_per_10k": 0.201979,
      "deaths_rate_per_100k": 2.01979,
      "total_tested": 5563,
      "test_rate_per_10k": 1123.61,
      "test_rate_per_100k": 11236.1,
      "total_population": 49510,
      "latitude": 40.877600,
      "longitude": -90.224500
    },
    {
      "County": "Lake",
      "confirmed_cases": 11159,
      "confirmed_rate_per_10k": 154.214,
      "confirmed_rate_per_100k": 1542.14,
      "deaths": 438,
      "deaths_rate_per_10k": 6.05302,
      "deaths_rate_per_100k": 60.5302,
      "total_tested": 123806,
      "test_rate_per_10k": 1710.96,
      "test_rate_per_100k": 17109.6,
      "total_population": 723606,
      "latitude": 42.368900,
      "longitude": -87.827200
    },
    {
      "County": "LaSalle",
      "confirmed_cases": 379,
      "confirmed_rate_per_10k": 34.6863,
      "confirmed_rate_per_100k": 346.863,
      "deaths": 18,
      "deaths_rate_per_10k": 1.64737,
      "deaths_rate_per_100k": 16.4737,
      "total_tested": 12349,
      "test_rate_per_10k": 1130.19,
      "test_rate_per_100k": 11301.9,
      "total_population": 109265,
      "latitude": 41.436400,
      "longitude": -88.941400
    },
    {
      "County": "Lawrence",
      "confirmed_cases": 32,
      "confirmed_rate_per_10k": 21.2794,
      "confirmed_rate_per_100k": 212.794,
      "deaths": 0,
      "deaths_rate_per_10k": 0,
      "deaths_rate_per_100k": 0,
      "total_tested": 1722,
      "test_rate_per_10k": 1145.1,
      "test_rate_per_100k": 11451,
      "total_population": 15038,
      "latitude": 38.715800,
      "longitude": -87.776300
    },
    {
      "County": "Lee",
      "confirmed_cases": 120,
      "confirmed_rate_per_10k": 34.6921,
      "confirmed_rate_per_100k": 346.921,
      "deaths": 2,
      "deaths_rate_per_10k": 0.578202,
      "deaths_rate_per_100k": 5.78202,
      "total_tested": 3299,
      "test_rate_per_10k": 953.744,
      "test_rate_per_100k": 9537.44,
      "total_population": 34590,
      "latitude": 41.679000,
      "longitude": -89.322700
    },
    {
      "County": "Livingston",
      "confirmed_cases": 65,
      "confirmed_rate_per_10k": 19.8734,
      "confirmed_rate_per_100k": 198.734,
      "deaths": 2,
      "deaths_rate_per_10k": 0.61149,
      "deaths_rate_per_100k": 6.1149,
      "total_tested": 3898,
      "test_rate_per_10k": 1191.79,
      "test_rate_per_100k": 11917.9,
      "total_population": 32707,
      "latitude": 40.868900,
      "longitude": -88.556500
    },
    {
      "County": "Logan",
      "confirmed_cases": 59,
      "confirmed_rate_per_10k": 20.7732,
      "confirmed_rate_per_100k": 207.732,
      "deaths": 0,
      "deaths_rate_per_10k": 0,
      "deaths_rate_per_100k": 0,
      "total_tested": 5794,
      "test_rate_per_10k": 2040,
      "test_rate_per_100k": 20400,
      "total_population": 28402,
      "latitude": 40.061300,
      "longitude": -89.322700
    },
    {
      "County": "Macon",
      "confirmed_cases": 297,
      "confirmed_rate_per_10k": 28.8462,
      "confirmed_rate_per_100k": 288.462,
      "deaths": 22,
      "deaths_rate_per_10k": 2.13675,
      "deaths_rate_per_100k": 21.3675,
      "total_tested": 12973,
      "test_rate_per_10k": 1260,
      "test_rate_per_100k": 12600,
      "total_population": 102960,
      "latitude": 39.894900,
      "longitude": -89.017900
    },
    {
      "County": "Macoupin",
      "confirmed_cases": 101,
      "confirmed_rate_per_10k": 20.8033,
      "confirmed_rate_per_100k": 208.033,
      "deaths": 3,
      "deaths_rate_per_10k": 0.61792,
      "deaths_rate_per_100k": 6.1792,
      "total_tested": 7937,
      "test_rate_per_10k": 1634.81,
      "test_rate_per_100k": 16348.1,
      "total_population": 48550,
      "latitude": 39.237500,
      "longitude": -89.925300
    },
    {
      "County": "Madison",
      "confirmed_cases": 1651,
      "confirmed_rate_per_10k": 61.7663,
      "confirmed_rate_per_100k": 617.663,
      "deaths": 71,
      "deaths_rate_per_10k": 2.65621,
      "deaths_rate_per_100k": 26.5621,
      "total_tested": 30417,
      "test_rate_per_10k": 1137.94,
      "test_rate_per_100k": 11379.4,
      "total_population": 267298,
      "latitude": 38.904100,
      "longitude": -89.925300
    },
    {
      "County": "Marion",
      "confirmed_cases": 107,
      "confirmed_rate_per_10k": 23.8839,
      "confirmed_rate_per_100k": 238.839,
      "deaths": 0,
      "deaths_rate_per_10k": 0,
      "deaths_rate_per_100k": 0,
      "total_tested": 4478,
      "test_rate_per_10k": 999.554,
      "test_rate_per_100k": 9995.54,
      "total_population": 44800,
      "latitude": 38.731300,
      "longitude": -88.864700
    },
    {
      "County": "Marshall",
      "confirmed_cases": 15,
      "confirmed_rate_per_10k": 14.0739,
      "confirmed_rate_per_100k": 140.739,
      "deaths": 0,
      "deaths_rate_per_10k": 0,
      "deaths_rate_per_100k": 0,
      "total_tested": 1313,
      "test_rate_per_10k": 1231.94,
      "test_rate_per_100k": 12319.4,
      "total_population": 10658,
      "latitude": 40.997300,
      "longitude": -89.360600
    },
    {
      "County": "Mason",
      "confirmed_cases": 36,
      "confirmed_rate_per_10k": 23.4131,
      "confirmed_rate_per_100k": 234.131,
      "deaths": 0,
      "deaths_rate_per_10k": 0,
      "deaths_rate_per_100k": 0,
      "total_tested": 1973,
      "test_rate_per_10k": 1283.17,
      "test_rate_per_100k": 12831.7,
      "total_population": 15376,
      "latitude": 40.227100,
      "longitude": -89.925300
    },
    {
      "County": "Massac",
      "confirmed_cases": 26,
      "confirmed_rate_per_10k": 20.0679,
      "confirmed_rate_per_100k": 200.679,
      "deaths": 0,
      "deaths_rate_per_10k": 0,
      "deaths_rate_per_100k": 0,
      "total_tested": 1401,
      "test_rate_per_10k": 1081.35,
      "test_rate_per_100k": 10813.5,
      "total_population": 12956,
      "latitude": 37.247800,
      "longitude": -88.749400
    },
    {
      "County": "McDonough",
      "confirmed_cases": 119,
      "confirmed_rate_per_10k": 41.1651,
      "confirmed_rate_per_100k": 411.651,
      "deaths": 15,
      "deaths_rate_per_10k": 5.18888,
      "deaths_rate_per_100k": 51.8888,
      "total_tested": 3413,
      "test_rate_per_10k": 1180.64,
      "test_rate_per_100k": 11806.4,
      "total_population": 28908,
      "latitude": 40.388500,
      "longitude": -90.677300
    },
    {
      "County": "McHenry",
      "confirmed_cases": 2593,
      "confirmed_rate_per_10k": 77.3529,
      "confirmed_rate_per_100k": 773.529,
      "deaths": 111,
      "deaths_rate_per_10k": 3.31129,
      "deaths_rate_per_100k": 33.1129,
      "total_tested": 35349,
      "test_rate_per_10k": 1054.51,
      "test_rate_per_100k": 10545.1,
      "total_population": 335217,
      "latitude": 42.304000,
      "longitude": -88.401600
    },
    {
      "County": "McLean",
      "confirmed_cases": 432,
      "confirmed_rate_per_10k": 24.811,
      "confirmed_rate_per_100k": 248.11,
      "deaths": 15,
      "deaths_rate_per_10k": 0.861495,
      "deaths_rate_per_100k": 8.61495,
      "total_tested": 20598,
      "test_rate_per_10k": 1183,
      "test_rate_per_100k": 11830,
      "total_population": 174116,
      "latitude": 40.547800,
      "longitude": -88.864700
    },
    {
      "County": "Menard",
      "confirmed_cases": 37,
      "confirmed_rate_per_10k": 30.2956,
      "confirmed_rate_per_100k": 302.956,
      "deaths": 0,
      "deaths_rate_per_10k": 0,
      "deaths_rate_per_100k": 0,
      "total_tested": 2094,
      "test_rate_per_10k": 1714.57,
      "test_rate_per_100k": 17145.7,
      "total_population": 12213,
      "latitude": 40.022100,
      "longitude": -89.813000
    },
    {
      "County": "Mercer",
      "confirmed_cases": 42,
      "confirmed_rate_per_10k": 28.3516,
      "confirmed_rate_per_100k": 283.516,
      "deaths": 0,
      "deaths_rate_per_10k": 0,
      "deaths_rate_per_100k": 0,
      "total_tested": 1816,
      "test_rate_per_10k": 1225.87,
      "test_rate_per_100k": 12258.7,
      "total_population": 14814,
      "latitude": 41.198500,
      "longitude": -90.677300
    },
    {
      "County": "Monroe",
      "confirmed_cases": 210,
      "confirmed_rate_per_10k": 61.434,
      "confirmed_rate_per_100k": 614.34,
      "deaths": 13,
      "deaths_rate_per_10k": 3.80306,
      "deaths_rate_per_100k": 38.0306,
      "total_tested": 3159,
      "test_rate_per_10k": 924.144,
      "test_rate_per_100k": 9241.44,
      "total_population": 34183,
      "latitude": 38.274300,
      "longitude": -90.187000
    },
    {
      "County": "Montgomery",
      "confirmed_cases": 115,
      "confirmed_rate_per_10k": 39.8766,
      "confirmed_rate_per_100k": 398.766,
      "deaths": 3,
      "deaths_rate_per_10k": 1.04026,
      "deaths_rate_per_100k": 10.4026,
      "total_tested": 5337,
      "test_rate_per_10k": 1850.62,
      "test_rate_per_100k": 18506.2,
      "total_population": 28839,
      "latitude": 39.236400,
      "longitude": -89.474200
    },
    {
      "County": "Morgan",
      "confirmed_cases": 148,
      "confirmed_rate_per_10k": 44.0778,
      "confirmed_rate_per_100k": 440.778,
      "deaths": 5,
      "deaths_rate_per_10k": 1.48911,
      "deaths_rate_per_100k": 14.8911,
      "total_tested": 5978,
      "test_rate_per_10k": 1780.39,
      "test_rate_per_100k": 17803.9,
      "total_population": 33577,
      "latitude": 39.734100,
      "longitude": -90.224500
    },
    {
      "County": "Moultrie",
      "confirmed_cases": 37,
      "confirmed_rate_per_10k": 27.1879,
      "confirmed_rate_per_100k": 271.879,
      "deaths": 0,
      "deaths_rate_per_10k": 0,
      "deaths_rate_per_100k": 0,
      "total_tested": 1636,
      "test_rate_per_10k": 1202.15,
      "test_rate_per_100k": 12021.5,
      "total_population": 13609,
      "latitude": 39.602100,
      "longitude": -88.595200
    },
    {
      "County": "Ogle",
      "confirmed_cases": 346,
      "confirmed_rate_per_10k": 70.8871,
      "confirmed_rate_per_100k": 708.871,
      "deaths": 5,
      "deaths_rate_per_10k": 1.02438,
      "deaths_rate_per_100k": 10.2438,
      "total_tested": 6495,
      "test_rate_per_10k": 1330.67,
      "test_rate_per_100k": 13306.7,
      "total_population": 48810,
      "latitude": 41.997000,
      "longitude": -89.322700
    },
    {
      "County": "Peoria",
      "confirmed_cases": 915,
      "confirmed_rate_per_10k": 51.2375,
      "confirmed_rate_per_100k": 512.375,
      "deaths": 32,
      "deaths_rate_per_10k": 1.79191,
      "deaths_rate_per_100k": 17.9191,
      "total_tested": 32883,
      "test_rate_per_10k": 1841.36,
      "test_rate_per_100k": 18413.6,
      "total_population": 178580,
      "latitude": 40.715600,
      "longitude": -89.775500
    },
    {
      "County": "Perry",
      "confirmed_cases": 80,
      "confirmed_rate_per_10k": 41.0889,
      "confirmed_rate_per_100k": 410.889,
      "deaths": 1,
      "deaths_rate_per_10k": 0.513611,
      "deaths_rate_per_100k": 5.13611,
      "total_tested": 2578,
      "test_rate_per_10k": 1324.09,
      "test_rate_per_100k": 13240.9,
      "total_population": 19470,
      "latitude": 38.061200,
      "longitude": -89.322700
    },
    {
      "County": "Piatt",
      "confirmed_cases": 30,
      "confirmed_rate_per_10k": 19.003,
      "confirmed_rate_per_100k": 190.03,
      "deaths": 0,
      "deaths_rate_per_10k": 0,
      "deaths_rate_per_100k": 0,
      "total_tested": 2919,
      "test_rate_per_10k": 1848.99,
      "test_rate_per_100k": 18489.9,
      "total_population": 15787,
      "latitude": 40.054400,
      "longitude": -88.855650
    },
    {
      "County": "Pike",
      "confirmed_cases": 9,
      "confirmed_rate_per_10k": 5.61097,
      "confirmed_rate_per_100k": 56.1097,
      "deaths": 0,
      "deaths_rate_per_10k": 0,
      "deaths_rate_per_100k": 0,
      "total_tested": 1232,
      "test_rate_per_10k": 768.08,
      "test_rate_per_100k": 7680.8,
      "total_population": 16040,
      "latitude": 39.566200,
      "longitude": -90.829400
    },
    {
      "County": "Pope",
      "confirmed_cases": 3,
      "confirmed_rate_per_10k": 9.31099,
      "confirmed_rate_per_100k": 93.1099,
      "deaths": 0,
      "deaths_rate_per_10k": 0,
      "deaths_rate_per_100k": 0,
      "total_tested": 231,
      "test_rate_per_10k": 716.946,
      "test_rate_per_100k": 7169.46,
      "total_population": 3222,
      "latitude": 37.417100,
      "longitude": -88.595200
    },
    {
      "County": "Pulaski",
      "confirmed_cases": 88,
      "confirmed_rate_per_10k": 156.444,
      "confirmed_rate_per_100k": 1564.44,
      "deaths": 0,
      "deaths_rate_per_10k": 0,
      "deaths_rate_per_100k": 0,
      "total_tested": 707,
      "test_rate_per_10k": 1256.89,
      "test_rate_per_100k": 12568.9,
      "total_population": 5625,
      "latitude": 37.251200,
      "longitude": -89.132500
    },
    {
      "County": "Putnam",
      "confirmed_cases": 4,
      "confirmed_rate_per_10k": 6.77163,
      "confirmed_rate_per_100k": 67.7163,
      "deaths": 0,
      "deaths_rate_per_10k": 0,
      "deaths_rate_per_100k": 0,
      "total_tested": 371,
      "test_rate_per_10k": 628.068,
      "test_rate_per_100k": 6280.68,
      "total_population": 5907,
      "latitude": 41.238500,
      "longitude": -89.284700
    },
    {
      "County": "Randolph",
      "confirmed_cases": 384,
      "confirmed_rate_per_10k": 108.742,
      "confirmed_rate_per_100k": 1087.42,
      "deaths": 7,
      "deaths_rate_per_10k": 1.98227,
      "deaths_rate_per_100k": 19.8227,
      "total_tested": 4790,
      "test_rate_per_10k": 1356.44,
      "test_rate_per_100k": 13564.4,
      "total_population": 35313,
      "latitude": 38.062900,
      "longitude": -89.775500
    },
    {
      "County": "Richland",
      "confirmed_cases": 9,
      "confirmed_rate_per_10k": 5.70994,
      "confirmed_rate_per_100k": 57.0994,
      "deaths": 0,
      "deaths_rate_per_10k": 0,
      "deaths_rate_per_100k": 0,
      "total_tested": 2120,
      "test_rate_per_10k": 1345.01,
      "test_rate_per_100k": 13450.1,
      "total_population": 15762,
      "latitude": 38.721300,
      "longitude": -88.090100
    },
    {
      "County": "Rock Island",
      "confirmed_cases": 1401,
      "confirmed_rate_per_10k": 97.6177,
      "confirmed_rate_per_100k": 976.177,
      "deaths": 30,
      "deaths_rate_per_10k": 2.09032,
      "deaths_rate_per_100k": 20.9032,
      "total_tested": 29553,
      "test_rate_per_10k": 2059.17,
      "test_rate_per_100k": 20591.7,
      "total_population": 143519,
      "latitude": 41.509500,
      "longitude": -90.578700
    },
    {
      "County": "Saline",
      "confirmed_cases": 64,
      "confirmed_rate_per_10k": 26.3407,
      "confirmed_rate_per_100k": 263.407,
      "deaths": 0,
      "deaths_rate_per_10k": 0,
      "deaths_rate_per_100k": 0,
      "total_tested": 2452,
      "test_rate_per_10k": 1009.18,
      "test_rate_per_100k": 10091.8,
      "total_population": 24297,
      "latitude": 37.715000,
      "longitude": -88.556500
    },
    {
      "County": "Sangamon",
      "confirmed_cases": 747,
      "confirmed_rate_per_10k": 38.4014,
      "confirmed_rate_per_100k": 384.014,
      "deaths": 33,
      "deaths_rate_per_10k": 1.69645,
      "deaths_rate_per_100k": 16.9645,
      "total_tested": 46041,
      "test_rate_per_10k": 2366.85,
      "test_rate_per_100k": 23668.5,
      "total_population": 194524,
      "latitude": 39.733700,
      "longitude": -89.625200
    },
    {
      "County": "Schuyler",
      "confirmed_cases": 14,
      "confirmed_rate_per_10k": 21.6551,
      "confirmed_rate_per_100k": 216.551,
      "deaths": 0,
      "deaths_rate_per_10k": 0,
      "deaths_rate_per_100k": 0,
      "total_tested": 794,
      "test_rate_per_10k": 1228.15,
      "test_rate_per_100k": 12281.5,
      "total_population": 6465,
      "latitude": 40.184500,
      "longitude": -90.639400
    },
    {
      "County": "Scott",
      "confirmed_cases": 6,
      "confirmed_rate_per_10k": 13.6955,
      "confirmed_rate_per_100k": 136.955,
      "deaths": 0,
      "deaths_rate_per_10k": 0,
      "deaths_rate_per_100k": 0,
      "total_tested": 694,
      "test_rate_per_10k": 1584.11,
      "test_rate_per_100k": 15841.1,
      "total_population": 4381,
      "latitude": 39.609500,
      "longitude": -90.488000
    },
    {
      "County": "Shelby",
      "confirmed_cases": 32,
      "confirmed_rate_per_10k": 15.1882,
      "confirmed_rate_per_100k": 151.882,
      "deaths": 1,
      "deaths_rate_per_10k": 0.474631,
      "deaths_rate_per_100k": 4.74631,
      "total_tested": 2535,
      "test_rate_per_10k": 1203.19,
      "test_rate_per_100k": 12031.9,
      "total_population": 21069,
      "latitude": 39.398100,
      "longitude": -88.864700
    },
    {
      "County": "St. Clair",
      "confirmed_cases": 2951,
      "confirmed_rate_per_10k": 116.409,
      "confirmed_rate_per_100k": 1164.09,
      "deaths": 152,
      "deaths_rate_per_10k": 5.99598,
      "deaths_rate_per_100k": 59.9598,
      "total_tested": 34078,
      "test_rate_per_10k": 1344.28,
      "test_rate_per_100k": 13442.8,
      "total_population": 253503,
      "latitude": 38.400800,
      "longitude": -89.925300
    },
    {
      "County": "Stark",
      "confirmed_cases": 6,
      "confirmed_rate_per_10k": 10.4987,
      "confirmed_rate_per_100k": 104.987,
      "deaths": 0,
      "deaths_rate_per_10k": 0,
      "deaths_rate_per_100k": 0,
      "total_tested": 778,
      "test_rate_per_10k": 1361.33,
      "test_rate_per_100k": 13613.3,
      "total_population": 5715,
      "latitude": 41.079600,
      "longitude": -89.813000
    },
    {
      "County": "Stephenson",
      "confirmed_cases": 296,
      "confirmed_rate_per_10k": 65.3004,
      "confirmed_rate_per_100k": 653.004,
      "deaths": 6,
      "deaths_rate_per_10k": 1.32366,
      "deaths_rate_per_100k": 13.2366,
      "total_tested": 6382,
      "test_rate_per_10k": 1407.93,
      "test_rate_per_100k": 14079.3,
      "total_population": 45329,
      "latitude": 42.314500,
      "longitude": -89.625200
    },
    {
      "County": "Tazewell",
      "confirmed_cases": 251,
      "confirmed_rate_per_10k": 18.8532,
      "confirmed_rate_per_100k": 188.532,
      "deaths": 8,
      "deaths_rate_per_10k": 0.600898,
      "deaths_rate_per_100k": 6.00898,
      "total_tested": 20541,
      "test_rate_per_10k": 1542.88,
      "test_rate_per_100k": 15428.8,
      "total_population": 133134,
      "latitude": 40.552200,
      "longitude": -89.474200
    },
    {
      "County": "Union",
      "confirmed_cases": 256,
      "confirmed_rate_per_10k": 158.465,
      "confirmed_rate_per_100k": 1584.65,
      "deaths": 21,
      "deaths_rate_per_10k": 12.9991,
      "deaths_rate_per_100k": 129.991,
      "total_tested": 2977,
      "test_rate_per_10k": 1842.77,
      "test_rate_per_100k": 18427.7,
      "total_population": 16155,
      "latitude": 37.508700,
      "longitude": -89.284700
    },
    {
      "County": "Vermilion",
      "confirmed_cases": 146,
      "confirmed_rate_per_10k": 19.2227,
      "confirmed_rate_per_100k": 192.227,
      "deaths": 2,
      "deaths_rate_per_10k": 0.263324,
      "deaths_rate_per_100k": 2.63324,
      "total_tested": 9723,
      "test_rate_per_10k": 1280.15,
      "test_rate_per_100k": 12801.5,
      "total_population": 75952,
      "latitude": 40.122500,
      "longitude": -87.697600
    },
    {
      "County": "Wabash",
      "confirmed_cases": 25,
      "confirmed_rate_per_10k": 22.4195,
      "confirmed_rate_per_100k": 224.195,
      "deaths": 0,
      "deaths_rate_per_10k": 0,
      "deaths_rate_per_100k": 0,
      "total_tested": 938,
      "test_rate_per_10k": 841.18,
      "test_rate_per_100k": 8411.8,
      "total_population": 11151,
      "latitude": 38.422600,
      "longitude": -87.815700
    },
    {
      "County": "Warren",
      "confirmed_cases": 160,
      "confirmed_rate_per_10k": 97.4718,
      "confirmed_rate_per_100k": 974.718,
      "deaths": 0,
      "deaths_rate_per_10k": 0,
      "deaths_rate_per_100k": 0,
      "total_tested": 1553,
      "test_rate_per_10k": 946.086,
      "test_rate_per_100k": 9460.86,
      "total_population": 16415,
      "latitude": 40.875900,
      "longitude": -90.677300
    },
    {
      "County": "Washington",
      "confirmed_cases": 40,
      "confirmed_rate_per_10k": 30.8642,
      "confirmed_rate_per_100k": 308.642,
      "deaths": 0,
      "deaths_rate_per_10k": 0,
      "deaths_rate_per_100k": 0,
      "total_tested": 1239,
      "test_rate_per_10k": 956.019,
      "test_rate_per_100k": 9560.19,
      "total_population": 12960,
      "latitude": 38.398900,
      "longitude": -89.322700
    },
    {
      "County": "Wayne",
      "confirmed_cases": 27,
      "confirmed_rate_per_10k": 17.3155,
      "confirmed_rate_per_100k": 173.155,
      "deaths": 1,
      "deaths_rate_per_10k": 0.641313,
      "deaths_rate_per_100k": 6.41313,
      "total_tested": 1472,
      "test_rate_per_10k": 944.013,
      "test_rate_per_100k": 9440.13,
      "total_population": 15593,
      "latitude": 38.390000,
      "longitude": -88.401600
    },
    {
      "County": "White",
      "confirmed_cases": 34,
      "confirmed_rate_per_10k": 23.8362,
      "confirmed_rate_per_100k": 238.362,
      "deaths": 0,
      "deaths_rate_per_10k": 0,
      "deaths_rate_per_100k": 0,
      "total_tested": 1209,
      "test_rate_per_10k": 847.588,
      "test_rate_per_100k": 8475.88,
      "total_population": 14264,
      "latitude": 38.050100,
      "longitude": -88.246100
    },
    {
      "County": "Whiteside",
      "confirmed_cases": 264,
      "confirmed_rate_per_10k": 46.915,
      "confirmed_rate_per_100k": 469.15,
      "deaths": 16,
      "deaths_rate_per_10k": 2.84333,
      "deaths_rate_per_100k": 28.4333,
      "total_tested": 6436,
      "test_rate_per_10k": 1143.73,
      "test_rate_per_100k": 11437.3,
      "total_population": 56272,
      "latitude": 41.760600,
      "longitude": -89.850500
    },
    {
      "County": "Will",
      "confirmed_cases": 7925,
      "confirmed_rate_per_10k": 113.324,
      "confirmed_rate_per_100k": 1133.24,
      "deaths": 338,
      "deaths_rate_per_10k": 4.83327,
      "deaths_rate_per_100k": 48.3327,
      "total_tested": 104228,
      "test_rate_per_10k": 1490.42,
      "test_rate_per_100k": 14904.2,
      "total_population": 699320,
      "latitude": 41.505500,
      "longitude": -88.090100
    },
    {
      "County": "Williamson",
      "confirmed_cases": 222,
      "confirmed_rate_per_10k": 35.7649,
      "confirmed_rate_per_100k": 357.649,
      "deaths": 4,
      "deaths_rate_per_10k": 0.644413,
      "deaths_rate_per_100k": 6.44413,
      "total_tested": 9538,
      "test_rate_per_10k": 1536.6,
      "test_rate_per_100k": 15366,
      "total_population": 62072,
      "latitude": 37.718300,
      "longitude": -88.864700
    },
    {
      "County": "Winnebago",
      "confirmed_cases": 3418,
      "confirmed_rate_per_10k": 120.679,
      "confirmed_rate_per_100k": 1206.79,
      "deaths": 113,
      "deaths_rate_per_10k": 3.98968,
      "deaths_rate_per_100k": 39.8968,
      "total_tested": 45461,
      "test_rate_per_10k": 1605.09,
      "test_rate_per_100k": 16050.9,
      "total_population": 283231,
      "latitude": 42.312100,
      "longitude": -89.170600
    },
    {
      "County": "Woodford",
      "confirmed_cases": 66,
      "confirmed_rate_per_10k": 19.3107,
      "confirmed_rate_per_100k": 193.107,
      "deaths": 3,
      "deaths_rate_per_10k": 0.877758,
      "deaths_rate_per_100k": 8.77758,
      "total_tested": 4133,
      "test_rate_per_10k": 1209.26,
      "test_rate_per_100k": 12092.6,
      "total_population": 34178,
      "latitude": 40.712900,
      "longitude": -89.170600
    }
  ]
}
