{
  "LastUpdateDate": {
    "year": 2020,
    "month": 11,
    "day": 8
  },
  "county_rates": [
    {
      "County": "Adams",
      "confirmed_cases": 2806,
      "confirmed_rate_per_10k": 427.151,
      "confirmed_rate_per_100k": 4271.51,
      "deaths": 29,
      "deaths_rate_per_10k": 4.41461,
      "deaths_rate_per_100k": 44.1461,
      "total_tested": 44196,
      "test_rate_per_10k": 6727.86,
      "test_rate_per_100k": 67278.6,
      "total_population": 65691,
      "latitude": 40.057800,
      "longitude": -91.135300
    },
    {
      "County": "Alexander",
      "confirmed_cases": 182,
      "confirmed_rate_per_10k": 300.33,
      "confirmed_rate_per_100k": 3003.3,
      "deaths": 2,
      "deaths_rate_per_10k": 3.30033,
      "deaths_rate_per_100k": 33.0033,
      "total_tested": 2650,
      "test_rate_per_10k": 4372.94,
      "test_rate_per_100k": 43729.4,
      "total_population": 6060,
      "latitude": 37.167000,
      "longitude": -89.360600
    },
    {
      "County": "Bond",
      "confirmed_cases": 657,
      "confirmed_rate_per_10k": 395.069,
      "confirmed_rate_per_100k": 3950.69,
      "deaths": 9,
      "deaths_rate_per_10k": 5.41191,
      "deaths_rate_per_100k": 54.1191,
      "total_tested": 8857,
      "test_rate_per_10k": 5325.92,
      "test_rate_per_100k": 53259.2,
      "total_population": 16630,
      "latitude": 38.903000,
      "longitude": -89.474200
    },
    {
      "County": "Boone",
      "confirmed_cases": 2581,
      "confirmed_rate_per_10k": 481.737,
      "confirmed_rate_per_100k": 4817.37,
      "deaths": 26,
      "deaths_rate_per_10k": 4.85283,
      "deaths_rate_per_100k": 48.5283,
      "total_tested": 25756,
      "test_rate_per_10k": 4807.29,
      "test_rate_per_100k": 48072.9,
      "total_population": 53577,
      "latitude": 42.348500,
      "longitude": -88.826300
    },
    {
      "County": "Brown",
      "confirmed_cases": 179,
      "confirmed_rate_per_10k": 273.032,
      "confirmed_rate_per_100k": 2730.32,
      "deaths": 0,
      "deaths_rate_per_10k": 0,
      "deaths_rate_per_100k": 0,
      "total_tested": 2605,
      "test_rate_per_10k": 3973.46,
      "test_rate_per_100k": 39734.6,
      "total_population": 6556,
      "latitude": 39.938000,
      "longitude": -90.715300
    },
    {
      "County": "Bureau",
      "confirmed_cases": 1290,
      "confirmed_rate_per_10k": 390.992,
      "confirmed_rate_per_100k": 3909.92,
      "deaths": 19,
      "deaths_rate_per_10k": 5.7588,
      "deaths_rate_per_100k": 57.588,
      "total_tested": 15201,
      "test_rate_per_10k": 4607.34,
      "test_rate_per_100k": 46073.4,
      "total_population": 32993,
      "latitude": 41.359900,
      "longitude": -89.474200
    },
    {
      "County": "Calhoun",
      "confirmed_cases": 121,
      "confirmed_rate_per_10k": 251.978,
      "confirmed_rate_per_100k": 2519.78,
      "deaths": 0,
      "deaths_rate_per_10k": 0,
      "deaths_rate_per_100k": 0,
      "total_tested": 1902,
      "test_rate_per_10k": 3960.85,
      "test_rate_per_100k": 39608.5,
      "total_population": 4802,
      "latitude": 39.173300,
      "longitude": -90.658300
    },
    {
      "County": "Carroll",
      "confirmed_cases": 679,
      "confirmed_rate_per_10k": 474.427,
      "confirmed_rate_per_100k": 4744.27,
      "deaths": 17,
      "deaths_rate_per_10k": 11.8781,
      "deaths_rate_per_100k": 118.781,
      "total_tested": 8369,
      "test_rate_per_10k": 5847.54,
      "test_rate_per_100k": 58475.4,
      "total_population": 14312,
      "latitude": 42.038600,
      "longitude": -89.962700
    },
    {
      "County": "Cass",
      "confirmed_cases": 570,
      "confirmed_rate_per_10k": 464.927,
      "confirmed_rate_per_100k": 4649.27,
      "deaths": 11,
      "deaths_rate_per_10k": 8.97227,
      "deaths_rate_per_100k": 89.7227,
      "total_tested": 6360,
      "test_rate_per_10k": 5187.6,
      "test_rate_per_100k": 51876,
      "total_population": 12260,
      "latitude": 39.939900,
      "longitude": -90.262000
    },
    {
      "County": "Champaign",
      "confirmed_cases": 7866,
      "confirmed_rate_per_10k": 374.602,
      "confirmed_rate_per_100k": 3746.02,
      "deaths": 33,
      "deaths_rate_per_10k": 1.57156,
      "deaths_rate_per_100k": 15.7156,
      "total_tested": 887971,
      "test_rate_per_10k": 42287.8,
      "test_rate_per_100k": 422878,
      "total_population": 209983,
      "latitude": 40.213900,
      "longitude": -88.246100
    },
    {
      "County": "Chicago",
      "confirmed_cases": 117525,
      "confirmed_rate_per_10k": 434.314,
      "confirmed_rate_per_100k": 4343.14,
      "deaths": 3137,
      "deaths_rate_per_10k": 11.5928,
      "deaths_rate_per_100k": 115.928,
      "total_tested": 1669297,
      "test_rate_per_10k": 6168.89,
      "test_rate_per_100k": 61688.9,
      "total_population": 2705994,
      "latitude": 41.789896,
      "longitude": -87.627734
    },
    {
      "County": "Christian",
      "confirmed_cases": 1182,
      "confirmed_rate_per_10k": 361.9,
      "confirmed_rate_per_100k": 3619,
      "deaths": 31,
      "deaths_rate_per_10k": 9.49144,
      "deaths_rate_per_100k": 94.9144,
      "total_tested": 15942,
      "test_rate_per_10k": 4881.05,
      "test_rate_per_100k": 48810.5,
      "total_population": 32661,
      "latitude": 39.567200,
      "longitude": -89.322700
    },
    {
      "County": "Clark",
      "confirmed_cases": 495,
      "confirmed_rate_per_10k": 317.389,
      "confirmed_rate_per_100k": 3173.89,
      "deaths": 19,
      "deaths_rate_per_10k": 12.1826,
      "deaths_rate_per_100k": 121.826,
      "total_tested": 5966,
      "test_rate_per_10k": 3825.34,
      "test_rate_per_100k": 38253.4,
      "total_population": 15596,
      "latitude": 39.382400,
      "longitude": -87.776300
    },
    {
      "County": "Clay",
      "confirmed_cases": 430,
      "confirmed_rate_per_10k": 324.455,
      "confirmed_rate_per_100k": 3244.55,
      "deaths": 16,
      "deaths_rate_per_10k": 12.0727,
      "deaths_rate_per_100k": 120.727,
      "total_tested": 5009,
      "test_rate_per_10k": 3779.52,
      "test_rate_per_100k": 37795.2,
      "total_population": 13253,
      "latitude": 38.727900,
      "longitude": -88.556500
    },
    {
      "County": "Clinton",
      "confirmed_cases": 2164,
      "confirmed_rate_per_10k": 574.936,
      "confirmed_rate_per_100k": 5749.36,
      "deaths": 35,
      "deaths_rate_per_10k": 9.29887,
      "deaths_rate_per_100k": 92.9887,
      "total_tested": 20448,
      "test_rate_per_10k": 5432.66,
      "test_rate_per_100k": 54326.6,
      "total_population": 37639,
      "latitude": 38.568400,
      "longitude": -89.625200
    },
    {
      "County": "Coles",
      "confirmed_cases": 2473,
      "confirmed_rate_per_10k": 485.998,
      "confirmed_rate_per_100k": 4859.98,
      "deaths": 47,
      "deaths_rate_per_10k": 9.23651,
      "deaths_rate_per_100k": 92.3651,
      "total_tested": 29704,
      "test_rate_per_10k": 5837.48,
      "test_rate_per_100k": 58374.8,
      "total_population": 50885,
      "latitude": 39.556000,
      "longitude": -88.246100
    },
    {
      "County": "Cook",
      "confirmed_cases": 101137,
      "confirmed_rate_per_10k": 408.717,
      "confirmed_rate_per_100k": 4087.17,
      "deaths": 2502,
      "deaths_rate_per_10k": 10.1111,
      "deaths_rate_per_100k": 101.111,
      "total_tested": 1464713,
      "test_rate_per_10k": 5919.23,
      "test_rate_per_100k": 59192.3,
      "total_population": 2474499,
      "latitude": 42.050784,
      "longitude": -87.963759
    },
    {
      "County": "Crawford",
      "confirmed_cases": 744,
      "confirmed_rate_per_10k": 395.597,
      "confirmed_rate_per_100k": 3955.97,
      "deaths": 6,
      "deaths_rate_per_10k": 3.1903,
      "deaths_rate_per_100k": 31.903,
      "total_tested": 6622,
      "test_rate_per_10k": 3521.03,
      "test_rate_per_100k": 35210.3,
      "total_population": 18807,
      "latitude": 39.050000,
      "longitude": -87.776300
    },
    {
      "County": "Cumberland",
      "confirmed_cases": 415,
      "confirmed_rate_per_10k": 383.975,
      "confirmed_rate_per_100k": 3839.75,
      "deaths": 6,
      "deaths_rate_per_10k": 5.55144,
      "deaths_rate_per_100k": 55.5144,
      "total_tested": 5028,
      "test_rate_per_10k": 4652.11,
      "test_rate_per_100k": 46521.1,
      "total_population": 10808,
      "latitude": 39.265400,
      "longitude": -88.207200
    },
    {
      "County": "De Witt",
      "confirmed_cases": 419,
      "confirmed_rate_per_10k": 265.711,
      "confirmed_rate_per_100k": 2657.11,
      "deaths": 7,
      "deaths_rate_per_10k": 4.43909,
      "deaths_rate_per_100k": 44.3909,
      "total_tested": 6919,
      "test_rate_per_10k": 4387.72,
      "test_rate_per_100k": 43877.2,
      "total_population": 15769,
      "latitude": 40.181000,
      "longitude": -88.903100
    },
    {
      "County": "DeKalb",
      "confirmed_cases": 3348,
      "confirmed_rate_per_10k": 321.481,
      "confirmed_rate_per_100k": 3214.81,
      "deaths": 43,
      "deaths_rate_per_10k": 4.12894,
      "deaths_rate_per_100k": 41.2894,
      "total_tested": 52948,
      "test_rate_per_10k": 5084.16,
      "test_rate_per_100k": 50841.6,
      "total_population": 104143,
      "latitude": 41.833000,
      "longitude": -88.710900
    },
    {
      "County": "Douglas",
      "confirmed_cases": 983,
      "confirmed_rate_per_10k": 504.646,
      "confirmed_rate_per_100k": 5046.46,
      "deaths": 10,
      "deaths_rate_per_10k": 5.13373,
      "deaths_rate_per_100k": 51.3373,
      "total_tested": 12730,
      "test_rate_per_10k": 6535.24,
      "test_rate_per_100k": 65352.4,
      "total_population": 19479,
      "latitude": 39.761800,
      "longitude": -88.207200
    },
    {
      "County": "DuPage",
      "confirmed_cases": 30244,
      "confirmed_rate_per_10k": 325.698,
      "confirmed_rate_per_100k": 3256.98,
      "deaths": 641,
      "deaths_rate_per_10k": 6.90295,
      "deaths_rate_per_100k": 69.0295,
      "total_tested": 480828,
      "test_rate_per_10k": 5178.05,
      "test_rate_per_100k": 51780.5,
      "total_population": 928589,
      "latitude": 41.824400,
      "longitude": -88.090100
    },
    {
      "County": "Edgar",
      "confirmed_cases": 492,
      "confirmed_rate_per_10k": 283.41,
      "confirmed_rate_per_100k": 2834.1,
      "deaths": 12,
      "deaths_rate_per_10k": 6.91244,
      "deaths_rate_per_100k": 69.1244,
      "total_tested": 5444,
      "test_rate_per_10k": 3135.94,
      "test_rate_per_100k": 31359.4,
      "total_population": 17360,
      "latitude": 39.713100,
      "longitude": -87.776300
    },
    {
      "County": "Edwards",
      "confirmed_cases": 135,
      "confirmed_rate_per_10k": 211.202,
      "confirmed_rate_per_100k": 2112.02,
      "deaths": 0,
      "deaths_rate_per_10k": 0,
      "deaths_rate_per_100k": 0,
      "total_tested": 1275,
      "test_rate_per_10k": 1994.68,
      "test_rate_per_100k": 19946.8,
      "total_population": 6392,
      "latitude": 38.426800,
      "longitude": -88.051000
    },
    {
      "County": "Effingham",
      "confirmed_cases": 1677,
      "confirmed_rate_per_10k": 490.236,
      "confirmed_rate_per_100k": 4902.36,
      "deaths": 5,
      "deaths_rate_per_10k": 1.46165,
      "deaths_rate_per_100k": 14.6165,
      "total_tested": 16572,
      "test_rate_per_10k": 4844.48,
      "test_rate_per_100k": 48444.8,
      "total_population": 34208,
      "latitude": 39.062200,
      "longitude": -88.556500
    },
    {
      "County": "Fayette",
      "confirmed_cases": 959,
      "confirmed_rate_per_10k": 447.796,
      "confirmed_rate_per_100k": 4477.96,
      "deaths": 26,
      "deaths_rate_per_10k": 12.1405,
      "deaths_rate_per_100k": 121.405,
      "total_tested": 8945,
      "test_rate_per_10k": 4176.78,
      "test_rate_per_100k": 41767.8,
      "total_population": 21416,
      "latitude": 39.067000,
      "longitude": -89.017900
    },
    {
      "County": "Ford",
      "confirmed_cases": 397,
      "confirmed_rate_per_10k": 299.306,
      "confirmed_rate_per_100k": 2993.06,
      "deaths": 17,
      "deaths_rate_per_10k": 12.8166,
      "deaths_rate_per_100k": 128.166,
      "total_tested": 8853,
      "test_rate_per_10k": 6674.46,
      "test_rate_per_100k": 66744.6,
      "total_population": 13264,
      "latitude": 40.498900,
      "longitude": -88.207200
    },
    {
      "County": "Franklin",
      "confirmed_cases": 1293,
      "confirmed_rate_per_10k": 334.1,
      "confirmed_rate_per_100k": 3341,
      "deaths": 13,
      "deaths_rate_per_10k": 3.35909,
      "deaths_rate_per_100k": 33.5909,
      "total_tested": 18577,
      "test_rate_per_10k": 4800.13,
      "test_rate_per_100k": 48001.3,
      "total_population": 38701,
      "latitude": 38.015700,
      "longitude": -88.903100
    },
    {
      "County": "Fulton",
      "confirmed_cases": 837,
      "confirmed_rate_per_10k": 240.214,
      "confirmed_rate_per_100k": 2402.14,
      "deaths": 4,
      "deaths_rate_per_10k": 1.14797,
      "deaths_rate_per_100k": 11.4797,
      "total_tested": 18837,
      "test_rate_per_10k": 5406.1,
      "test_rate_per_100k": 54061,
      "total_population": 34844,
      "latitude": 40.553200,
      "longitude": -90.224500
    },
    {
      "County": "Gallatin",
      "confirmed_cases": 134,
      "confirmed_rate_per_10k": 264.927,
      "confirmed_rate_per_100k": 2649.27,
      "deaths": 2,
      "deaths_rate_per_10k": 3.95413,
      "deaths_rate_per_100k": 39.5413,
      "total_tested": 1265,
      "test_rate_per_10k": 2500.99,
      "test_rate_per_100k": 25009.9,
      "total_population": 5058,
      "latitude": 37.710800,
      "longitude": -88.246100
    },
    {
      "County": "Greene",
      "confirmed_cases": 495,
      "confirmed_rate_per_10k": 379.485,
      "confirmed_rate_per_100k": 3794.85,
      "deaths": 18,
      "deaths_rate_per_10k": 13.7994,
      "deaths_rate_per_100k": 137.994,
      "total_tested": 5580,
      "test_rate_per_10k": 4277.83,
      "test_rate_per_100k": 42778.3,
      "total_population": 13044,
      "latitude": 39.403000,
      "longitude": -90.374800
    },
    {
      "County": "Grundy",
      "confirmed_cases": 1512,
      "confirmed_rate_per_10k": 296.633,
      "confirmed_rate_per_100k": 2966.33,
      "deaths": 8,
      "deaths_rate_per_10k": 1.56949,
      "deaths_rate_per_100k": 15.6949,
      "total_tested": 17272,
      "test_rate_per_10k": 3388.53,
      "test_rate_per_100k": 33885.3,
      "total_population": 50972,
      "latitude": 41.350100,
      "longitude": -88.401600
    },
    {
      "County": "Hamilton",
      "confirmed_cases": 192,
      "confirmed_rate_per_10k": 235.208,
      "confirmed_rate_per_100k": 2352.08,
      "deaths": 2,
      "deaths_rate_per_10k": 2.45008,
      "deaths_rate_per_100k": 24.5008,
      "total_tested": 2397,
      "test_rate_per_10k": 2936.42,
      "test_rate_per_100k": 29364.2,
      "total_population": 8163,
      "latitude": 38.054300,
      "longitude": -88.556500
    },
    {
      "County": "Hancock",
      "confirmed_cases": 554,
      "confirmed_rate_per_10k": 310.469,
      "confirmed_rate_per_100k": 3104.69,
      "deaths": 5,
      "deaths_rate_per_10k": 2.80206,
      "deaths_rate_per_100k": 28.0206,
      "total_tested": 7968,
      "test_rate_per_10k": 4465.37,
      "test_rate_per_100k": 44653.7,
      "total_population": 17844,
      "latitude": 40.384900,
      "longitude": -91.135300
    },
    {
      "County": "Hardin",
      "confirmed_cases": 70,
      "confirmed_rate_per_10k": 179.028,
      "confirmed_rate_per_100k": 1790.28,
      "deaths": 0,
      "deaths_rate_per_10k": 0,
      "deaths_rate_per_100k": 0,
      "total_tested": 1547,
      "test_rate_per_10k": 3956.52,
      "test_rate_per_100k": 39565.2,
      "total_population": 3910,
      "latitude": 37.499500,
      "longitude": -88.362800
    },
    {
      "County": "Henderson",
      "confirmed_cases": 172,
      "confirmed_rate_per_10k": 256.372,
      "confirmed_rate_per_100k": 2563.72,
      "deaths": 0,
      "deaths_rate_per_10k": 0,
      "deaths_rate_per_100k": 0,
      "total_tested": 2406,
      "test_rate_per_10k": 3586.23,
      "test_rate_per_100k": 35862.3,
      "total_population": 6709,
      "latitude": 40.833600,
      "longitude": -90.943800
    },
    {
      "County": "Henry",
      "confirmed_cases": 1339,
      "confirmed_rate_per_10k": 272.764,
      "confirmed_rate_per_100k": 2727.64,
      "deaths": 9,
      "deaths_rate_per_10k": 1.83337,
      "deaths_rate_per_100k": 18.3337,
      "total_tested": 24550,
      "test_rate_per_10k": 5001.02,
      "test_rate_per_100k": 50010.2,
      "total_population": 49090,
      "latitude": 41.361100,
      "longitude": -90.074700
    },
    {
      "County": "Iroquois",
      "confirmed_cases": 860,
      "confirmed_rate_per_10k": 311.549,
      "confirmed_rate_per_100k": 3115.49,
      "deaths": 20,
      "deaths_rate_per_10k": 7.24533,
      "deaths_rate_per_100k": 72.4533,
      "total_tested": 16242,
      "test_rate_per_10k": 5883.93,
      "test_rate_per_100k": 58839.3,
      "total_population": 27604,
      "latitude": 40.774000,
      "longitude": -87.697600
    },
    {
      "County": "Jackson",
      "confirmed_cases": 1856,
      "confirmed_rate_per_10k": 323.238,
      "confirmed_rate_per_100k": 3232.38,
      "deaths": 27,
      "deaths_rate_per_10k": 4.70228,
      "deaths_rate_per_100k": 47.0228,
      "total_tested": 25950,
      "test_rate_per_10k": 4519.41,
      "test_rate_per_100k": 45194.1,
      "total_population": 57419,
      "latitude": 37.721800,
      "longitude": -89.322700
    },
    {
      "County": "Jasper",
      "confirmed_cases": 418,
      "confirmed_rate_per_10k": 434.918,
      "confirmed_rate_per_100k": 4349.18,
      "deaths": 10,
      "deaths_rate_per_10k": 10.4047,
      "deaths_rate_per_100k": 104.047,
      "total_tested": 3862,
      "test_rate_per_10k": 4018.31,
      "test_rate_per_100k": 40183.1,
      "total_population": 9611,
      "latitude": 39.055500,
      "longitude": -88.090100
    },
    {
      "County": "Jefferson",
      "confirmed_cases": 1215,
      "confirmed_rate_per_10k": 321.259,
      "confirmed_rate_per_100k": 3212.59,
      "deaths": 55,
      "deaths_rate_per_10k": 14.5426,
      "deaths_rate_per_100k": 145.426,
      "total_tested": 15496,
      "test_rate_per_10k": 4097.3,
      "test_rate_per_100k": 40973,
      "total_population": 37820,
      "latitude": 38.226700,
      "longitude": -88.864700
    },
    {
      "County": "Jersey",
      "confirmed_cases": 747,
      "confirmed_rate_per_10k": 341.923,
      "confirmed_rate_per_100k": 3419.23,
      "deaths": 21,
      "deaths_rate_per_10k": 9.6123,
      "deaths_rate_per_100k": 96.123,
      "total_tested": 9506,
      "test_rate_per_10k": 4351.17,
      "test_rate_per_100k": 43511.7,
      "total_population": 21847,
      "latitude": 39.070500,
      "longitude": -90.374800
    },
    {
      "County": "Jo Daviess",
      "confirmed_cases": 689,
      "confirmed_rate_per_10k": 322.475,
      "confirmed_rate_per_100k": 3224.75,
      "deaths": 11,
      "deaths_rate_per_10k": 5.14837,
      "deaths_rate_per_100k": 51.4837,
      "total_tested": 8644,
      "test_rate_per_10k": 4045.68,
      "test_rate_per_100k": 40456.8,
      "total_population": 21366,
      "latitude": 42.314900,
      "longitude": -90.224500
    },
    {
      "County": "Johnson",
      "confirmed_cases": 488,
      "confirmed_rate_per_10k": 391.779,
      "confirmed_rate_per_100k": 3917.79,
      "deaths": 0,
      "deaths_rate_per_10k": 0,
      "deaths_rate_per_100k": 0,
      "total_tested": 4774,
      "test_rate_per_10k": 3832.69,
      "test_rate_per_100k": 38326.9,
      "total_population": 12456,
      "latitude": 37.420400,
      "longitude": -88.903100
    },
    {
      "County": "Kane",
      "confirmed_cases": 22192,
      "confirmed_rate_per_10k": 415.412,
      "confirmed_rate_per_100k": 4154.12,
      "deaths": 363,
      "deaths_rate_per_10k": 6.795,
      "deaths_rate_per_100k": 67.95,
      "total_tested": 258576,
      "test_rate_per_10k": 4840.29,
      "test_rate_per_100k": 48402.9,
      "total_population": 534216,
      "latitude": 41.987900,
      "longitude": -88.401600
    },
    {
      "County": "Kankakee",
      "confirmed_cases": 4949,
      "confirmed_rate_per_10k": 449.811,
      "confirmed_rate_per_100k": 4498.11,
      "deaths": 86,
      "deaths_rate_per_10k": 7.81648,
      "deaths_rate_per_100k": 78.1648,
      "total_tested": 77835,
      "test_rate_per_10k": 7074.37,
      "test_rate_per_100k": 70743.7,
      "total_population": 110024,
      "latitude": 41.179100,
      "longitude": -87.776300
    },
    {
      "County": "Kendall",
      "confirmed_cases": 3903,
      "confirmed_rate_per_10k": 305.124,
      "confirmed_rate_per_100k": 3051.24,
      "deaths": 31,
      "deaths_rate_per_10k": 2.42348,
      "deaths_rate_per_100k": 24.2348,
      "total_tested": 51431,
      "test_rate_per_10k": 4020.72,
      "test_rate_per_100k": 40207.2,
      "total_population": 127915,
      "latitude": 41.550700,
      "longitude": -88.440400
    },
    {
      "County": "Knox",
      "confirmed_cases": 1750,
      "confirmed_rate_per_10k": 349.218,
      "confirmed_rate_per_100k": 3492.18,
      "deaths": 29,
      "deaths_rate_per_10k": 5.78704,
      "deaths_rate_per_100k": 57.8704,
      "total_tested": 27564,
      "test_rate_per_10k": 5500.48,
      "test_rate_per_100k": 55004.8,
      "total_population": 50112,
      "latitude": 40.877600,
      "longitude": -90.224500
    },
    {
      "County": "Lake",
      "confirmed_cases": 26144,
      "confirmed_rate_per_10k": 373.042,
      "confirmed_rate_per_100k": 3730.42,
      "deaths": 531,
      "deaths_rate_per_10k": 7.57671,
      "deaths_rate_per_100k": 75.7671,
      "total_tested": 369660,
      "test_rate_per_10k": 5274.59,
      "test_rate_per_100k": 52745.9,
      "total_population": 700832,
      "latitude": 42.368900,
      "longitude": -87.827200
    },
    {
      "County": "LaSalle",
      "confirmed_cases": 3606,
      "confirmed_rate_per_10k": 329.526,
      "confirmed_rate_per_100k": 3295.26,
      "deaths": 75,
      "deaths_rate_per_10k": 6.8537,
      "deaths_rate_per_100k": 68.537,
      "total_tested": 46269,
      "test_rate_per_10k": 4228.18,
      "test_rate_per_100k": 42281.8,
      "total_population": 109430,
      "latitude": 41.436400,
      "longitude": -88.941400
    },
    {
      "County": "Lawrence",
      "confirmed_cases": 454,
      "confirmed_rate_per_10k": 287.98,
      "confirmed_rate_per_100k": 2879.8,
      "deaths": 8,
      "deaths_rate_per_10k": 5.07453,
      "deaths_rate_per_100k": 50.7453,
      "total_tested": 7867,
      "test_rate_per_10k": 4990.17,
      "test_rate_per_100k": 49901.7,
      "total_population": 15765,
      "latitude": 38.715800,
      "longitude": -87.776300
    },
    {
      "County": "Lee",
      "confirmed_cases": 1150,
      "confirmed_rate_per_10k": 336.031,
      "confirmed_rate_per_100k": 3360.31,
      "deaths": 4,
      "deaths_rate_per_10k": 1.1688,
      "deaths_rate_per_100k": 11.688,
      "total_tested": 13188,
      "test_rate_per_10k": 3853.55,
      "test_rate_per_100k": 38535.5,
      "total_population": 34223,
      "latitude": 41.679000,
      "longitude": -89.322700
    },
    {
      "County": "Livingston",
      "confirmed_cases": 1099,
      "confirmed_rate_per_10k": 307.318,
      "confirmed_rate_per_100k": 3073.18,
      "deaths": 12,
      "deaths_rate_per_10k": 3.35561,
      "deaths_rate_per_100k": 33.5561,
      "total_tested": 21369,
      "test_rate_per_10k": 5975.5,
      "test_rate_per_100k": 59755,
      "total_population": 35761,
      "latitude": 40.868900,
      "longitude": -88.556500
    },
    {
      "County": "Logan",
      "confirmed_cases": 878,
      "confirmed_rate_per_10k": 303.544,
      "confirmed_rate_per_100k": 3035.44,
      "deaths": 5,
      "deaths_rate_per_10k": 1.72861,
      "deaths_rate_per_100k": 17.2861,
      "total_tested": 21027,
      "test_rate_per_10k": 7269.49,
      "test_rate_per_100k": 72694.9,
      "total_population": 28925,
      "latitude": 40.061300,
      "longitude": -89.322700
    },
    {
      "County": "Macon",
      "confirmed_cases": 4470,
      "confirmed_rate_per_10k": 426.885,
      "confirmed_rate_per_100k": 4268.85,
      "deaths": 73,
      "deaths_rate_per_10k": 6.9715,
      "deaths_rate_per_100k": 69.715,
      "total_tested": 62521,
      "test_rate_per_10k": 5970.76,
      "test_rate_per_100k": 59707.6,
      "total_population": 104712,
      "latitude": 39.894900,
      "longitude": -89.017900
    },
    {
      "County": "Macoupin",
      "confirmed_cases": 1101,
      "confirmed_rate_per_10k": 242.977,
      "confirmed_rate_per_100k": 2429.77,
      "deaths": 12,
      "deaths_rate_per_10k": 2.64825,
      "deaths_rate_per_100k": 26.4825,
      "total_tested": 24996,
      "test_rate_per_10k": 5516.3,
      "test_rate_per_100k": 55163,
      "total_population": 45313,
      "latitude": 39.237500,
      "longitude": -89.925300
    },
    {
      "County": "Madison",
      "confirmed_cases": 9154,
      "confirmed_rate_per_10k": 346.138,
      "confirmed_rate_per_100k": 3461.38,
      "deaths": 168,
      "deaths_rate_per_10k": 6.35254,
      "deaths_rate_per_100k": 63.5254,
      "total_tested": 111496,
      "test_rate_per_10k": 4215.97,
      "test_rate_per_100k": 42159.7,
      "total_population": 264461,
      "latitude": 38.904100,
      "longitude": -89.925300
    },
    {
      "County": "Marion",
      "confirmed_cases": 1399,
      "confirmed_rate_per_10k": 371.877,
      "confirmed_rate_per_100k": 3718.77,
      "deaths": 29,
      "deaths_rate_per_10k": 7.70867,
      "deaths_rate_per_100k": 77.0867,
      "total_tested": 22383,
      "test_rate_per_10k": 5949.76,
      "test_rate_per_100k": 59497.6,
      "total_population": 37620,
      "latitude": 38.731300,
      "longitude": -88.864700
    },
    {
      "County": "Marshall",
      "confirmed_cases": 211,
      "confirmed_rate_per_10k": 182.937,
      "confirmed_rate_per_100k": 1829.37,
      "deaths": 4,
      "deaths_rate_per_10k": 3.46801,
      "deaths_rate_per_100k": 34.6801,
      "total_tested": 6487,
      "test_rate_per_10k": 5624.24,
      "test_rate_per_100k": 56242.4,
      "total_population": 11534,
      "latitude": 40.997300,
      "longitude": -89.360600
    },
    {
      "County": "Mason",
      "confirmed_cases": 405,
      "confirmed_rate_per_10k": 298.562,
      "confirmed_rate_per_100k": 2985.62,
      "deaths": 13,
      "deaths_rate_per_10k": 9.58349,
      "deaths_rate_per_100k": 95.8349,
      "total_tested": 7133,
      "test_rate_per_10k": 5258.39,
      "test_rate_per_100k": 52583.9,
      "total_population": 13565,
      "latitude": 40.227100,
      "longitude": -89.925300
    },
    {
      "County": "Massac",
      "confirmed_cases": 226,
      "confirmed_rate_per_10k": 160.511,
      "confirmed_rate_per_100k": 1605.11,
      "deaths": 2,
      "deaths_rate_per_10k": 1.42045,
      "deaths_rate_per_100k": 14.2045,
      "total_tested": 3816,
      "test_rate_per_10k": 2710.23,
      "test_rate_per_100k": 27102.3,
      "total_population": 14080,
      "latitude": 37.247800,
      "longitude": -88.749400
    },
    {
      "County": "McDonough",
      "confirmed_cases": 1043,
      "confirmed_rate_per_10k": 348.189,
      "confirmed_rate_per_100k": 3481.89,
      "deaths": 24,
      "deaths_rate_per_10k": 8.01202,
      "deaths_rate_per_100k": 80.1202,
      "total_tested": 15480,
      "test_rate_per_10k": 5167.75,
      "test_rate_per_100k": 51677.5,
      "total_population": 29955,
      "latitude": 40.388500,
      "longitude": -90.677300
    },
    {
      "County": "McHenry",
      "confirmed_cases": 9204,
      "confirmed_rate_per_10k": 298.279,
      "confirmed_rate_per_100k": 2982.79,
      "deaths": 121,
      "deaths_rate_per_10k": 3.92131,
      "deaths_rate_per_100k": 39.2131,
      "total_tested": 118232,
      "test_rate_per_10k": 3831.61,
      "test_rate_per_100k": 38316.1,
      "total_population": 308570,
      "latitude": 42.304000,
      "longitude": -88.401600
    },
    {
      "County": "McLean",
      "confirmed_cases": 5525,
      "confirmed_rate_per_10k": 319.682,
      "confirmed_rate_per_100k": 3196.82,
      "deaths": 40,
      "deaths_rate_per_10k": 2.31444,
      "deaths_rate_per_100k": 23.1444,
      "total_tested": 113278,
      "test_rate_per_10k": 6554.38,
      "test_rate_per_100k": 65543.8,
      "total_population": 172828,
      "latitude": 40.547800,
      "longitude": -88.864700
    },
    {
      "County": "Menard",
      "confirmed_cases": 234,
      "confirmed_rate_per_10k": 190.43,
      "confirmed_rate_per_100k": 1904.3,
      "deaths": 1,
      "deaths_rate_per_10k": 0.813802,
      "deaths_rate_per_100k": 8.13802,
      "total_tested": 6773,
      "test_rate_per_10k": 5511.88,
      "test_rate_per_100k": 55118.8,
      "total_population": 12288,
      "latitude": 40.022100,
      "longitude": -89.813000
    },
    {
      "County": "Mercer",
      "confirmed_cases": 449,
      "confirmed_rate_per_10k": 287.802,
      "confirmed_rate_per_100k": 2878.02,
      "deaths": 7,
      "deaths_rate_per_10k": 4.48689,
      "deaths_rate_per_100k": 44.8689,
      "total_tested": 7448,
      "test_rate_per_10k": 4774.05,
      "test_rate_per_100k": 47740.5,
      "total_population": 15601,
      "latitude": 41.198500,
      "longitude": -90.677300
    },
    {
      "County": "Monroe",
      "confirmed_cases": 1265,
      "confirmed_rate_per_10k": 368.429,
      "confirmed_rate_per_100k": 3684.29,
      "deaths": 39,
      "deaths_rate_per_10k": 11.3587,
      "deaths_rate_per_100k": 113.587,
      "total_tested": 13164,
      "test_rate_per_10k": 3833.99,
      "test_rate_per_100k": 38339.9,
      "total_population": 34335,
      "latitude": 38.274300,
      "longitude": -90.187000
    },
    {
      "County": "Montgomery",
      "confirmed_cases": 780,
      "confirmed_rate_per_10k": 272.718,
      "confirmed_rate_per_100k": 2727.18,
      "deaths": 17,
      "deaths_rate_per_10k": 5.94385,
      "deaths_rate_per_100k": 59.4385,
      "total_tested": 19487,
      "test_rate_per_10k": 6813.4,
      "test_rate_per_100k": 68134,
      "total_population": 28601,
      "latitude": 39.236400,
      "longitude": -89.474200
    },
    {
      "County": "Morgan",
      "confirmed_cases": 1259,
      "confirmed_rate_per_10k": 370.556,
      "confirmed_rate_per_100k": 3705.56,
      "deaths": 27,
      "deaths_rate_per_10k": 7.94679,
      "deaths_rate_per_100k": 79.4679,
      "total_tested": 18098,
      "test_rate_per_10k": 5326.7,
      "test_rate_per_100k": 53267,
      "total_population": 33976,
      "latitude": 39.734100,
      "longitude": -90.224500
    },
    {
      "County": "Moultrie",
      "confirmed_cases": 594,
      "confirmed_rate_per_10k": 403.615,
      "confirmed_rate_per_100k": 4036.15,
      "deaths": 8,
      "deaths_rate_per_10k": 5.43589,
      "deaths_rate_per_100k": 54.3589,
      "total_tested": 8285,
      "test_rate_per_10k": 5629.54,
      "test_rate_per_100k": 56295.4,
      "total_population": 14717,
      "latitude": 39.602100,
      "longitude": -88.595200
    },
    {
      "County": "Ogle",
      "confirmed_cases": 1792,
      "confirmed_rate_per_10k": 351.904,
      "confirmed_rate_per_100k": 3519.04,
      "deaths": 8,
      "deaths_rate_per_10k": 1.571,
      "deaths_rate_per_100k": 15.71,
      "total_tested": 23359,
      "test_rate_per_10k": 4587.12,
      "test_rate_per_100k": 45871.2,
      "total_population": 50923,
      "latitude": 41.997000,
      "longitude": -89.322700
    },
    {
      "County": "Peoria",
      "confirmed_cases": 5855,
      "confirmed_rate_per_10k": 324.159,
      "confirmed_rate_per_100k": 3241.59,
      "deaths": 91,
      "deaths_rate_per_10k": 5.03817,
      "deaths_rate_per_100k": 50.3817,
      "total_tested": 123434,
      "test_rate_per_10k": 6833.87,
      "test_rate_per_100k": 68338.7,
      "total_population": 180621,
      "latitude": 40.715600,
      "longitude": -89.775500
    },
    {
      "County": "Perry",
      "confirmed_cases": 626,
      "confirmed_rate_per_10k": 295.646,
      "confirmed_rate_per_100k": 2956.46,
      "deaths": 16,
      "deaths_rate_per_10k": 7.55644,
      "deaths_rate_per_100k": 75.5644,
      "total_tested": 8526,
      "test_rate_per_10k": 4026.64,
      "test_rate_per_100k": 40266.4,
      "total_population": 21174,
      "latitude": 38.061200,
      "longitude": -89.322700
    },
    {
      "County": "Piatt",
      "confirmed_cases": 423,
      "confirmed_rate_per_10k": 257.99,
      "confirmed_rate_per_100k": 2579.9,
      "deaths": 4,
      "deaths_rate_per_10k": 2.43962,
      "deaths_rate_per_100k": 24.3962,
      "total_tested": 12494,
      "test_rate_per_10k": 7620.15,
      "test_rate_per_100k": 76201.5,
      "total_population": 16396,
      "latitude": 40.054400,
      "longitude": -88.855650
    },
    {
      "County": "Pike",
      "confirmed_cases": 622,
      "confirmed_rate_per_10k": 398.437,
      "confirmed_rate_per_100k": 3984.37,
      "deaths": 11,
      "deaths_rate_per_10k": 7.04631,
      "deaths_rate_per_100k": 70.4631,
      "total_tested": 6820,
      "test_rate_per_10k": 4368.71,
      "test_rate_per_100k": 43687.1,
      "total_population": 15611,
      "latitude": 39.566200,
      "longitude": -90.829400
    },
    {
      "County": "Pope",
      "confirmed_cases": 52,
      "confirmed_rate_per_10k": 123.457,
      "confirmed_rate_per_100k": 1234.57,
      "deaths": 1,
      "deaths_rate_per_10k": 2.37417,
      "deaths_rate_per_100k": 23.7417,
      "total_tested": 939,
      "test_rate_per_10k": 2229.34,
      "test_rate_per_100k": 22293.4,
      "total_population": 4212,
      "latitude": 37.417100,
      "longitude": -88.595200
    },
    {
      "County": "Pulaski",
      "confirmed_cases": 280,
      "confirmed_rate_per_10k": 512.539,
      "confirmed_rate_per_100k": 5125.39,
      "deaths": 1,
      "deaths_rate_per_10k": 1.8305,
      "deaths_rate_per_100k": 18.305,
      "total_tested": 2354,
      "test_rate_per_10k": 4308.99,
      "test_rate_per_100k": 43089.9,
      "total_population": 5463,
      "latitude": 37.251200,
      "longitude": -89.132500
    },
    {
      "County": "Putnam",
      "confirmed_cases": 135,
      "confirmed_rate_per_10k": 235.192,
      "confirmed_rate_per_100k": 2351.92,
      "deaths": 0,
      "deaths_rate_per_10k": 0,
      "deaths_rate_per_100k": 0,
      "total_tested": 1853,
      "test_rate_per_10k": 3228.22,
      "test_rate_per_100k": 32282.2,
      "total_population": 5740,
      "latitude": 41.238500,
      "longitude": -89.284700
    },
    {
      "County": "Randolph",
      "confirmed_cases": 1557,
      "confirmed_rate_per_10k": 484.956,
      "confirmed_rate_per_100k": 4849.56,
      "deaths": 19,
      "deaths_rate_per_10k": 5.9179,
      "deaths_rate_per_100k": 59.179,
      "total_tested": 17909,
      "test_rate_per_10k": 5578.09,
      "test_rate_per_100k": 55780.9,
      "total_population": 32106,
      "latitude": 38.062900,
      "longitude": -89.775500
    },
    {
      "County": "Richland",
      "confirmed_cases": 416,
      "confirmed_rate_per_10k": 263.909,
      "confirmed_rate_per_100k": 2639.09,
      "deaths": 18,
      "deaths_rate_per_10k": 11.4191,
      "deaths_rate_per_100k": 114.191,
      "total_tested": 8706,
      "test_rate_per_10k": 5523.06,
      "test_rate_per_100k": 55230.6,
      "total_population": 15763,
      "latitude": 38.721300,
      "longitude": -88.090100
    },
    {
      "County": "Rock Island",
      "confirmed_cases": 5503,
      "confirmed_rate_per_10k": 383.546,
      "confirmed_rate_per_100k": 3835.46,
      "deaths": 101,
      "deaths_rate_per_10k": 7.03946,
      "deaths_rate_per_100k": 70.3946,
      "total_tested": 82633,
      "test_rate_per_10k": 5759.32,
      "test_rate_per_100k": 57593.2,
      "total_population": 143477,
      "latitude": 41.509500,
      "longitude": -90.578700
    },
    {
      "County": "Saline",
      "confirmed_cases": 751,
      "confirmed_rate_per_10k": 314.147,
      "confirmed_rate_per_100k": 3141.47,
      "deaths": 14,
      "deaths_rate_per_10k": 5.85627,
      "deaths_rate_per_100k": 58.5627,
      "total_tested": 9587,
      "test_rate_per_10k": 4010.29,
      "test_rate_per_100k": 40102.9,
      "total_population": 23906,
      "latitude": 37.715000,
      "longitude": -88.556500
    },
    {
      "County": "Sangamon",
      "confirmed_cases": 5943,
      "confirmed_rate_per_10k": 304.226,
      "confirmed_rate_per_100k": 3042.26,
      "deaths": 67,
      "deaths_rate_per_10k": 3.42978,
      "deaths_rate_per_100k": 34.2978,
      "total_tested": 151468,
      "test_rate_per_10k": 7753.75,
      "test_rate_per_100k": 77537.5,
      "total_population": 195348,
      "latitude": 39.733700,
      "longitude": -89.625200
    },
    {
      "County": "Schuyler",
      "confirmed_cases": 127,
      "confirmed_rate_per_10k": 183.871,
      "confirmed_rate_per_100k": 1838.71,
      "deaths": 1,
      "deaths_rate_per_10k": 1.44781,
      "deaths_rate_per_100k": 14.4781,
      "total_tested": 2513,
      "test_rate_per_10k": 3638.34,
      "test_rate_per_100k": 36383.4,
      "total_population": 6907,
      "latitude": 40.184500,
      "longitude": -90.639400
    },
    {
      "County": "Scott",
      "confirmed_cases": 148,
      "confirmed_rate_per_10k": 300.447,
      "confirmed_rate_per_100k": 3004.47,
      "deaths": 0,
      "deaths_rate_per_10k": 0,
      "deaths_rate_per_100k": 0,
      "total_tested": 3162,
      "test_rate_per_10k": 6419,
      "test_rate_per_100k": 64190,
      "total_population": 4926,
      "latitude": 39.609500,
      "longitude": -90.488000
    },
    {
      "County": "Shelby",
      "confirmed_cases": 903,
      "confirmed_rate_per_10k": 415.344,
      "confirmed_rate_per_100k": 4153.44,
      "deaths": 19,
      "deaths_rate_per_10k": 8.73925,
      "deaths_rate_per_100k": 87.3925,
      "total_tested": 9704,
      "test_rate_per_10k": 4463.46,
      "test_rate_per_100k": 44634.6,
      "total_population": 21741,
      "latitude": 39.398100,
      "longitude": -88.864700
    },
    {
      "County": "St. Clair",
      "confirmed_cases": 9258,
      "confirmed_rate_per_10k": 354.632,
      "confirmed_rate_per_100k": 3546.32,
      "deaths": 230,
      "deaths_rate_per_10k": 8.81027,
      "deaths_rate_per_100k": 88.1027,
      "total_tested": 118615,
      "test_rate_per_10k": 4543.61,
      "test_rate_per_100k": 45436.1,
      "total_population": 261059,
      "latitude": 38.400800,
      "longitude": -89.925300
    },
    {
      "County": "Stark",
      "confirmed_cases": 129,
      "confirmed_rate_per_10k": 237.7,
      "confirmed_rate_per_100k": 2377,
      "deaths": 3,
      "deaths_rate_per_10k": 5.52792,
      "deaths_rate_per_100k": 55.2792,
      "total_tested": 3300,
      "test_rate_per_10k": 6080.71,
      "test_rate_per_100k": 60807.1,
      "total_population": 5427,
      "latitude": 41.079600,
      "longitude": -89.813000
    },
    {
      "County": "Stephenson",
      "confirmed_cases": 1618,
      "confirmed_rate_per_10k": 361.54,
      "confirmed_rate_per_100k": 3615.4,
      "deaths": 13,
      "deaths_rate_per_10k": 2.90483,
      "deaths_rate_per_100k": 29.0483,
      "total_tested": 20060,
      "test_rate_per_10k": 4482.38,
      "test_rate_per_100k": 44823.8,
      "total_population": 44753,
      "latitude": 42.314500,
      "longitude": -89.625200
    },
    {
      "County": "Tazewell",
      "confirmed_cases": 3714,
      "confirmed_rate_per_10k": 280.666,
      "confirmed_rate_per_100k": 2806.66,
      "deaths": 63,
      "deaths_rate_per_10k": 4.7609,
      "deaths_rate_per_100k": 47.609,
      "total_tested": 84069,
      "test_rate_per_10k": 6353.08,
      "test_rate_per_100k": 63530.8,
      "total_population": 132328,
      "latitude": 40.552200,
      "longitude": -89.474200
    },
    {
      "County": "Union",
      "confirmed_cases": 878,
      "confirmed_rate_per_10k": 521.347,
      "confirmed_rate_per_100k": 5213.47,
      "deaths": 25,
      "deaths_rate_per_10k": 14.8447,
      "deaths_rate_per_100k": 148.447,
      "total_tested": 10099,
      "test_rate_per_10k": 5996.67,
      "test_rate_per_100k": 59966.7,
      "total_population": 16841,
      "latitude": 37.508700,
      "longitude": -89.284700
    },
    {
      "County": "Vermilion",
      "confirmed_cases": 2350,
      "confirmed_rate_per_10k": 305.966,
      "confirmed_rate_per_100k": 3059.66,
      "deaths": 20,
      "deaths_rate_per_10k": 2.60396,
      "deaths_rate_per_100k": 26.0396,
      "total_tested": 41924,
      "test_rate_per_10k": 5458.43,
      "test_rate_per_100k": 54584.3,
      "total_population": 76806,
      "latitude": 40.122500,
      "longitude": -87.697600
    },
    {
      "County": "Wabash",
      "confirmed_cases": 326,
      "confirmed_rate_per_10k": 282.276,
      "confirmed_rate_per_100k": 2822.76,
      "deaths": 6,
      "deaths_rate_per_10k": 5.19526,
      "deaths_rate_per_100k": 51.9526,
      "total_tested": 3286,
      "test_rate_per_10k": 2845.27,
      "test_rate_per_100k": 28452.7,
      "total_population": 11549,
      "latitude": 38.422600,
      "longitude": -87.815700
    },
    {
      "County": "Warren",
      "confirmed_cases": 690,
      "confirmed_rate_per_10k": 405.12,
      "confirmed_rate_per_100k": 4051.2,
      "deaths": 11,
      "deaths_rate_per_10k": 6.45843,
      "deaths_rate_per_100k": 64.5843,
      "total_tested": 6585,
      "test_rate_per_10k": 3866.25,
      "test_rate_per_100k": 38662.5,
      "total_population": 17032,
      "latitude": 40.875900,
      "longitude": -90.677300
    },
    {
      "County": "Washington",
      "confirmed_cases": 411,
      "confirmed_rate_per_10k": 293.676,
      "confirmed_rate_per_100k": 2936.76,
      "deaths": 2,
      "deaths_rate_per_10k": 1.42908,
      "deaths_rate_per_100k": 14.2908,
      "total_tested": 4701,
      "test_rate_per_10k": 3359.06,
      "test_rate_per_100k": 33590.6,
      "total_population": 13995,
      "latitude": 38.398900,
      "longitude": -89.322700
    },
    {
      "County": "Wayne",
      "confirmed_cases": 636,
      "confirmed_rate_per_10k": 389.42,
      "confirmed_rate_per_100k": 3894.2,
      "deaths": 20,
      "deaths_rate_per_10k": 12.2459,
      "deaths_rate_per_100k": 122.459,
      "total_tested": 6259,
      "test_rate_per_10k": 3832.35,
      "test_rate_per_100k": 38323.5,
      "total_population": 16332,
      "latitude": 38.390000,
      "longitude": -88.401600
    },
    {
      "County": "White",
      "confirmed_cases": 353,
      "confirmed_rate_per_10k": 258.324,
      "confirmed_rate_per_100k": 2583.24,
      "deaths": 5,
      "deaths_rate_per_10k": 3.65898,
      "deaths_rate_per_100k": 36.5898,
      "total_tested": 8425,
      "test_rate_per_10k": 6165.39,
      "test_rate_per_100k": 61653.9,
      "total_population": 13665,
      "latitude": 38.050100,
      "longitude": -88.246100
    },
    {
      "County": "Whiteside",
      "confirmed_cases": 2330,
      "confirmed_rate_per_10k": 418.869,
      "confirmed_rate_per_100k": 4188.69,
      "deaths": 48,
      "deaths_rate_per_10k": 8.62906,
      "deaths_rate_per_100k": 86.2906,
      "total_tested": 25434,
      "test_rate_per_10k": 4572.32,
      "test_rate_per_100k": 45723.2,
      "total_population": 55626,
      "latitude": 41.760600,
      "longitude": -89.850500
    },
    {
      "County": "Will",
      "confirmed_cases": 24580,
      "confirmed_rate_per_10k": 355.043,
      "confirmed_rate_per_100k": 3550.43,
      "deaths": 457,
      "deaths_rate_per_10k": 6.60109,
      "deaths_rate_per_100k": 66.0109,
      "total_tested": 317304,
      "test_rate_per_10k": 4583.26,
      "test_rate_per_100k": 45832.6,
      "total_population": 692310,
      "latitude": 41.505500,
      "longitude": -88.090100
    },
    {
      "County": "Williamson",
      "confirmed_cases": 2405,
      "confirmed_rate_per_10k": 358.655,
      "confirmed_rate_per_100k": 3586.55,
      "deaths": 65,
      "deaths_rate_per_10k": 9.69339,
      "deaths_rate_per_100k": 96.9339,
      "total_tested": 35670,
      "test_rate_per_10k": 5319.43,
      "test_rate_per_100k": 53194.3,
      "total_population": 67056,
      "latitude": 37.718300,
      "longitude": -88.864700
    },
    {
      "County": "Winnebago",
      "confirmed_cases": 13600,
      "confirmed_rate_per_10k": 478.737,
      "confirmed_rate_per_100k": 4787.37,
      "deaths": 200,
      "deaths_rate_per_10k": 7.04025,
      "deaths_rate_per_100k": 70.4025,
      "total_tested": 157555,
      "test_rate_per_10k": 5546.13,
      "test_rate_per_100k": 55461.3,
      "total_population": 284081,
      "latitude": 42.312100,
      "longitude": -89.170600
    },
    {
      "County": "Woodford",
      "confirmed_cases": 988,
      "confirmed_rate_per_10k": 256.87,
      "confirmed_rate_per_100k": 2568.7,
      "deaths": 17,
      "deaths_rate_per_10k": 4.41983,
      "deaths_rate_per_100k": 44.1983,
      "total_tested": 20555,
      "test_rate_per_10k": 5344.1,
      "test_rate_per_100k": 53441,
      "total_population": 38463,
      "latitude": 40.712900,
      "longitude": -89.170600
    }
  ]
}
