{
  "LastUpdateDate": {
    "year": 2020,
    "month": 10,
    "day": 15
  },
  "county_rates": [
    {
      "County": "Adams",
      "confirmed_cases": 1488,
      "confirmed_rate_per_10k": 226.515,
      "confirmed_rate_per_100k": 2265.15,
      "deaths": 14,
      "deaths_rate_per_10k": 2.13119,
      "deaths_rate_per_100k": 21.3119,
      "total_tested": 35653,
      "test_rate_per_10k": 5427.38,
      "test_rate_per_100k": 54273.8,
      "total_population": 65691,
      "latitude": 40.057800,
      "longitude": -91.135300
    },
    {
      "County": "Alexander",
      "confirmed_cases": 105,
      "confirmed_rate_per_10k": 173.267,
      "confirmed_rate_per_100k": 1732.67,
      "deaths": 1,
      "deaths_rate_per_10k": 1.65017,
      "deaths_rate_per_100k": 16.5017,
      "total_tested": 2236,
      "test_rate_per_10k": 3689.77,
      "test_rate_per_100k": 36897.7,
      "total_population": 6060,
      "latitude": 37.167000,
      "longitude": -89.360600
    },
    {
      "County": "Bond",
      "confirmed_cases": 417,
      "confirmed_rate_per_10k": 250.752,
      "confirmed_rate_per_100k": 2507.52,
      "deaths": 9,
      "deaths_rate_per_10k": 5.41191,
      "deaths_rate_per_100k": 54.1191,
      "total_tested": 7039,
      "test_rate_per_10k": 4232.71,
      "test_rate_per_100k": 42327.1,
      "total_population": 16630,
      "latitude": 38.903000,
      "longitude": -89.474200
    },
    {
      "County": "Boone",
      "confirmed_cases": 1527,
      "confirmed_rate_per_10k": 285.01,
      "confirmed_rate_per_100k": 2850.1,
      "deaths": 24,
      "deaths_rate_per_10k": 4.47953,
      "deaths_rate_per_100k": 44.7953,
      "total_tested": 19255,
      "test_rate_per_10k": 3593.89,
      "test_rate_per_100k": 35938.9,
      "total_population": 53577,
      "latitude": 42.348500,
      "longitude": -88.826300
    },
    {
      "County": "Brown",
      "confirmed_cases": 87,
      "confirmed_rate_per_10k": 132.703,
      "confirmed_rate_per_100k": 1327.03,
      "deaths": 0,
      "deaths_rate_per_10k": 0,
      "deaths_rate_per_100k": 0,
      "total_tested": 1914,
      "test_rate_per_10k": 2919.46,
      "test_rate_per_100k": 29194.6,
      "total_population": 6556,
      "latitude": 39.938000,
      "longitude": -90.715300
    },
    {
      "County": "Bureau",
      "confirmed_cases": 821,
      "confirmed_rate_per_10k": 248.841,
      "confirmed_rate_per_100k": 2488.41,
      "deaths": 16,
      "deaths_rate_per_10k": 4.84951,
      "deaths_rate_per_100k": 48.4951,
      "total_tested": 11377,
      "test_rate_per_10k": 3448.31,
      "test_rate_per_100k": 34483.1,
      "total_population": 32993,
      "latitude": 41.359900,
      "longitude": -89.474200
    },
    {
      "County": "Calhoun",
      "confirmed_cases": 66,
      "confirmed_rate_per_10k": 137.443,
      "confirmed_rate_per_100k": 1374.43,
      "deaths": 0,
      "deaths_rate_per_10k": 0,
      "deaths_rate_per_100k": 0,
      "total_tested": 1455,
      "test_rate_per_10k": 3029.99,
      "test_rate_per_100k": 30299.9,
      "total_population": 4802,
      "latitude": 39.173300,
      "longitude": -90.658300
    },
    {
      "County": "Carroll",
      "confirmed_cases": 328,
      "confirmed_rate_per_10k": 229.178,
      "confirmed_rate_per_100k": 2291.78,
      "deaths": 7,
      "deaths_rate_per_10k": 4.891,
      "deaths_rate_per_100k": 48.91,
      "total_tested": 5900,
      "test_rate_per_10k": 4122.41,
      "test_rate_per_100k": 41224.1,
      "total_population": 14312,
      "latitude": 42.038600,
      "longitude": -89.962700
    },
    {
      "County": "Cass",
      "confirmed_cases": 442,
      "confirmed_rate_per_10k": 360.522,
      "confirmed_rate_per_100k": 3605.22,
      "deaths": 11,
      "deaths_rate_per_10k": 8.97227,
      "deaths_rate_per_100k": 89.7227,
      "total_tested": 5297,
      "test_rate_per_10k": 4320.55,
      "test_rate_per_100k": 43205.5,
      "total_population": 12260,
      "latitude": 39.939900,
      "longitude": -90.262000
    },
    {
      "County": "Champaign",
      "confirmed_cases": 5559,
      "confirmed_rate_per_10k": 264.736,
      "confirmed_rate_per_100k": 2647.36,
      "deaths": 28,
      "deaths_rate_per_10k": 1.33344,
      "deaths_rate_per_100k": 13.3344,
      "total_tested": 660867,
      "test_rate_per_10k": 31472.4,
      "test_rate_per_100k": 314724,
      "total_population": 209983,
      "latitude": 40.213900,
      "longitude": -88.246100
    },
    {
      "County": "Chicago",
      "confirmed_cases": 86801,
      "confirmed_rate_per_10k": 320.773,
      "confirmed_rate_per_100k": 3207.73,
      "deaths": 3003,
      "deaths_rate_per_10k": 11.0976,
      "deaths_rate_per_100k": 110.976,
      "total_tested": 1325450,
      "test_rate_per_10k": 4898.2,
      "test_rate_per_100k": 48982,
      "total_population": 2705994,
      "latitude": 41.789896,
      "longitude": -87.627734
    },
    {
      "County": "Christian",
      "confirmed_cases": 739,
      "confirmed_rate_per_10k": 226.264,
      "confirmed_rate_per_100k": 2262.64,
      "deaths": 23,
      "deaths_rate_per_10k": 7.04204,
      "deaths_rate_per_100k": 70.4204,
      "total_tested": 13254,
      "test_rate_per_10k": 4058.05,
      "test_rate_per_100k": 40580.5,
      "total_population": 32661,
      "latitude": 39.567200,
      "longitude": -89.322700
    },
    {
      "County": "Clark",
      "confirmed_cases": 241,
      "confirmed_rate_per_10k": 154.527,
      "confirmed_rate_per_100k": 1545.27,
      "deaths": 6,
      "deaths_rate_per_10k": 3.84714,
      "deaths_rate_per_100k": 38.4714,
      "total_tested": 5243,
      "test_rate_per_10k": 3361.76,
      "test_rate_per_100k": 33617.6,
      "total_population": 15596,
      "latitude": 39.382400,
      "longitude": -87.776300
    },
    {
      "County": "Clay",
      "confirmed_cases": 262,
      "confirmed_rate_per_10k": 197.691,
      "confirmed_rate_per_100k": 1976.91,
      "deaths": 9,
      "deaths_rate_per_10k": 6.79092,
      "deaths_rate_per_100k": 67.9092,
      "total_tested": 4140,
      "test_rate_per_10k": 3123.82,
      "test_rate_per_100k": 31238.2,
      "total_population": 13253,
      "latitude": 38.727900,
      "longitude": -88.556500
    },
    {
      "County": "Clinton",
      "confirmed_cases": 1480,
      "confirmed_rate_per_10k": 393.209,
      "confirmed_rate_per_100k": 3932.09,
      "deaths": 23,
      "deaths_rate_per_10k": 6.11068,
      "deaths_rate_per_100k": 61.1068,
      "total_tested": 15651,
      "test_rate_per_10k": 4158.19,
      "test_rate_per_100k": 41581.9,
      "total_population": 37639,
      "latitude": 38.568400,
      "longitude": -89.625200
    },
    {
      "County": "Coles",
      "confirmed_cases": 1694,
      "confirmed_rate_per_10k": 332.908,
      "confirmed_rate_per_100k": 3329.08,
      "deaths": 38,
      "deaths_rate_per_10k": 7.46782,
      "deaths_rate_per_100k": 74.6782,
      "total_tested": 25635,
      "test_rate_per_10k": 5037.83,
      "test_rate_per_100k": 50378.3,
      "total_population": 50885,
      "latitude": 39.556000,
      "longitude": -88.246100
    },
    {
      "County": "Cook",
      "confirmed_cases": 72234,
      "confirmed_rate_per_10k": 291.914,
      "confirmed_rate_per_100k": 2919.14,
      "deaths": 2329,
      "deaths_rate_per_10k": 9.41201,
      "deaths_rate_per_100k": 94.1201,
      "total_tested": 1143544,
      "test_rate_per_10k": 4621.32,
      "test_rate_per_100k": 46213.2,
      "total_population": 2474499,
      "latitude": 42.050784,
      "longitude": -87.963759
    },
    {
      "County": "Crawford",
      "confirmed_cases": 604,
      "confirmed_rate_per_10k": 321.157,
      "confirmed_rate_per_100k": 3211.57,
      "deaths": 6,
      "deaths_rate_per_10k": 3.1903,
      "deaths_rate_per_100k": 31.903,
      "total_tested": 5172,
      "test_rate_per_10k": 2750.04,
      "test_rate_per_100k": 27500.4,
      "total_population": 18807,
      "latitude": 41.833000,
      "longitude": -88.710900
    },
    {
      "County": "Cumberland",
      "confirmed_cases": 244,
      "confirmed_rate_per_10k": 225.759,
      "confirmed_rate_per_100k": 2257.59,
      "deaths": 5,
      "deaths_rate_per_10k": 4.6262,
      "deaths_rate_per_100k": 46.262,
      "total_tested": 4380,
      "test_rate_per_10k": 4052.55,
      "test_rate_per_100k": 40525.5,
      "total_population": 10808,
      "latitude": 39.265400,
      "longitude": -88.207200
    },
    {
      "County": "De Witt",
      "confirmed_cases": 219,
      "confirmed_rate_per_10k": 138.88,
      "confirmed_rate_per_100k": 1388.8,
      "deaths": 3,
      "deaths_rate_per_10k": 1.90247,
      "deaths_rate_per_100k": 19.0247,
      "total_tested": 4997,
      "test_rate_per_10k": 3168.88,
      "test_rate_per_100k": 31688.8,
      "total_population": 15769,
      "latitude": 40.181000,
      "longitude": -88.903100
    },
    {
      "County": "DeKalb",
      "confirmed_cases": 1984,
      "confirmed_rate_per_10k": 190.507,
      "confirmed_rate_per_100k": 1905.07,
      "deaths": 42,
      "deaths_rate_per_10k": 4.03292,
      "deaths_rate_per_100k": 40.3292,
      "total_tested": 38768,
      "test_rate_per_10k": 3722.57,
      "test_rate_per_100k": 37225.7,
      "total_population": 104143,
      "latitude": 41.833000,
      "longitude": -88.710900
    },
    {
      "County": "Douglas",
      "confirmed_cases": 447,
      "confirmed_rate_per_10k": 229.478,
      "confirmed_rate_per_100k": 2294.78,
      "deaths": 8,
      "deaths_rate_per_10k": 4.10699,
      "deaths_rate_per_100k": 41.0699,
      "total_tested": 9393,
      "test_rate_per_10k": 4822.12,
      "test_rate_per_100k": 48221.2,
      "total_population": 19479,
      "latitude": 39.761800,
      "longitude": -88.207200
    },
    {
      "County": "DuPage",
      "confirmed_cases": 19967,
      "confirmed_rate_per_10k": 215.025,
      "confirmed_rate_per_100k": 2150.25,
      "deaths": 592,
      "deaths_rate_per_10k": 6.37526,
      "deaths_rate_per_100k": 63.7526,
      "total_tested": 378456,
      "test_rate_per_10k": 4075.6,
      "test_rate_per_100k": 40756,
      "total_population": 928589,
      "latitude": 41.824400,
      "longitude": -88.090100
    },
    {
      "County": "Edgar",
      "confirmed_cases": 135,
      "confirmed_rate_per_10k": 77.765,
      "confirmed_rate_per_100k": 777.65,
      "deaths": 8,
      "deaths_rate_per_10k": 4.60829,
      "deaths_rate_per_100k": 46.0829,
      "total_tested": 4315,
      "test_rate_per_10k": 2485.6,
      "test_rate_per_100k": 24856,
      "total_population": 17360,
      "latitude": 39.713100,
      "longitude": -87.776300
    },
    {
      "County": "Edwards",
      "confirmed_cases": 87,
      "confirmed_rate_per_10k": 136.108,
      "confirmed_rate_per_100k": 1361.08,
      "deaths": 0,
      "deaths_rate_per_10k": 0,
      "deaths_rate_per_100k": 0,
      "total_tested": 990,
      "test_rate_per_10k": 1548.81,
      "test_rate_per_100k": 15488.1,
      "total_population": 6392,
      "latitude": 38.426800,
      "longitude": -88.051000
    },
    {
      "County": "Effingham",
      "confirmed_cases": 1028,
      "confirmed_rate_per_10k": 300.514,
      "confirmed_rate_per_100k": 3005.14,
      "deaths": 3,
      "deaths_rate_per_10k": 0.876988,
      "deaths_rate_per_100k": 8.76988,
      "total_tested": 13708,
      "test_rate_per_10k": 4007.25,
      "test_rate_per_100k": 40072.5,
      "total_population": 34208,
      "latitude": 39.062200,
      "longitude": -88.556500
    },
    {
      "County": "Fayette",
      "confirmed_cases": 589,
      "confirmed_rate_per_10k": 275.028,
      "confirmed_rate_per_100k": 2750.28,
      "deaths": 16,
      "deaths_rate_per_10k": 7.47105,
      "deaths_rate_per_100k": 74.7105,
      "total_tested": 7461,
      "test_rate_per_10k": 3483.84,
      "test_rate_per_100k": 34838.4,
      "total_population": 21416,
      "latitude": 39.067000,
      "longitude": -89.017900
    },
    {
      "County": "Ford",
      "confirmed_cases": 162,
      "confirmed_rate_per_10k": 122.135,
      "confirmed_rate_per_100k": 1221.35,
      "deaths": 7,
      "deaths_rate_per_10k": 5.27744,
      "deaths_rate_per_100k": 52.7744,
      "total_tested": 5898,
      "test_rate_per_10k": 4446.62,
      "test_rate_per_100k": 44466.2,
      "total_population": 13264,
      "latitude": 40.498900,
      "longitude": -88.207200
    },
    {
      "County": "Franklin",
      "confirmed_cases": 779,
      "confirmed_rate_per_10k": 201.287,
      "confirmed_rate_per_100k": 2012.87,
      "deaths": 6,
      "deaths_rate_per_10k": 1.55035,
      "deaths_rate_per_100k": 15.5035,
      "total_tested": 14201,
      "test_rate_per_10k": 3669.41,
      "test_rate_per_100k": 36694.1,
      "total_population": 38701,
      "latitude": 38.015700,
      "longitude": -88.903100
    },
    {
      "County": "Fulton",
      "confirmed_cases": 344,
      "confirmed_rate_per_10k": 98.7257,
      "confirmed_rate_per_100k": 987.257,
      "deaths": 0,
      "deaths_rate_per_10k": 0,
      "deaths_rate_per_100k": 0,
      "total_tested": 12872,
      "test_rate_per_10k": 3694.18,
      "test_rate_per_100k": 36941.8,
      "total_population": 34844,
      "latitude": 40.553200,
      "longitude": -90.224500
    },
    {
      "County": "Gallatin",
      "confirmed_cases": 100,
      "confirmed_rate_per_10k": 197.707,
      "confirmed_rate_per_100k": 1977.07,
      "deaths": 2,
      "deaths_rate_per_10k": 3.95413,
      "deaths_rate_per_100k": 39.5413,
      "total_tested": 958,
      "test_rate_per_10k": 1894.03,
      "test_rate_per_100k": 18940.3,
      "total_population": 5058,
      "latitude": 37.710800,
      "longitude": -88.246100
    },
    {
      "County": "Greene",
      "confirmed_cases": 253,
      "confirmed_rate_per_10k": 193.959,
      "confirmed_rate_per_100k": 1939.59,
      "deaths": 15,
      "deaths_rate_per_10k": 11.4995,
      "deaths_rate_per_100k": 114.995,
      "total_tested": 4367,
      "test_rate_per_10k": 3347.9,
      "test_rate_per_100k": 33479,
      "total_population": 13044,
      "latitude": 39.403000,
      "longitude": -90.374800
    },
    {
      "County": "Grundy",
      "confirmed_cases": 820,
      "confirmed_rate_per_10k": 160.873,
      "confirmed_rate_per_100k": 1608.73,
      "deaths": 7,
      "deaths_rate_per_10k": 1.3733,
      "deaths_rate_per_100k": 13.733,
      "total_tested": 12415,
      "test_rate_per_10k": 2435.65,
      "test_rate_per_100k": 24356.5,
      "total_population": 50972,
      "latitude": 41.350100,
      "longitude": -88.401600
    },
    {
      "County": "Hamilton",
      "confirmed_cases": 101,
      "confirmed_rate_per_10k": 123.729,
      "confirmed_rate_per_100k": 1237.29,
      "deaths": 2,
      "deaths_rate_per_10k": 2.45008,
      "deaths_rate_per_100k": 24.5008,
      "total_tested": 1776,
      "test_rate_per_10k": 2175.67,
      "test_rate_per_100k": 21756.7,
      "total_population": 8163,
      "latitude": 38.054300,
      "longitude": -88.556500
    },
    {
      "County": "Hancock",
      "confirmed_cases": 264,
      "confirmed_rate_per_10k": 147.949,
      "confirmed_rate_per_100k": 1479.49,
      "deaths": 3,
      "deaths_rate_per_10k": 1.68124,
      "deaths_rate_per_100k": 16.8124,
      "total_tested": 6268,
      "test_rate_per_10k": 3512.67,
      "test_rate_per_100k": 35126.7,
      "total_population": 17844,
      "latitude": 40.384900,
      "longitude": -91.135300
    },
    {
      "County": "Hardin",
      "confirmed_cases": 48,
      "confirmed_rate_per_10k": 122.762,
      "confirmed_rate_per_100k": 1227.62,
      "deaths": 0,
      "deaths_rate_per_10k": 0,
      "deaths_rate_per_100k": 0,
      "total_tested": 1214,
      "test_rate_per_10k": 3104.86,
      "test_rate_per_100k": 31048.6,
      "total_population": 3910,
      "latitude": 37.499500,
      "longitude": -88.362800
    },
    {
      "County": "Henderson",
      "confirmed_cases": 93,
      "confirmed_rate_per_10k": 138.62,
      "confirmed_rate_per_100k": 1386.2,
      "deaths": 0,
      "deaths_rate_per_10k": 0,
      "deaths_rate_per_100k": 0,
      "total_tested": 1577,
      "test_rate_per_10k": 2350.57,
      "test_rate_per_100k": 23505.7,
      "total_population": 6709,
      "latitude": 40.833600,
      "longitude": -90.943800
    },
    {
      "County": "Henry",
      "confirmed_cases": 775,
      "confirmed_rate_per_10k": 157.873,
      "confirmed_rate_per_100k": 1578.73,
      "deaths": 5,
      "deaths_rate_per_10k": 1.01854,
      "deaths_rate_per_100k": 10.1854,
      "total_tested": 18998,
      "test_rate_per_10k": 3870.03,
      "test_rate_per_100k": 38700.3,
      "total_population": 49090,
      "latitude": 41.361100,
      "longitude": -90.074700
    },
    {
      "County": "Iroquois",
      "confirmed_cases": 436,
      "confirmed_rate_per_10k": 157.948,
      "confirmed_rate_per_100k": 1579.48,
      "deaths": 19,
      "deaths_rate_per_10k": 6.88306,
      "deaths_rate_per_100k": 68.8306,
      "total_tested": 12673,
      "test_rate_per_10k": 4591,
      "test_rate_per_100k": 45910,
      "total_population": 27604,
      "latitude": 40.774000,
      "longitude": -87.697600
    },
    {
      "County": "Jackson",
      "confirmed_cases": 1392,
      "confirmed_rate_per_10k": 242.428,
      "confirmed_rate_per_100k": 2424.28,
      "deaths": 25,
      "deaths_rate_per_10k": 4.35396,
      "deaths_rate_per_100k": 43.5396,
      "total_tested": 21043,
      "test_rate_per_10k": 3664.81,
      "test_rate_per_100k": 36648.1,
      "total_population": 57419,
      "latitude": 37.721800,
      "longitude": -89.322700
    },
    {
      "County": "Jasper",
      "confirmed_cases": 234,
      "confirmed_rate_per_10k": 243.471,
      "confirmed_rate_per_100k": 2434.71,
      "deaths": 10,
      "deaths_rate_per_10k": 10.4047,
      "deaths_rate_per_100k": 104.047,
      "total_tested": 3118,
      "test_rate_per_10k": 3244.2,
      "test_rate_per_100k": 32442,
      "total_population": 9611,
      "latitude": 39.055500,
      "longitude": -88.090100
    },
    {
      "County": "Jefferson",
      "confirmed_cases": 834,
      "confirmed_rate_per_10k": 220.518,
      "confirmed_rate_per_100k": 2205.18,
      "deaths": 41,
      "deaths_rate_per_10k": 10.8408,
      "deaths_rate_per_100k": 108.408,
      "total_tested": 11565,
      "test_rate_per_10k": 3057.91,
      "test_rate_per_100k": 30579.1,
      "total_population": 37820,
      "latitude": 38.226700,
      "longitude": -88.864700
    },
    {
      "County": "Jersey",
      "confirmed_cases": 438,
      "confirmed_rate_per_10k": 200.485,
      "confirmed_rate_per_100k": 2004.85,
      "deaths": 21,
      "deaths_rate_per_10k": 9.6123,
      "deaths_rate_per_100k": 96.123,
      "total_tested": 7247,
      "test_rate_per_10k": 3317.16,
      "test_rate_per_100k": 33171.6,
      "total_population": 21847,
      "latitude": 39.070500,
      "longitude": -90.374800
    },
    {
      "County": "Jo Daviess",
      "confirmed_cases": 381,
      "confirmed_rate_per_10k": 178.321,
      "confirmed_rate_per_100k": 1783.21,
      "deaths": 3,
      "deaths_rate_per_10k": 1.4041,
      "deaths_rate_per_100k": 14.041,
      "total_tested": 6455,
      "test_rate_per_10k": 3021.16,
      "test_rate_per_100k": 30211.6,
      "total_population": 21366,
      "latitude": 42.314900,
      "longitude": -90.224500
    },
    {
      "County": "Johnson",
      "confirmed_cases": 289,
      "confirmed_rate_per_10k": 232.017,
      "confirmed_rate_per_100k": 2320.17,
      "deaths": 0,
      "deaths_rate_per_10k": 0,
      "deaths_rate_per_100k": 0,
      "total_tested": 3366,
      "test_rate_per_10k": 2702.31,
      "test_rate_per_100k": 27023.1,
      "total_population": 12456,
      "latitude": 37.420400,
      "longitude": -88.903100
    },
    {
      "County": "Kane",
      "confirmed_cases": 14702,
      "confirmed_rate_per_10k": 275.207,
      "confirmed_rate_per_100k": 2752.07,
      "deaths": 338,
      "deaths_rate_per_10k": 6.32703,
      "deaths_rate_per_100k": 63.2703,
      "total_tested": 202060,
      "test_rate_per_10k": 3782.37,
      "test_rate_per_100k": 37823.7,
      "total_population": 534216,
      "latitude": 41.987900,
      "longitude": -88.401600
    },
    {
      "County": "Kankakee",
      "confirmed_cases": 3051,
      "confirmed_rate_per_10k": 277.303,
      "confirmed_rate_per_100k": 2773.03,
      "deaths": 78,
      "deaths_rate_per_10k": 7.08936,
      "deaths_rate_per_100k": 70.8936,
      "total_tested": 58879,
      "test_rate_per_10k": 5351.47,
      "test_rate_per_100k": 53514.7,
      "total_population": 110024,
      "latitude": 41.179100,
      "longitude": -87.776300
    },
    {
      "County": "Kendall",
      "confirmed_cases": 2349,
      "confirmed_rate_per_10k": 183.638,
      "confirmed_rate_per_100k": 1836.38,
      "deaths": 27,
      "deaths_rate_per_10k": 2.11078,
      "deaths_rate_per_100k": 21.1078,
      "total_tested": 39546,
      "test_rate_per_10k": 3091.58,
      "test_rate_per_100k": 30915.8,
      "total_population": 127915,
      "latitude": 41.550700,
      "longitude": -88.440400
    },
    {
      "County": "Knox",
      "confirmed_cases": 982,
      "confirmed_rate_per_10k": 195.961,
      "confirmed_rate_per_100k": 1959.61,
      "deaths": 9,
      "deaths_rate_per_10k": 1.79598,
      "deaths_rate_per_100k": 17.9598,
      "total_tested": 20847,
      "test_rate_per_10k": 4160.08,
      "test_rate_per_100k": 41600.8,
      "total_population": 50112,
      "latitude": 40.877600,
      "longitude": -90.224500
    },
    {
      "County": "Lake",
      "confirmed_cases": 18859,
      "confirmed_rate_per_10k": 269.094,
      "confirmed_rate_per_100k": 2690.94,
      "deaths": 499,
      "deaths_rate_per_10k": 7.12011,
      "deaths_rate_per_100k": 71.2011,
      "total_tested": 288461,
      "test_rate_per_10k": 4115.98,
      "test_rate_per_100k": 41159.8,
      "total_population": 700832,
      "latitude": 42.368900,
      "longitude": -87.827200
    },
    {
      "County": "LaSalle",
      "confirmed_cases": 2069,
      "confirmed_rate_per_10k": 189.071,
      "confirmed_rate_per_100k": 1890.71,
      "deaths": 58,
      "deaths_rate_per_10k": 5.30019,
      "deaths_rate_per_100k": 53.0019,
      "total_tested": 35318,
      "test_rate_per_10k": 3227.45,
      "test_rate_per_100k": 32274.5,
      "total_population": 109430,
      "latitude": 41.436400,
      "longitude": -88.941400
    },
    {
      "County": "Lawrence",
      "confirmed_cases": 296,
      "confirmed_rate_per_10k": 187.758,
      "confirmed_rate_per_100k": 1877.58,
      "deaths": 7,
      "deaths_rate_per_10k": 4.44022,
      "deaths_rate_per_100k": 44.4022,
      "total_tested": 6047,
      "test_rate_per_10k": 3835.71,
      "test_rate_per_100k": 38357.1,
      "total_population": 15765,
      "latitude": 38.715800,
      "longitude": -87.776300
    },
    {
      "County": "Lee",
      "confirmed_cases": 549,
      "confirmed_rate_per_10k": 160.418,
      "confirmed_rate_per_100k": 1604.18,
      "deaths": 1,
      "deaths_rate_per_10k": 0.292201,
      "deaths_rate_per_100k": 2.92201,
      "total_tested": 9079,
      "test_rate_per_10k": 2652.89,
      "test_rate_per_100k": 26528.9,
      "total_population": 34223,
      "latitude": 41.679000,
      "longitude": -89.322700
    },
    {
      "County": "Livingston",
      "confirmed_cases": 499,
      "confirmed_rate_per_10k": 139.537,
      "confirmed_rate_per_100k": 1395.37,
      "deaths": 9,
      "deaths_rate_per_10k": 2.51671,
      "deaths_rate_per_100k": 25.1671,
      "total_tested": 14549,
      "test_rate_per_10k": 4068.4,
      "test_rate_per_100k": 40684,
      "total_population": 35761,
      "latitude": 40.868900,
      "longitude": -88.556500
    },
    {
      "County": "Logan",
      "confirmed_cases": 525,
      "confirmed_rate_per_10k": 181.504,
      "confirmed_rate_per_100k": 1815.04,
      "deaths": 4,
      "deaths_rate_per_10k": 1.38289,
      "deaths_rate_per_100k": 13.8289,
      "total_tested": 16820,
      "test_rate_per_10k": 5815.04,
      "test_rate_per_100k": 58150.4,
      "total_population": 28925,
      "latitude": 40.061300,
      "longitude": -89.322700
    },
    {
      "County": "Macon",
      "confirmed_cases": 2273,
      "confirmed_rate_per_10k": 217.072,
      "confirmed_rate_per_100k": 2170.72,
      "deaths": 48,
      "deaths_rate_per_10k": 4.584,
      "deaths_rate_per_100k": 45.84,
      "total_tested": 45473,
      "test_rate_per_10k": 4342.67,
      "test_rate_per_100k": 43426.7,
      "total_population": 104712,
      "latitude": 39.894900,
      "longitude": -89.017900
    },
    {
      "County": "Macoupin",
      "confirmed_cases": 685,
      "confirmed_rate_per_10k": 151.171,
      "confirmed_rate_per_100k": 1511.71,
      "deaths": 8,
      "deaths_rate_per_10k": 1.7655,
      "deaths_rate_per_100k": 17.655,
      "total_tested": 20967,
      "test_rate_per_10k": 4627.15,
      "test_rate_per_100k": 46271.5,
      "total_population": 45313,
      "latitude": 39.237500,
      "longitude": -89.925300
    },
    {
      "County": "Madison",
      "confirmed_cases": 6565,
      "confirmed_rate_per_10k": 248.241,
      "confirmed_rate_per_100k": 2482.41,
      "deaths": 150,
      "deaths_rate_per_10k": 5.67191,
      "deaths_rate_per_100k": 56.7191,
      "total_tested": 89262,
      "test_rate_per_10k": 3375.24,
      "test_rate_per_100k": 33752.4,
      "total_population": 264461,
      "latitude": 38.904100,
      "longitude": -89.925300
    },
    {
      "County": "Marion",
      "confirmed_cases": 807,
      "confirmed_rate_per_10k": 214.514,
      "confirmed_rate_per_100k": 2145.14,
      "deaths": 11,
      "deaths_rate_per_10k": 2.92398,
      "deaths_rate_per_100k": 29.2398,
      "total_tested": 16299,
      "test_rate_per_10k": 4332.54,
      "test_rate_per_100k": 43325.4,
      "total_population": 37620,
      "latitude": 38.731300,
      "longitude": -88.864700
    },
    {
      "County": "Marshall",
      "confirmed_cases": 129,
      "confirmed_rate_per_10k": 111.843,
      "confirmed_rate_per_100k": 1118.43,
      "deaths": 3,
      "deaths_rate_per_10k": 2.60101,
      "deaths_rate_per_100k": 26.0101,
      "total_tested": 5223,
      "test_rate_per_10k": 4528.35,
      "test_rate_per_100k": 45283.5,
      "total_population": 11534,
      "latitude": 40.997300,
      "longitude": -89.360600
    },
    {
      "County": "Mason",
      "confirmed_cases": 217,
      "confirmed_rate_per_10k": 159.971,
      "confirmed_rate_per_100k": 1599.71,
      "deaths": 1,
      "deaths_rate_per_10k": 0.737191,
      "deaths_rate_per_100k": 7.37191,
      "total_tested": 5471,
      "test_rate_per_10k": 4033.17,
      "test_rate_per_100k": 40331.7,
      "total_population": 13565,
      "latitude": 40.227100,
      "longitude": -89.925300
    },
    {
      "County": "Massac",
      "confirmed_cases": 135,
      "confirmed_rate_per_10k": 95.8807,
      "confirmed_rate_per_100k": 958.807,
      "deaths": 2,
      "deaths_rate_per_10k": 1.42045,
      "deaths_rate_per_100k": 14.2045,
      "total_tested": 3133,
      "test_rate_per_10k": 2225.14,
      "test_rate_per_100k": 22251.4,
      "total_population": 14080,
      "latitude": 37.247800,
      "longitude": -88.749400
    },
    {
      "County": "McDonough",
      "confirmed_cases": 598,
      "confirmed_rate_per_10k": 199.633,
      "confirmed_rate_per_100k": 1996.33,
      "deaths": 15,
      "deaths_rate_per_10k": 5.00751,
      "deaths_rate_per_100k": 50.0751,
      "total_tested": 10234,
      "test_rate_per_10k": 3416.46,
      "test_rate_per_100k": 34164.6,
      "total_population": 29955,
      "latitude": 40.388500,
      "longitude": -90.677300
    },
    {
      "County": "McHenry",
      "confirmed_cases": 5310,
      "confirmed_rate_per_10k": 172.084,
      "confirmed_rate_per_100k": 1720.84,
      "deaths": 119,
      "deaths_rate_per_10k": 3.8565,
      "deaths_rate_per_100k": 38.565,
      "total_tested": 89420,
      "test_rate_per_10k": 2897.88,
      "test_rate_per_100k": 28978.8,
      "total_population": 308570,
      "latitude": 42.304000,
      "longitude": -88.401600
    },
    {
      "County": "McLean",
      "confirmed_cases": 3779,
      "confirmed_rate_per_10k": 218.657,
      "confirmed_rate_per_100k": 2186.57,
      "deaths": 30,
      "deaths_rate_per_10k": 1.73583,
      "deaths_rate_per_100k": 17.3583,
      "total_tested": 88914,
      "test_rate_per_10k": 5144.65,
      "test_rate_per_100k": 51446.5,
      "total_population": 172828,
      "latitude": 40.547800,
      "longitude": -88.864700
    },
    {
      "County": "Menard",
      "confirmed_cases": 152,
      "confirmed_rate_per_10k": 123.698,
      "confirmed_rate_per_100k": 1236.98,
      "deaths": 1,
      "deaths_rate_per_10k": 0.813802,
      "deaths_rate_per_100k": 8.13802,
      "total_tested": 5456,
      "test_rate_per_10k": 4440.1,
      "test_rate_per_100k": 44401,
      "total_population": 12288,
      "latitude": 40.022100,
      "longitude": -89.813000
    },
    {
      "County": "Mercer",
      "confirmed_cases": 195,
      "confirmed_rate_per_10k": 124.992,
      "confirmed_rate_per_100k": 1249.92,
      "deaths": 6,
      "deaths_rate_per_10k": 3.84591,
      "deaths_rate_per_100k": 38.4591,
      "total_tested": 5578,
      "test_rate_per_10k": 3575.41,
      "test_rate_per_100k": 35754.1,
      "total_population": 15601,
      "latitude": 41.198500,
      "longitude": -90.677300
    },
    {
      "County": "Monroe",
      "confirmed_cases": 819,
      "confirmed_rate_per_10k": 238.532,
      "confirmed_rate_per_100k": 2385.32,
      "deaths": 27,
      "deaths_rate_per_10k": 7.8637,
      "deaths_rate_per_100k": 78.637,
      "total_tested": 9660,
      "test_rate_per_10k": 2813.46,
      "test_rate_per_100k": 28134.6,
      "total_population": 34335,
      "latitude": 38.274300,
      "longitude": -90.187000
    },
    {
      "County": "Montgomery",
      "confirmed_cases": 506,
      "confirmed_rate_per_10k": 176.917,
      "confirmed_rate_per_100k": 1769.17,
      "deaths": 14,
      "deaths_rate_per_10k": 4.89493,
      "deaths_rate_per_100k": 48.9493,
      "total_tested": 15727,
      "test_rate_per_10k": 5498.76,
      "test_rate_per_100k": 54987.6,
      "total_population": 28601,
      "latitude": 39.236400,
      "longitude": -89.474200
    },
    {
      "County": "Morgan",
      "confirmed_cases": 769,
      "confirmed_rate_per_10k": 226.336,
      "confirmed_rate_per_100k": 2263.36,
      "deaths": 24,
      "deaths_rate_per_10k": 7.06381,
      "deaths_rate_per_100k": 70.6381,
      "total_tested": 14841,
      "test_rate_per_10k": 4368.08,
      "test_rate_per_100k": 43680.8,
      "total_population": 33976,
      "latitude": 39.734100,
      "longitude": -90.224500
    },
    {
      "County": "Moultrie",
      "confirmed_cases": 319,
      "confirmed_rate_per_10k": 216.756,
      "confirmed_rate_per_100k": 2167.56,
      "deaths": 5,
      "deaths_rate_per_10k": 3.39743,
      "deaths_rate_per_100k": 33.9743,
      "total_tested": 6119,
      "test_rate_per_10k": 4157.78,
      "test_rate_per_100k": 41577.8,
      "total_population": 14717,
      "latitude": 39.602100,
      "longitude": -88.595200
    },
    {
      "County": "Ogle",
      "confirmed_cases": 964,
      "confirmed_rate_per_10k": 189.305,
      "confirmed_rate_per_100k": 1893.05,
      "deaths": 6,
      "deaths_rate_per_10k": 1.17825,
      "deaths_rate_per_100k": 11.7825,
      "total_tested": 17274,
      "test_rate_per_10k": 3392.18,
      "test_rate_per_100k": 33921.8,
      "total_population": 50923,
      "latitude": 41.997000,
      "longitude": -89.322700
    },
    {
      "County": "Peoria",
      "confirmed_cases": 4069,
      "confirmed_rate_per_10k": 225.278,
      "confirmed_rate_per_100k": 2252.78,
      "deaths": 59,
      "deaths_rate_per_10k": 3.26651,
      "deaths_rate_per_100k": 32.6651,
      "total_tested": 101344,
      "test_rate_per_10k": 5610.86,
      "test_rate_per_100k": 56108.6,
      "total_population": 180621,
      "latitude": 40.715600,
      "longitude": -89.775500
    },
    {
      "County": "Perry",
      "confirmed_cases": 387,
      "confirmed_rate_per_10k": 182.771,
      "confirmed_rate_per_100k": 1827.71,
      "deaths": 16,
      "deaths_rate_per_10k": 7.55644,
      "deaths_rate_per_100k": 75.5644,
      "total_tested": 7138,
      "test_rate_per_10k": 3371.12,
      "test_rate_per_100k": 33711.2,
      "total_population": 21174,
      "latitude": 38.061200,
      "longitude": -89.322700
    },
    {
      "County": "Piatt",
      "confirmed_cases": 187,
      "confirmed_rate_per_10k": 114.052,
      "confirmed_rate_per_100k": 1140.52,
      "deaths": 0,
      "deaths_rate_per_10k": 0,
      "deaths_rate_per_100k": 0,
      "total_tested": 9285,
      "test_rate_per_10k": 5662.97,
      "test_rate_per_100k": 56629.7,
      "total_population": 16396,
      "latitude": 40.054400,
      "longitude": -88.855650
    },
    {
      "County": "Pike",
      "confirmed_cases": 209,
      "confirmed_rate_per_10k": 133.88,
      "confirmed_rate_per_100k": 1338.8,
      "deaths": 2,
      "deaths_rate_per_10k": 1.28115,
      "deaths_rate_per_100k": 12.8115,
      "total_tested": 4350,
      "test_rate_per_10k": 2786.5,
      "test_rate_per_100k": 27865,
      "total_population": 15611,
      "latitude": 39.566200,
      "longitude": -90.829400
    },
    {
      "County": "Pope",
      "confirmed_cases": 36,
      "confirmed_rate_per_10k": 85.4701,
      "confirmed_rate_per_100k": 854.701,
      "deaths": 1,
      "deaths_rate_per_10k": 2.37417,
      "deaths_rate_per_100k": 23.7417,
      "total_tested": 691,
      "test_rate_per_10k": 1640.55,
      "test_rate_per_100k": 16405.5,
      "total_population": 4212,
      "latitude": 37.417100,
      "longitude": -88.595200
    },
    {
      "County": "Pulaski",
      "confirmed_cases": 218,
      "confirmed_rate_per_10k": 399.048,
      "confirmed_rate_per_100k": 3990.48,
      "deaths": 1,
      "deaths_rate_per_10k": 1.8305,
      "deaths_rate_per_100k": 18.305,
      "total_tested": 1759,
      "test_rate_per_10k": 3219.84,
      "test_rate_per_100k": 32198.4,
      "total_population": 5463,
      "latitude": 37.251200,
      "longitude": -89.132500
    },
    {
      "County": "Putnam",
      "confirmed_cases": 75,
      "confirmed_rate_per_10k": 130.662,
      "confirmed_rate_per_100k": 1306.62,
      "deaths": 0,
      "deaths_rate_per_10k": 0,
      "deaths_rate_per_100k": 0,
      "total_tested": 1409,
      "test_rate_per_10k": 2454.7,
      "test_rate_per_100k": 24547,
      "total_population": 5740,
      "latitude": 41.238500,
      "longitude": -89.284700
    },
    {
      "County": "Randolph",
      "confirmed_cases": 1090,
      "confirmed_rate_per_10k": 339.5,
      "confirmed_rate_per_100k": 3395,
      "deaths": 14,
      "deaths_rate_per_10k": 4.36056,
      "deaths_rate_per_100k": 43.6056,
      "total_tested": 13823,
      "test_rate_per_10k": 4305.43,
      "test_rate_per_100k": 43054.3,
      "total_population": 32106,
      "latitude": 38.062900,
      "longitude": -89.775500
    },
    {
      "County": "Richland",
      "confirmed_cases": 298,
      "confirmed_rate_per_10k": 189.05,
      "confirmed_rate_per_100k": 1890.5,
      "deaths": 12,
      "deaths_rate_per_10k": 7.61276,
      "deaths_rate_per_100k": 76.1276,
      "total_tested": 7177,
      "test_rate_per_10k": 4553.07,
      "test_rate_per_100k": 45530.7,
      "total_population": 15763,
      "latitude": 38.721300,
      "longitude": -88.090100
    },
    {
      "County": "Rock Island",
      "confirmed_cases": 3483,
      "confirmed_rate_per_10k": 242.757,
      "confirmed_rate_per_100k": 2427.57,
      "deaths": 86,
      "deaths_rate_per_10k": 5.99399,
      "deaths_rate_per_100k": 59.9399,
      "total_tested": 67388,
      "test_rate_per_10k": 4696.78,
      "test_rate_per_100k": 46967.8,
      "total_population": 143477,
      "latitude": 41.509500,
      "longitude": -90.578700
    },
    {
      "County": "Saline",
      "confirmed_cases": 463,
      "confirmed_rate_per_10k": 193.675,
      "confirmed_rate_per_100k": 1936.75,
      "deaths": 7,
      "deaths_rate_per_10k": 2.92814,
      "deaths_rate_per_100k": 29.2814,
      "total_tested": 7665,
      "test_rate_per_10k": 3206.31,
      "test_rate_per_100k": 32063.1,
      "total_population": 23906,
      "latitude": 37.715000,
      "longitude": -88.556500
    },
    {
      "County": "Sangamon",
      "confirmed_cases": 3204,
      "confirmed_rate_per_10k": 164.015,
      "confirmed_rate_per_100k": 1640.15,
      "deaths": 53,
      "deaths_rate_per_10k": 2.71311,
      "deaths_rate_per_100k": 27.1311,
      "total_tested": 119695,
      "test_rate_per_10k": 6127.27,
      "test_rate_per_100k": 61272.7,
      "total_population": 195348,
      "latitude": 39.733700,
      "longitude": -89.625200
    },
    {
      "County": "Schuyler",
      "confirmed_cases": 75,
      "confirmed_rate_per_10k": 108.585,
      "confirmed_rate_per_100k": 1085.85,
      "deaths": 1,
      "deaths_rate_per_10k": 1.44781,
      "deaths_rate_per_100k": 14.4781,
      "total_tested": 2128,
      "test_rate_per_10k": 3080.93,
      "test_rate_per_100k": 30809.3,
      "total_population": 6907,
      "latitude": 40.184500,
      "longitude": -90.639400
    },
    {
      "County": "Scott",
      "confirmed_cases": 88,
      "confirmed_rate_per_10k": 178.644,
      "confirmed_rate_per_100k": 1786.44,
      "deaths": 0,
      "deaths_rate_per_10k": 0,
      "deaths_rate_per_100k": 0,
      "total_tested": 2518,
      "test_rate_per_10k": 5111.65,
      "test_rate_per_100k": 51116.5,
      "total_population": 4926,
      "latitude": 39.609500,
      "longitude": -90.488000
    },
    {
      "County": "Shelby",
      "confirmed_cases": 539,
      "confirmed_rate_per_10k": 247.919,
      "confirmed_rate_per_100k": 2479.19,
      "deaths": 8,
      "deaths_rate_per_10k": 3.67968,
      "deaths_rate_per_100k": 36.7968,
      "total_tested": 7904,
      "test_rate_per_10k": 3635.53,
      "test_rate_per_100k": 36355.3,
      "total_population": 21741,
      "latitude": 39.398100,
      "longitude": -88.864700
    },
    {
      "County": "St. Clair",
      "confirmed_cases": 7382,
      "confirmed_rate_per_10k": 282.771,
      "confirmed_rate_per_100k": 2827.71,
      "deaths": 208,
      "deaths_rate_per_10k": 7.96755,
      "deaths_rate_per_100k": 79.6755,
      "total_tested": 95523,
      "test_rate_per_10k": 3659.06,
      "test_rate_per_100k": 36590.6,
      "total_population": 261059,
      "latitude": 38.400800,
      "longitude": -89.925300
    },
    {
      "County": "Stark",
      "confirmed_cases": 74,
      "confirmed_rate_per_10k": 136.355,
      "confirmed_rate_per_100k": 1363.55,
      "deaths": 2,
      "deaths_rate_per_10k": 3.68528,
      "deaths_rate_per_100k": 36.8528,
      "total_tested": 2328,
      "test_rate_per_10k": 4289.66,
      "test_rate_per_100k": 42896.6,
      "total_population": 5427,
      "latitude": 41.079600,
      "longitude": -89.813000
    },
    {
      "County": "Stephenson",
      "confirmed_cases": 732,
      "confirmed_rate_per_10k": 163.564,
      "confirmed_rate_per_100k": 1635.64,
      "deaths": 7,
      "deaths_rate_per_10k": 1.56414,
      "deaths_rate_per_100k": 15.6414,
      "total_tested": 14699,
      "test_rate_per_10k": 3284.47,
      "test_rate_per_100k": 32844.7,
      "total_population": 44753,
      "latitude": 42.314500,
      "longitude": -89.625200
    },
    {
      "County": "Tazewell",
      "confirmed_cases": 2247,
      "confirmed_rate_per_10k": 169.805,
      "confirmed_rate_per_100k": 1698.05,
      "deaths": 45,
      "deaths_rate_per_10k": 3.40064,
      "deaths_rate_per_100k": 34.0064,
      "total_tested": 68268,
      "test_rate_per_10k": 5159,
      "test_rate_per_100k": 51590,
      "total_population": 132328,
      "latitude": 40.552200,
      "longitude": -89.474200
    },
    {
      "County": "Union",
      "confirmed_cases": 695,
      "confirmed_rate_per_10k": 412.683,
      "confirmed_rate_per_100k": 4126.83,
      "deaths": 25,
      "deaths_rate_per_10k": 14.8447,
      "deaths_rate_per_100k": 148.447,
      "total_tested": 7650,
      "test_rate_per_10k": 4542.49,
      "test_rate_per_100k": 45424.9,
      "total_population": 16841,
      "latitude": 37.508700,
      "longitude": -89.284700
    },
    {
      "County": "Vermilion",
      "confirmed_cases": 1406,
      "confirmed_rate_per_10k": 183.059,
      "confirmed_rate_per_100k": 1830.59,
      "deaths": 7,
      "deaths_rate_per_10k": 0.911387,
      "deaths_rate_per_100k": 9.11387,
      "total_tested": 32794,
      "test_rate_per_10k": 4269.72,
      "test_rate_per_100k": 42697.2,
      "total_population": 76806,
      "latitude": 40.122500,
      "longitude": -87.697600
    },
    {
      "County": "Wabash",
      "confirmed_cases": 190,
      "confirmed_rate_per_10k": 164.516,
      "confirmed_rate_per_100k": 1645.16,
      "deaths": 5,
      "deaths_rate_per_10k": 4.32938,
      "deaths_rate_per_100k": 43.2938,
      "total_tested": 2682,
      "test_rate_per_10k": 2322.28,
      "test_rate_per_100k": 23222.8,
      "total_population": 11549,
      "latitude": 38.422600,
      "longitude": -87.815700
    },
    {
      "County": "Warren",
      "confirmed_cases": 428,
      "confirmed_rate_per_10k": 251.292,
      "confirmed_rate_per_100k": 2512.92,
      "deaths": 6,
      "deaths_rate_per_10k": 3.52278,
      "deaths_rate_per_100k": 35.2278,
      "total_tested": 4765,
      "test_rate_per_10k": 2797.67,
      "test_rate_per_100k": 27976.7,
      "total_population": 17032,
      "latitude": 40.875900,
      "longitude": -90.677300
    },
    {
      "County": "Washington",
      "confirmed_cases": 269,
      "confirmed_rate_per_10k": 192.212,
      "confirmed_rate_per_100k": 1922.12,
      "deaths": 1,
      "deaths_rate_per_10k": 0.714541,
      "deaths_rate_per_100k": 7.14541,
      "total_tested": 3724,
      "test_rate_per_10k": 2660.95,
      "test_rate_per_100k": 26609.5,
      "total_population": 13995,
      "latitude": 38.398900,
      "longitude": -89.322700
    },
    {
      "County": "Wayne",
      "confirmed_cases": 411,
      "confirmed_rate_per_10k": 251.653,
      "confirmed_rate_per_100k": 2516.53,
      "deaths": 8,
      "deaths_rate_per_10k": 4.89836,
      "deaths_rate_per_100k": 48.9836,
      "total_tested": 5088,
      "test_rate_per_10k": 3115.36,
      "test_rate_per_100k": 31153.6,
      "total_population": 16332,
      "latitude": 38.390000,
      "longitude": -88.401600
    },
    {
      "County": "White",
      "confirmed_cases": 223,
      "confirmed_rate_per_10k": 163.191,
      "confirmed_rate_per_100k": 1631.91,
      "deaths": 1,
      "deaths_rate_per_10k": 0.731797,
      "deaths_rate_per_100k": 7.31797,
      "total_tested": 6110,
      "test_rate_per_10k": 4471.28,
      "test_rate_per_100k": 44712.8,
      "total_population": 13665,
      "latitude": 38.050100,
      "longitude": -88.246100
    },
    {
      "County": "Whiteside",
      "confirmed_cases": 1064,
      "confirmed_rate_per_10k": 191.277,
      "confirmed_rate_per_100k": 1912.77,
      "deaths": 21,
      "deaths_rate_per_10k": 3.77521,
      "deaths_rate_per_100k": 37.7521,
      "total_tested": 17315,
      "test_rate_per_10k": 3112.75,
      "test_rate_per_100k": 31127.5,
      "total_population": 55626,
      "latitude": 41.760600,
      "longitude": -89.850500
    },
    {
      "County": "Will",
      "confirmed_cases": 16074,
      "confirmed_rate_per_10k": 232.179,
      "confirmed_rate_per_100k": 2321.79,
      "deaths": 412,
      "deaths_rate_per_10k": 5.95109,
      "deaths_rate_per_100k": 59.5109,
      "total_tested": 248258,
      "test_rate_per_10k": 3585.94,
      "test_rate_per_100k": 35859.4,
      "total_population": 692310,
      "latitude": 41.505500,
      "longitude": -88.090100
    },
    {
      "County": "Williamson",
      "confirmed_cases": 1621,
      "confirmed_rate_per_10k": 241.738,
      "confirmed_rate_per_100k": 2417.38,
      "deaths": 56,
      "deaths_rate_per_10k": 8.35123,
      "deaths_rate_per_100k": 83.5123,
      "total_tested": 29458,
      "test_rate_per_10k": 4393.04,
      "test_rate_per_100k": 43930.4,
      "total_population": 67056,
      "latitude": 37.718300,
      "longitude": -88.864700
    },
    {
      "County": "Winnebago",
      "confirmed_cases": 8397,
      "confirmed_rate_per_10k": 295.585,
      "confirmed_rate_per_100k": 2955.85,
      "deaths": 163,
      "deaths_rate_per_10k": 5.7378,
      "deaths_rate_per_100k": 57.378,
      "total_tested": 117436,
      "test_rate_per_10k": 4133.89,
      "test_rate_per_100k": 41338.9,
      "total_population": 284081,
      "latitude": 42.312100,
      "longitude": -89.170600
    },
    {
      "County": "Woodford",
      "confirmed_cases": 504,
      "confirmed_rate_per_10k": 131.035,
      "confirmed_rate_per_100k": 1310.35,
      "deaths": 10,
      "deaths_rate_per_10k": 2.5999,
      "deaths_rate_per_100k": 25.999,
      "total_tested": 15037,
      "test_rate_per_10k": 3909.47,
      "test_rate_per_100k": 39094.7,
      "total_population": 38463,
      "latitude": 40.712900,
      "longitude": -89.170600
    }
  ]
}
