{
  "LastUpdateDate": {
    "year": 2020,
    "month": 8,
    "day": 28
  },
  "county_rates": [
    {
      "County": "Adams",
      "confirmed_cases": 749,
      "confirmed_rate_per_10k": 114.019,
      "confirmed_rate_per_100k": 1140.19,
      "deaths": 7,
      "deaths_rate_per_10k": 1.06559,
      "deaths_rate_per_100k": 10.6559,
      "total_tested": 24446,
      "test_rate_per_10k": 3721.36,
      "test_rate_per_100k": 37213.6,
      "total_population": 65691,
      "latitude": 40.057800,
      "longitude": -91.135300
    },
    {
      "County": "Alexander",
      "confirmed_cases": 44,
      "confirmed_rate_per_10k": 72.6073,
      "confirmed_rate_per_100k": 726.073,
      "deaths": 0,
      "deaths_rate_per_10k": 0,
      "deaths_rate_per_100k": 0,
      "total_tested": 1387,
      "test_rate_per_10k": 2288.78,
      "test_rate_per_100k": 22887.8,
      "total_population": 6060,
      "latitude": 37.167000,
      "longitude": -89.360600
    },
    {
      "County": "Bond",
      "confirmed_cases": 125,
      "confirmed_rate_per_10k": 75.1654,
      "confirmed_rate_per_100k": 751.654,
      "deaths": 3,
      "deaths_rate_per_10k": 1.80397,
      "deaths_rate_per_100k": 18.0397,
      "total_tested": 4373,
      "test_rate_per_10k": 2629.59,
      "test_rate_per_100k": 26295.9,
      "total_population": 16630,
      "latitude": 38.903000,
      "longitude": -89.474200
    },
    {
      "County": "Boone",
      "confirmed_cases": 849,
      "confirmed_rate_per_10k": 158.464,
      "confirmed_rate_per_100k": 1584.64,
      "deaths": 23,
      "deaths_rate_per_10k": 4.29289,
      "deaths_rate_per_100k": 42.9289,
      "total_tested": 11050,
      "test_rate_per_10k": 2062.45,
      "test_rate_per_100k": 20624.5,
      "total_population": 53577,
      "latitude": 42.348500,
      "longitude": -88.826300
    },
    {
      "County": "Brown",
      "confirmed_cases": 20,
      "confirmed_rate_per_10k": 30.5064,
      "confirmed_rate_per_100k": 305.064,
      "deaths": 0,
      "deaths_rate_per_10k": 0,
      "deaths_rate_per_100k": 0,
      "total_tested": 1241,
      "test_rate_per_10k": 1892.92,
      "test_rate_per_100k": 18929.2,
      "total_population": 6556,
      "latitude": 39.938000,
      "longitude": -90.715300
    },
    {
      "County": "Bureau",
      "confirmed_cases": 353,
      "confirmed_rate_per_10k": 106.992,
      "confirmed_rate_per_100k": 1069.92,
      "deaths": 5,
      "deaths_rate_per_10k": 1.51547,
      "deaths_rate_per_100k": 15.1547,
      "total_tested": 5600,
      "test_rate_per_10k": 1697.33,
      "test_rate_per_100k": 16973.3,
      "total_population": 32993,
      "latitude": 41.359900,
      "longitude": -89.474200
    },
    {
      "County": "Calhoun",
      "confirmed_cases": 26,
      "confirmed_rate_per_10k": 54.1441,
      "confirmed_rate_per_100k": 541.441,
      "deaths": 0,
      "deaths_rate_per_10k": 0,
      "deaths_rate_per_100k": 0,
      "total_tested": 819,
      "test_rate_per_10k": 1705.54,
      "test_rate_per_100k": 17055.4,
      "total_population": 4802,
      "latitude": 39.173300,
      "longitude": -90.658300
    },
    {
      "County": "Carroll",
      "confirmed_cases": 131,
      "confirmed_rate_per_10k": 91.5316,
      "confirmed_rate_per_100k": 915.316,
      "deaths": 4,
      "deaths_rate_per_10k": 2.79486,
      "deaths_rate_per_100k": 27.9486,
      "total_tested": 2476,
      "test_rate_per_10k": 1730.02,
      "test_rate_per_100k": 17300.2,
      "total_population": 14312,
      "latitude": 42.038600,
      "longitude": -89.962700
    },
    {
      "County": "Cass",
      "confirmed_cases": 296,
      "confirmed_rate_per_10k": 241.436,
      "confirmed_rate_per_100k": 2414.36,
      "deaths": 11,
      "deaths_rate_per_10k": 8.97227,
      "deaths_rate_per_100k": 89.7227,
      "total_tested": 3878,
      "test_rate_per_10k": 3163.13,
      "test_rate_per_100k": 31631.3,
      "total_population": 12260,
      "latitude": 39.939900,
      "longitude": -90.262000
    },
    {
      "County": "Champaign",
      "confirmed_cases": 2310,
      "confirmed_rate_per_10k": 110.009,
      "confirmed_rate_per_100k": 1100.09,
      "deaths": 20,
      "deaths_rate_per_10k": 0.952458,
      "deaths_rate_per_100k": 9.52458,
      "total_tested": 203217,
      "test_rate_per_10k": 9677.78,
      "test_rate_per_100k": 96777.8,
      "total_population": 209983,
      "latitude": 40.213900,
      "longitude": -88.246100
    },
    {
      "County": "Chicago",
      "confirmed_cases": 70331,
      "confirmed_rate_per_10k": 259.908,
      "confirmed_rate_per_100k": 2599.08,
      "deaths": 2868,
      "deaths_rate_per_10k": 10.5987,
      "deaths_rate_per_100k": 105.987,
      "total_tested": 891062,
      "test_rate_per_10k": 3292.92,
      "test_rate_per_100k": 32929.2,
      "total_population": 2705994,
      "latitude": 41.789896,
      "longitude": -87.627734
    },
    {
      "County": "Christian",
      "confirmed_cases": 216,
      "confirmed_rate_per_10k": 66.1339,
      "confirmed_rate_per_100k": 661.339,
      "deaths": 4,
      "deaths_rate_per_10k": 1.2247,
      "deaths_rate_per_100k": 12.247,
      "total_tested": 8235,
      "test_rate_per_10k": 2521.36,
      "test_rate_per_100k": 25213.6,
      "total_population": 32661,
      "latitude": 39.567200,
      "longitude": -89.322700
    },
    {
      "County": "Clark",
      "confirmed_cases": 115,
      "confirmed_rate_per_10k": 73.7369,
      "confirmed_rate_per_100k": 737.369,
      "deaths": 2,
      "deaths_rate_per_10k": 1.28238,
      "deaths_rate_per_100k": 12.8238,
      "total_tested": 3148,
      "test_rate_per_10k": 2018.47,
      "test_rate_per_100k": 20184.7,
      "total_population": 15596,
      "latitude": 39.382400,
      "longitude": -87.776300
    },
    {
      "County": "Clay",
      "confirmed_cases": 72,
      "confirmed_rate_per_10k": 54.3273,
      "confirmed_rate_per_100k": 543.273,
      "deaths": 0,
      "deaths_rate_per_10k": 0,
      "deaths_rate_per_100k": 0,
      "total_tested": 2273,
      "test_rate_per_10k": 1715.08,
      "test_rate_per_100k": 17150.8,
      "total_population": 13253,
      "latitude": 38.727900,
      "longitude": -88.556500
    },
    {
      "County": "Clinton",
      "confirmed_cases": 670,
      "confirmed_rate_per_10k": 178.007,
      "confirmed_rate_per_100k": 1780.07,
      "deaths": 17,
      "deaths_rate_per_10k": 4.51659,
      "deaths_rate_per_100k": 45.1659,
      "total_tested": 8949,
      "test_rate_per_10k": 2377.59,
      "test_rate_per_100k": 23775.9,
      "total_population": 37639,
      "latitude": 38.568400,
      "longitude": -89.625200
    },
    {
      "County": "Coles",
      "confirmed_cases": 884,
      "confirmed_rate_per_10k": 173.725,
      "confirmed_rate_per_100k": 1737.25,
      "deaths": 21,
      "deaths_rate_per_10k": 4.12695,
      "deaths_rate_per_100k": 41.2695,
      "total_tested": 17813,
      "test_rate_per_10k": 3500.64,
      "test_rate_per_100k": 35006.4,
      "total_population": 50885,
      "latitude": 39.556000,
      "longitude": -88.246100
    },
    {
      "County": "Cook",
      "confirmed_cases": 54242,
      "confirmed_rate_per_10k": 219.204,
      "confirmed_rate_per_100k": 2192.04,
      "deaths": 2177,
      "deaths_rate_per_10k": 8.79774,
      "deaths_rate_per_100k": 87.9774,
      "total_tested": 738721,
      "test_rate_per_10k": 2985.34,
      "test_rate_per_100k": 29853.4,
      "total_population": 2474499,
      "latitude": 42.050784,
      "longitude": -87.963759
    },
    {
      "County": "Crawford",
      "confirmed_cases": 72,
      "confirmed_rate_per_10k": 38.2836,
      "confirmed_rate_per_100k": 382.836,
      "deaths": 0,
      "deaths_rate_per_10k": 0,
      "deaths_rate_per_100k": 0,
      "total_tested": 2369,
      "test_rate_per_10k": 1259.64,
      "test_rate_per_100k": 12596.4,
      "total_population": 18807,
      "latitude": 41.833000,
      "longitude": -88.710900
    },
    {
      "County": "Cumberland",
      "confirmed_cases": 128,
      "confirmed_rate_per_10k": 118.431,
      "confirmed_rate_per_100k": 1184.31,
      "deaths": 3,
      "deaths_rate_per_10k": 2.77572,
      "deaths_rate_per_100k": 27.7572,
      "total_tested": 2930,
      "test_rate_per_10k": 2710.95,
      "test_rate_per_100k": 27109.5,
      "total_population": 10808,
      "latitude": 39.265400,
      "longitude": -88.207200
    },
    {
      "County": "De Witt",
      "confirmed_cases": 40,
      "confirmed_rate_per_10k": 25.3662,
      "confirmed_rate_per_100k": 253.662,
      "deaths": 1,
      "deaths_rate_per_10k": 0.634156,
      "deaths_rate_per_100k": 6.34156,
      "total_tested": 2509,
      "test_rate_per_10k": 1591.1,
      "test_rate_per_100k": 15911,
      "total_population": 15769,
      "latitude": 40.181000,
      "longitude": -88.903100
    },
    {
      "County": "DeKalb",
      "confirmed_cases": 1089,
      "confirmed_rate_per_10k": 104.568,
      "confirmed_rate_per_100k": 1045.68,
      "deaths": 35,
      "deaths_rate_per_10k": 3.36076,
      "deaths_rate_per_100k": 33.6076,
      "total_tested": 21267,
      "test_rate_per_10k": 2042.1,
      "test_rate_per_100k": 20421,
      "total_population": 104143,
      "latitude": 41.833000,
      "longitude": -88.710900
    },
    {
      "County": "Douglas",
      "confirmed_cases": 207,
      "confirmed_rate_per_10k": 106.268,
      "confirmed_rate_per_100k": 1062.68,
      "deaths": 5,
      "deaths_rate_per_10k": 2.56687,
      "deaths_rate_per_100k": 25.6687,
      "total_tested": 5932,
      "test_rate_per_10k": 3045.33,
      "test_rate_per_100k": 30453.3,
      "total_population": 19479,
      "latitude": 39.761800,
      "longitude": -88.207200
    },
    {
      "County": "DuPage",
      "confirmed_cases": 14299,
      "confirmed_rate_per_10k": 153.986,
      "confirmed_rate_per_100k": 1539.86,
      "deaths": 533,
      "deaths_rate_per_10k": 5.73989,
      "deaths_rate_per_100k": 57.3989,
      "total_tested": 245416,
      "test_rate_per_10k": 2642.89,
      "test_rate_per_100k": 26428.9,
      "total_population": 928589,
      "latitude": 41.824400,
      "longitude": -88.090100
    },
    {
      "County": "Edgar",
      "confirmed_cases": 79,
      "confirmed_rate_per_10k": 45.5069,
      "confirmed_rate_per_100k": 455.069,
      "deaths": 0,
      "deaths_rate_per_10k": 0,
      "deaths_rate_per_100k": 0,
      "total_tested": 2394,
      "test_rate_per_10k": 1379.03,
      "test_rate_per_100k": 13790.3,
      "total_population": 17360,
      "latitude": 39.713100,
      "longitude": -87.776300
    },
    {
      "County": "Edwards",
      "confirmed_cases": 36,
      "confirmed_rate_per_10k": 56.3204,
      "confirmed_rate_per_100k": 563.204,
      "deaths": 0,
      "deaths_rate_per_10k": 0,
      "deaths_rate_per_100k": 0,
      "total_tested": 571,
      "test_rate_per_10k": 893.304,
      "test_rate_per_100k": 8933.04,
      "total_population": 6392,
      "latitude": 38.426800,
      "longitude": -88.051000
    },
    {
      "County": "Effingham",
      "confirmed_cases": 478,
      "confirmed_rate_per_10k": 139.733,
      "confirmed_rate_per_100k": 1397.33,
      "deaths": 1,
      "deaths_rate_per_10k": 0.292329,
      "deaths_rate_per_100k": 2.92329,
      "total_tested": 8153,
      "test_rate_per_10k": 2383.36,
      "test_rate_per_100k": 23833.6,
      "total_population": 34208,
      "latitude": 39.062200,
      "longitude": -88.556500
    },
    {
      "County": "Fayette",
      "confirmed_cases": 153,
      "confirmed_rate_per_10k": 71.4419,
      "confirmed_rate_per_100k": 714.419,
      "deaths": 3,
      "deaths_rate_per_10k": 1.40082,
      "deaths_rate_per_100k": 14.0082,
      "total_tested": 3698,
      "test_rate_per_10k": 1726.75,
      "test_rate_per_100k": 17267.5,
      "total_population": 21416,
      "latitude": 39.067000,
      "longitude": -89.017900
    },
    {
      "County": "Ford",
      "confirmed_cases": 70,
      "confirmed_rate_per_10k": 52.7744,
      "confirmed_rate_per_100k": 527.744,
      "deaths": 2,
      "deaths_rate_per_10k": 1.50784,
      "deaths_rate_per_100k": 15.0784,
      "total_tested": 3341,
      "test_rate_per_10k": 2518.85,
      "test_rate_per_100k": 25188.5,
      "total_population": 13264,
      "latitude": 40.498900,
      "longitude": -88.207200
    },
    {
      "County": "Franklin",
      "confirmed_cases": 327,
      "confirmed_rate_per_10k": 84.4939,
      "confirmed_rate_per_100k": 844.939,
      "deaths": 1,
      "deaths_rate_per_10k": 0.258391,
      "deaths_rate_per_100k": 2.58391,
      "total_tested": 8115,
      "test_rate_per_10k": 2096.85,
      "test_rate_per_100k": 20968.5,
      "total_population": 38701,
      "latitude": 38.015700,
      "longitude": -88.903100
    },
    {
      "County": "Fulton",
      "confirmed_cases": 77,
      "confirmed_rate_per_10k": 22.0985,
      "confirmed_rate_per_100k": 220.985,
      "deaths": 0,
      "deaths_rate_per_10k": 0,
      "deaths_rate_per_100k": 0,
      "total_tested": 6883,
      "test_rate_per_10k": 1975.38,
      "test_rate_per_100k": 19753.8,
      "total_population": 34844,
      "latitude": 40.553200,
      "longitude": -90.224500
    },
    {
      "County": "Gallatin",
      "confirmed_cases": 62,
      "confirmed_rate_per_10k": 122.578,
      "confirmed_rate_per_100k": 1225.78,
      "deaths": 2,
      "deaths_rate_per_10k": 3.95413,
      "deaths_rate_per_100k": 39.5413,
      "total_tested": 557,
      "test_rate_per_10k": 1101.23,
      "test_rate_per_100k": 11012.3,
      "total_population": 5058,
      "latitude": 37.710800,
      "longitude": -88.246100
    },
    {
      "County": "Greene",
      "confirmed_cases": 99,
      "confirmed_rate_per_10k": 75.897,
      "confirmed_rate_per_100k": 758.97,
      "deaths": 1,
      "deaths_rate_per_10k": 0.766636,
      "deaths_rate_per_100k": 7.66636,
      "total_tested": 2332,
      "test_rate_per_10k": 1787.8,
      "test_rate_per_100k": 17878,
      "total_population": 13044,
      "latitude": 39.403000,
      "longitude": -90.374800
    },
    {
      "County": "Grundy",
      "confirmed_cases": 468,
      "confirmed_rate_per_10k": 91.8151,
      "confirmed_rate_per_100k": 918.151,
      "deaths": 5,
      "deaths_rate_per_10k": 0.980931,
      "deaths_rate_per_100k": 9.80931,
      "total_tested": 8272,
      "test_rate_per_10k": 1622.85,
      "test_rate_per_100k": 16228.5,
      "total_population": 50972,
      "latitude": 41.350100,
      "longitude": -88.401600
    },
    {
      "County": "Hamilton",
      "confirmed_cases": 44,
      "confirmed_rate_per_10k": 53.9018,
      "confirmed_rate_per_100k": 539.018,
      "deaths": 0,
      "deaths_rate_per_10k": 0,
      "deaths_rate_per_100k": 0,
      "total_tested": 1002,
      "test_rate_per_10k": 1227.49,
      "test_rate_per_100k": 12274.9,
      "total_population": 8163,
      "latitude": 38.054300,
      "longitude": -88.556500
    },
    {
      "County": "Hancock",
      "confirmed_cases": 126,
      "confirmed_rate_per_10k": 70.612,
      "confirmed_rate_per_100k": 706.12,
      "deaths": 2,
      "deaths_rate_per_10k": 1.12082,
      "deaths_rate_per_100k": 11.2082,
      "total_tested": 4187,
      "test_rate_per_10k": 2346.45,
      "test_rate_per_100k": 23464.5,
      "total_population": 17844,
      "latitude": 40.384900,
      "longitude": -91.135300
    },
    {
      "County": "Hardin",
      "confirmed_cases": 18,
      "confirmed_rate_per_10k": 46.0358,
      "confirmed_rate_per_100k": 460.358,
      "deaths": 0,
      "deaths_rate_per_10k": 0,
      "deaths_rate_per_100k": 0,
      "total_tested": 576,
      "test_rate_per_10k": 1473.15,
      "test_rate_per_100k": 14731.5,
      "total_population": 3910,
      "latitude": 37.499500,
      "longitude": -88.362800
    },
    {
      "County": "Henderson",
      "confirmed_cases": 41,
      "confirmed_rate_per_10k": 61.1119,
      "confirmed_rate_per_100k": 611.119,
      "deaths": 0,
      "deaths_rate_per_10k": 0,
      "deaths_rate_per_100k": 0,
      "total_tested": 833,
      "test_rate_per_10k": 1241.62,
      "test_rate_per_100k": 12416.2,
      "total_population": 6709,
      "latitude": 40.833600,
      "longitude": -90.943800
    },
    {
      "County": "Henry",
      "confirmed_cases": 438,
      "confirmed_rate_per_10k": 89.2239,
      "confirmed_rate_per_100k": 892.239,
      "deaths": 1,
      "deaths_rate_per_10k": 0.203707,
      "deaths_rate_per_100k": 2.03707,
      "total_tested": 11846,
      "test_rate_per_10k": 2413.12,
      "test_rate_per_100k": 24131.2,
      "total_population": 49090,
      "latitude": 41.361100,
      "longitude": -90.074700
    },
    {
      "County": "Iroquois",
      "confirmed_cases": 291,
      "confirmed_rate_per_10k": 105.42,
      "confirmed_rate_per_100k": 1054.2,
      "deaths": 19,
      "deaths_rate_per_10k": 6.88306,
      "deaths_rate_per_100k": 68.8306,
      "total_tested": 8031,
      "test_rate_per_10k": 2909.36,
      "test_rate_per_100k": 29093.6,
      "total_population": 27604,
      "latitude": 40.774000,
      "longitude": -87.697600
    },
    {
      "County": "Jackson",
      "confirmed_cases": 895,
      "confirmed_rate_per_10k": 155.872,
      "confirmed_rate_per_100k": 1558.72,
      "deaths": 20,
      "deaths_rate_per_10k": 3.48317,
      "deaths_rate_per_100k": 34.8317,
      "total_tested": 13847,
      "test_rate_per_10k": 2411.57,
      "test_rate_per_100k": 24115.7,
      "total_population": 57419,
      "latitude": 37.721800,
      "longitude": -89.322700
    },
    {
      "County": "Jasper",
      "confirmed_cases": 111,
      "confirmed_rate_per_10k": 115.493,
      "confirmed_rate_per_100k": 1154.93,
      "deaths": 7,
      "deaths_rate_per_10k": 7.28332,
      "deaths_rate_per_100k": 72.8332,
      "total_tested": 1939,
      "test_rate_per_10k": 2017.48,
      "test_rate_per_100k": 20174.8,
      "total_population": 9611,
      "latitude": 39.055500,
      "longitude": -88.090100
    },
    {
      "County": "Jefferson",
      "confirmed_cases": 442,
      "confirmed_rate_per_10k": 116.869,
      "confirmed_rate_per_100k": 1168.69,
      "deaths": 34,
      "deaths_rate_per_10k": 8.98995,
      "deaths_rate_per_100k": 89.8995,
      "total_tested": 6785,
      "test_rate_per_10k": 1794.02,
      "test_rate_per_100k": 17940.2,
      "total_population": 37820,
      "latitude": 38.226700,
      "longitude": -88.864700
    },
    {
      "County": "Jersey",
      "confirmed_cases": 271,
      "confirmed_rate_per_10k": 124.044,
      "confirmed_rate_per_100k": 1240.44,
      "deaths": 5,
      "deaths_rate_per_10k": 2.28864,
      "deaths_rate_per_100k": 22.8864,
      "total_tested": 4231,
      "test_rate_per_10k": 1936.65,
      "test_rate_per_100k": 19366.5,
      "total_population": 21847,
      "latitude": 39.070500,
      "longitude": -90.374800
    },
    {
      "County": "Jo Daviess",
      "confirmed_cases": 173,
      "confirmed_rate_per_10k": 80.9698,
      "confirmed_rate_per_100k": 809.698,
      "deaths": 2,
      "deaths_rate_per_10k": 0.936067,
      "deaths_rate_per_100k": 9.36067,
      "total_tested": 3875,
      "test_rate_per_10k": 1813.63,
      "test_rate_per_100k": 18136.3,
      "total_population": 21366,
      "latitude": 42.314900,
      "longitude": -90.224500
    },
    {
      "County": "Johnson",
      "confirmed_cases": 110,
      "confirmed_rate_per_10k": 88.3109,
      "confirmed_rate_per_100k": 883.109,
      "deaths": 0,
      "deaths_rate_per_10k": 0,
      "deaths_rate_per_100k": 0,
      "total_tested": 1901,
      "test_rate_per_10k": 1526.17,
      "test_rate_per_100k": 15261.7,
      "total_population": 12456,
      "latitude": 37.420400,
      "longitude": -88.903100
    },
    {
      "County": "Kane",
      "confirmed_cases": 11052,
      "confirmed_rate_per_10k": 206.883,
      "confirmed_rate_per_100k": 2068.83,
      "deaths": 312,
      "deaths_rate_per_10k": 5.84033,
      "deaths_rate_per_100k": 58.4033,
      "total_tested": 132980,
      "test_rate_per_10k": 2489.26,
      "test_rate_per_100k": 24892.6,
      "total_population": 534216,
      "latitude": 41.987900,
      "longitude": -88.401600
    },
    {
      "County": "Kankakee",
      "confirmed_cases": 2149,
      "confirmed_rate_per_10k": 195.321,
      "confirmed_rate_per_100k": 1953.21,
      "deaths": 71,
      "deaths_rate_per_10k": 6.45314,
      "deaths_rate_per_100k": 64.5314,
      "total_tested": 38290,
      "test_rate_per_10k": 3480.15,
      "test_rate_per_100k": 34801.5,
      "total_population": 110024,
      "latitude": 41.179100,
      "longitude": -87.776300
    },
    {
      "County": "Kendall",
      "confirmed_cases": 1633,
      "confirmed_rate_per_10k": 127.663,
      "confirmed_rate_per_100k": 1276.63,
      "deaths": 23,
      "deaths_rate_per_10k": 1.79807,
      "deaths_rate_per_100k": 17.9807,
      "total_tested": 25926,
      "test_rate_per_10k": 2026.81,
      "test_rate_per_100k": 20268.1,
      "total_population": 127915,
      "latitude": 41.550700,
      "longitude": -88.440400
    },
    {
      "County": "Knox",
      "confirmed_cases": 441,
      "confirmed_rate_per_10k": 88.0029,
      "confirmed_rate_per_100k": 880.029,
      "deaths": 3,
      "deaths_rate_per_10k": 0.598659,
      "deaths_rate_per_100k": 5.98659,
      "total_tested": 11665,
      "test_rate_per_10k": 2327.79,
      "test_rate_per_100k": 23277.9,
      "total_population": 50112,
      "latitude": 40.877600,
      "longitude": -90.224500
    },
    {
      "County": "Lake",
      "confirmed_cases": 14379,
      "confirmed_rate_per_10k": 205.17,
      "confirmed_rate_per_100k": 2051.7,
      "deaths": 463,
      "deaths_rate_per_10k": 6.60643,
      "deaths_rate_per_100k": 66.0643,
      "total_tested": 191449,
      "test_rate_per_10k": 2731.74,
      "test_rate_per_100k": 27317.4,
      "total_population": 700832,
      "latitude": 42.368900,
      "longitude": -87.827200
    },
    {
      "County": "LaSalle",
      "confirmed_cases": 1203,
      "confirmed_rate_per_10k": 109.933,
      "confirmed_rate_per_100k": 1099.33,
      "deaths": 45,
      "deaths_rate_per_10k": 4.11222,
      "deaths_rate_per_100k": 41.1222,
      "total_tested": 22318,
      "test_rate_per_10k": 2039.48,
      "test_rate_per_100k": 20394.8,
      "total_population": 109430,
      "latitude": 41.436400,
      "longitude": -88.941400
    },
    {
      "County": "Lawrence",
      "confirmed_cases": 96,
      "confirmed_rate_per_10k": 60.8944,
      "confirmed_rate_per_100k": 608.944,
      "deaths": 0,
      "deaths_rate_per_10k": 0,
      "deaths_rate_per_100k": 0,
      "total_tested": 3364,
      "test_rate_per_10k": 2133.84,
      "test_rate_per_100k": 21338.4,
      "total_population": 15765,
      "latitude": 38.715800,
      "longitude": -87.776300
    },
    {
      "County": "Lee",
      "confirmed_cases": 231,
      "confirmed_rate_per_10k": 67.4985,
      "confirmed_rate_per_100k": 674.985,
      "deaths": 1,
      "deaths_rate_per_10k": 0.292201,
      "deaths_rate_per_100k": 2.92201,
      "total_tested": 5362,
      "test_rate_per_10k": 1566.78,
      "test_rate_per_100k": 15667.8,
      "total_population": 34223,
      "latitude": 41.679000,
      "longitude": -89.322700
    },
    {
      "County": "Livingston",
      "confirmed_cases": 180,
      "confirmed_rate_per_10k": 50.3342,
      "confirmed_rate_per_100k": 503.342,
      "deaths": 4,
      "deaths_rate_per_10k": 1.11854,
      "deaths_rate_per_100k": 11.1854,
      "total_tested": 7219,
      "test_rate_per_10k": 2018.68,
      "test_rate_per_100k": 20186.8,
      "total_population": 35761,
      "latitude": 40.868900,
      "longitude": -88.556500
    },
    {
      "County": "Logan",
      "confirmed_cases": 249,
      "confirmed_rate_per_10k": 86.0847,
      "confirmed_rate_per_100k": 860.847,
      "deaths": 1,
      "deaths_rate_per_10k": 0.345722,
      "deaths_rate_per_100k": 3.45722,
      "total_tested": 9971,
      "test_rate_per_10k": 3447.19,
      "test_rate_per_100k": 34471.9,
      "total_population": 28925,
      "latitude": 40.061300,
      "longitude": -89.322700
    },
    {
      "County": "Macon",
      "confirmed_cases": 907,
      "confirmed_rate_per_10k": 86.6185,
      "confirmed_rate_per_100k": 866.185,
      "deaths": 26,
      "deaths_rate_per_10k": 2.483,
      "deaths_rate_per_100k": 24.83,
      "total_tested": 26243,
      "test_rate_per_10k": 2506.21,
      "test_rate_per_100k": 25062.1,
      "total_population": 104712,
      "latitude": 39.894900,
      "longitude": -89.017900
    },
    {
      "County": "Macoupin",
      "confirmed_cases": 340,
      "confirmed_rate_per_10k": 75.0337,
      "confirmed_rate_per_100k": 750.337,
      "deaths": 3,
      "deaths_rate_per_10k": 0.662062,
      "deaths_rate_per_100k": 6.62062,
      "total_tested": 13863,
      "test_rate_per_10k": 3059.39,
      "test_rate_per_100k": 30593.9,
      "total_population": 45313,
      "latitude": 39.237500,
      "longitude": -89.925300
    },
    {
      "County": "Madison",
      "confirmed_cases": 3868,
      "confirmed_rate_per_10k": 146.26,
      "confirmed_rate_per_100k": 1462.6,
      "deaths": 95,
      "deaths_rate_per_10k": 3.59221,
      "deaths_rate_per_100k": 35.9221,
      "total_tested": 55193,
      "test_rate_per_10k": 2087,
      "test_rate_per_100k": 20870,
      "total_population": 264461,
      "latitude": 38.904100,
      "longitude": -89.925300
    },
    {
      "County": "Marion",
      "confirmed_cases": 262,
      "confirmed_rate_per_10k": 69.6438,
      "confirmed_rate_per_100k": 696.438,
      "deaths": 0,
      "deaths_rate_per_10k": 0,
      "deaths_rate_per_100k": 0,
      "total_tested": 7485,
      "test_rate_per_10k": 1989.63,
      "test_rate_per_100k": 19896.3,
      "total_population": 37620,
      "latitude": 38.731300,
      "longitude": -88.864700
    },
    {
      "County": "Marshall",
      "confirmed_cases": 44,
      "confirmed_rate_per_10k": 38.1481,
      "confirmed_rate_per_100k": 381.481,
      "deaths": 0,
      "deaths_rate_per_10k": 0,
      "deaths_rate_per_100k": 0,
      "total_tested": 2189,
      "test_rate_per_10k": 1897.87,
      "test_rate_per_100k": 18978.7,
      "total_population": 11534,
      "latitude": 40.997300,
      "longitude": -89.360600
    },
    {
      "County": "Mason",
      "confirmed_cases": 77,
      "confirmed_rate_per_10k": 56.7637,
      "confirmed_rate_per_100k": 567.637,
      "deaths": 1,
      "deaths_rate_per_10k": 0.737191,
      "deaths_rate_per_100k": 7.37191,
      "total_tested": 3228,
      "test_rate_per_10k": 2379.65,
      "test_rate_per_100k": 23796.5,
      "total_population": 13565,
      "latitude": 40.227100,
      "longitude": -89.925300
    },
    {
      "County": "Massac",
      "confirmed_cases": 64,
      "confirmed_rate_per_10k": 45.4545,
      "confirmed_rate_per_100k": 454.545,
      "deaths": 1,
      "deaths_rate_per_10k": 0.710227,
      "deaths_rate_per_100k": 7.10227,
      "total_tested": 2094,
      "test_rate_per_10k": 1487.22,
      "test_rate_per_100k": 14872.2,
      "total_population": 14080,
      "latitude": 37.247800,
      "longitude": -88.749400
    },
    {
      "County": "McDonough",
      "confirmed_cases": 185,
      "confirmed_rate_per_10k": 61.7593,
      "confirmed_rate_per_100k": 617.593,
      "deaths": 15,
      "deaths_rate_per_10k": 5.00751,
      "deaths_rate_per_100k": 50.0751,
      "total_tested": 5135,
      "test_rate_per_10k": 1714.24,
      "test_rate_per_100k": 17142.4,
      "total_population": 29955,
      "latitude": 40.388500,
      "longitude": -90.677300
    },
    {
      "County": "McHenry",
      "confirmed_cases": 3774,
      "confirmed_rate_per_10k": 122.306,
      "confirmed_rate_per_100k": 1223.06,
      "deaths": 114,
      "deaths_rate_per_10k": 3.69446,
      "deaths_rate_per_100k": 36.9446,
      "total_tested": 56752,
      "test_rate_per_10k": 1839.19,
      "test_rate_per_100k": 18391.9,
      "total_population": 308570,
      "latitude": 42.304000,
      "longitude": -88.401600
    },
    {
      "County": "McLean",
      "confirmed_cases": 1379,
      "confirmed_rate_per_10k": 79.7903,
      "confirmed_rate_per_100k": 797.903,
      "deaths": 16,
      "deaths_rate_per_10k": 0.925776,
      "deaths_rate_per_100k": 9.25776,
      "total_tested": 44947,
      "test_rate_per_10k": 2600.68,
      "test_rate_per_100k": 26006.8,
      "total_population": 172828,
      "latitude": 40.547800,
      "longitude": -88.864700
    },
    {
      "County": "Menard",
      "confirmed_cases": 68,
      "confirmed_rate_per_10k": 55.3385,
      "confirmed_rate_per_100k": 553.385,
      "deaths": 0,
      "deaths_rate_per_10k": 0,
      "deaths_rate_per_100k": 0,
      "total_tested": 3405,
      "test_rate_per_10k": 2771,
      "test_rate_per_100k": 27710,
      "total_population": 12288,
      "latitude": 40.022100,
      "longitude": -89.813000
    },
    {
      "County": "Mercer",
      "confirmed_cases": 97,
      "confirmed_rate_per_10k": 62.1755,
      "confirmed_rate_per_100k": 621.755,
      "deaths": 4,
      "deaths_rate_per_10k": 2.56394,
      "deaths_rate_per_100k": 25.6394,
      "total_tested": 3152,
      "test_rate_per_10k": 2020.38,
      "test_rate_per_100k": 20203.8,
      "total_population": 15601,
      "latitude": 41.198500,
      "longitude": -90.677300
    },
    {
      "County": "Monroe",
      "confirmed_cases": 440,
      "confirmed_rate_per_10k": 128.149,
      "confirmed_rate_per_100k": 1281.49,
      "deaths": 14,
      "deaths_rate_per_10k": 4.07747,
      "deaths_rate_per_100k": 40.7747,
      "total_tested": 5071,
      "test_rate_per_10k": 1476.92,
      "test_rate_per_100k": 14769.2,
      "total_population": 34335,
      "latitude": 38.274300,
      "longitude": -90.187000
    },
    {
      "County": "Montgomery",
      "confirmed_cases": 246,
      "confirmed_rate_per_10k": 86.011,
      "confirmed_rate_per_100k": 860.11,
      "deaths": 8,
      "deaths_rate_per_10k": 2.7971,
      "deaths_rate_per_100k": 27.971,
      "total_tested": 9200,
      "test_rate_per_10k": 3216.67,
      "test_rate_per_100k": 32166.7,
      "total_population": 28601,
      "latitude": 39.236400,
      "longitude": -89.474200
    },
    {
      "County": "Morgan",
      "confirmed_cases": 480,
      "confirmed_rate_per_10k": 141.276,
      "confirmed_rate_per_100k": 1412.76,
      "deaths": 18,
      "deaths_rate_per_10k": 5.29786,
      "deaths_rate_per_100k": 52.9786,
      "total_tested": 10688,
      "test_rate_per_10k": 3145.75,
      "test_rate_per_100k": 31457.5,
      "total_population": 33976,
      "latitude": 39.734100,
      "longitude": -90.224500
    },
    {
      "County": "Moultrie",
      "confirmed_cases": 151,
      "confirmed_rate_per_10k": 102.602,
      "confirmed_rate_per_100k": 1026.02,
      "deaths": 0,
      "deaths_rate_per_10k": 0,
      "deaths_rate_per_100k": 0,
      "total_tested": 3240,
      "test_rate_per_10k": 2201.54,
      "test_rate_per_100k": 22015.4,
      "total_population": 14717,
      "latitude": 39.602100,
      "longitude": -88.595200
    },
    {
      "County": "Ogle",
      "confirmed_cases": 468,
      "confirmed_rate_per_10k": 91.9035,
      "confirmed_rate_per_100k": 919.035,
      "deaths": 5,
      "deaths_rate_per_10k": 0.981875,
      "deaths_rate_per_100k": 9.81875,
      "total_tested": 10654,
      "test_rate_per_10k": 2092.18,
      "test_rate_per_100k": 20921.8,
      "total_population": 50923,
      "latitude": 41.997000,
      "longitude": -89.322700
    },
    {
      "County": "Peoria",
      "confirmed_cases": 2301,
      "confirmed_rate_per_10k": 127.394,
      "confirmed_rate_per_100k": 1273.94,
      "deaths": 40,
      "deaths_rate_per_10k": 2.21458,
      "deaths_rate_per_100k": 22.1458,
      "total_tested": 62448,
      "test_rate_per_10k": 3457.41,
      "test_rate_per_100k": 34574.1,
      "total_population": 180621,
      "latitude": 40.715600,
      "longitude": -89.775500
    },
    {
      "County": "Perry",
      "confirmed_cases": 286,
      "confirmed_rate_per_10k": 135.071,
      "confirmed_rate_per_100k": 1350.71,
      "deaths": 8,
      "deaths_rate_per_10k": 3.77822,
      "deaths_rate_per_100k": 37.7822,
      "total_tested": 4772,
      "test_rate_per_10k": 2253.71,
      "test_rate_per_100k": 22537.1,
      "total_population": 21174,
      "latitude": 38.061200,
      "longitude": -89.322700
    },
    {
      "County": "Piatt",
      "confirmed_cases": 76,
      "confirmed_rate_per_10k": 46.3528,
      "confirmed_rate_per_100k": 463.528,
      "deaths": 0,
      "deaths_rate_per_10k": 0,
      "deaths_rate_per_100k": 0,
      "total_tested": 5388,
      "test_rate_per_10k": 3286.17,
      "test_rate_per_100k": 32861.7,
      "total_population": 16396,
      "latitude": 40.054400,
      "longitude": -88.855650
    },
    {
      "County": "Pike",
      "confirmed_cases": 68,
      "confirmed_rate_per_10k": 43.559,
      "confirmed_rate_per_100k": 435.59,
      "deaths": 0,
      "deaths_rate_per_10k": 0,
      "deaths_rate_per_100k": 0,
      "total_tested": 2022,
      "test_rate_per_10k": 1295.24,
      "test_rate_per_100k": 12952.4,
      "total_population": 15611,
      "latitude": 39.566200,
      "longitude": -90.829400
    },
    {
      "County": "Pope",
      "confirmed_cases": 14,
      "confirmed_rate_per_10k": 33.2384,
      "confirmed_rate_per_100k": 332.384,
      "deaths": 1,
      "deaths_rate_per_10k": 2.37417,
      "deaths_rate_per_100k": 23.7417,
      "total_tested": 416,
      "test_rate_per_10k": 987.654,
      "test_rate_per_100k": 9876.54,
      "total_population": 4212,
      "latitude": 37.417100,
      "longitude": -88.595200
    },
    {
      "County": "Pulaski",
      "confirmed_cases": 117,
      "confirmed_rate_per_10k": 214.168,
      "confirmed_rate_per_100k": 2141.68,
      "deaths": 1,
      "deaths_rate_per_10k": 1.8305,
      "deaths_rate_per_100k": 18.305,
      "total_tested": 1056,
      "test_rate_per_10k": 1933,
      "test_rate_per_100k": 19330,
      "total_population": 5463,
      "latitude": 37.251200,
      "longitude": -89.132500
    },
    {
      "County": "Putnam",
      "confirmed_cases": 16,
      "confirmed_rate_per_10k": 27.8746,
      "confirmed_rate_per_100k": 278.746,
      "deaths": 0,
      "deaths_rate_per_10k": 0,
      "deaths_rate_per_100k": 0,
      "total_tested": 740,
      "test_rate_per_10k": 1289.2,
      "test_rate_per_100k": 12892,
      "total_population": 5740,
      "latitude": 41.238500,
      "longitude": -89.284700
    },
    {
      "County": "Randolph",
      "confirmed_cases": 702,
      "confirmed_rate_per_10k": 218.651,
      "confirmed_rate_per_100k": 2186.51,
      "deaths": 7,
      "deaths_rate_per_10k": 2.18028,
      "deaths_rate_per_100k": 21.8028,
      "total_tested": 8190,
      "test_rate_per_10k": 2550.93,
      "test_rate_per_100k": 25509.3,
      "total_population": 32106,
      "latitude": 38.062900,
      "longitude": -89.775500
    },
    {
      "County": "Richland",
      "confirmed_cases": 60,
      "confirmed_rate_per_10k": 38.0638,
      "confirmed_rate_per_100k": 380.638,
      "deaths": 2,
      "deaths_rate_per_10k": 1.26879,
      "deaths_rate_per_100k": 12.6879,
      "total_tested": 3376,
      "test_rate_per_10k": 2141.72,
      "test_rate_per_100k": 21417.2,
      "total_population": 15763,
      "latitude": 38.721300,
      "longitude": -88.090100
    },
    {
      "County": "Rock Island",
      "confirmed_cases": 2112,
      "confirmed_rate_per_10k": 147.201,
      "confirmed_rate_per_100k": 1472.01,
      "deaths": 53,
      "deaths_rate_per_10k": 3.69397,
      "deaths_rate_per_100k": 36.9397,
      "total_tested": 44213,
      "test_rate_per_10k": 3081.54,
      "test_rate_per_100k": 30815.4,
      "total_population": 143477,
      "latitude": 41.509500,
      "longitude": -90.578700
    },
    {
      "County": "Saline",
      "confirmed_cases": 161,
      "confirmed_rate_per_10k": 67.3471,
      "confirmed_rate_per_100k": 673.471,
      "deaths": 3,
      "deaths_rate_per_10k": 1.25492,
      "deaths_rate_per_100k": 12.5492,
      "total_tested": 4798,
      "test_rate_per_10k": 2007.03,
      "test_rate_per_100k": 20070.3,
      "total_population": 23906,
      "latitude": 37.715000,
      "longitude": -88.556500
    },
    {
      "County": "Sangamon",
      "confirmed_cases": 1724,
      "confirmed_rate_per_10k": 88.2528,
      "confirmed_rate_per_100k": 882.528,
      "deaths": 37,
      "deaths_rate_per_10k": 1.89406,
      "deaths_rate_per_100k": 18.9406,
      "total_tested": 75713,
      "test_rate_per_10k": 3875.8,
      "test_rate_per_100k": 38758,
      "total_population": 195348,
      "latitude": 39.733700,
      "longitude": -89.625200
    },
    {
      "County": "Schuyler",
      "confirmed_cases": 19,
      "confirmed_rate_per_10k": 27.5083,
      "confirmed_rate_per_100k": 275.083,
      "deaths": 0,
      "deaths_rate_per_10k": 0,
      "deaths_rate_per_100k": 0,
      "total_tested": 1336,
      "test_rate_per_10k": 1934.27,
      "test_rate_per_100k": 19342.7,
      "total_population": 6907,
      "latitude": 40.184500,
      "longitude": -90.639400
    },
    {
      "County": "Scott",
      "confirmed_cases": 45,
      "confirmed_rate_per_10k": 91.352,
      "confirmed_rate_per_100k": 913.52,
      "deaths": 0,
      "deaths_rate_per_10k": 0,
      "deaths_rate_per_100k": 0,
      "total_tested": 1524,
      "test_rate_per_10k": 3093.79,
      "test_rate_per_100k": 30937.9,
      "total_population": 4926,
      "latitude": 39.609500,
      "longitude": -90.488000
    },
    {
      "County": "Shelby",
      "confirmed_cases": 185,
      "confirmed_rate_per_10k": 85.0927,
      "confirmed_rate_per_100k": 850.927,
      "deaths": 3,
      "deaths_rate_per_10k": 1.37988,
      "deaths_rate_per_100k": 13.7988,
      "total_tested": 4803,
      "test_rate_per_10k": 2209.19,
      "test_rate_per_100k": 22091.9,
      "total_population": 21741,
      "latitude": 39.398100,
      "longitude": -88.864700
    },
    {
      "County": "St. Clair",
      "confirmed_cases": 5158,
      "confirmed_rate_per_10k": 197.58,
      "confirmed_rate_per_100k": 1975.8,
      "deaths": 170,
      "deaths_rate_per_10k": 6.51194,
      "deaths_rate_per_100k": 65.1194,
      "total_tested": 59387,
      "test_rate_per_10k": 2274.85,
      "test_rate_per_100k": 22748.5,
      "total_population": 261059,
      "latitude": 38.400800,
      "longitude": -89.925300
    },
    {
      "County": "Stark",
      "confirmed_cases": 17,
      "confirmed_rate_per_10k": 31.3249,
      "confirmed_rate_per_100k": 313.249,
      "deaths": 0,
      "deaths_rate_per_10k": 0,
      "deaths_rate_per_100k": 0,
      "total_tested": 1250,
      "test_rate_per_10k": 2303.3,
      "test_rate_per_100k": 23033,
      "total_population": 5427,
      "latitude": 41.079600,
      "longitude": -89.813000
    },
    {
      "County": "Stephenson",
      "confirmed_cases": 376,
      "confirmed_rate_per_10k": 84.0167,
      "confirmed_rate_per_100k": 840.167,
      "deaths": 6,
      "deaths_rate_per_10k": 1.34069,
      "deaths_rate_per_100k": 13.4069,
      "total_tested": 8588,
      "test_rate_per_10k": 1918.98,
      "test_rate_per_100k": 19189.8,
      "total_population": 44753,
      "latitude": 42.314500,
      "longitude": -89.625200
    },
    {
      "County": "Tazewell",
      "confirmed_cases": 1040,
      "confirmed_rate_per_10k": 78.5926,
      "confirmed_rate_per_100k": 785.926,
      "deaths": 9,
      "deaths_rate_per_10k": 0.680128,
      "deaths_rate_per_100k": 6.80128,
      "total_tested": 41988,
      "test_rate_per_10k": 3173.02,
      "test_rate_per_100k": 31730.2,
      "total_population": 132328,
      "latitude": 40.552200,
      "longitude": -89.474200
    },
    {
      "County": "Union",
      "confirmed_cases": 414,
      "confirmed_rate_per_10k": 245.829,
      "confirmed_rate_per_100k": 2458.29,
      "deaths": 24,
      "deaths_rate_per_10k": 14.2509,
      "deaths_rate_per_100k": 142.509,
      "total_tested": 4636,
      "test_rate_per_10k": 2752.81,
      "test_rate_per_100k": 27528.1,
      "total_population": 16841,
      "latitude": 37.508700,
      "longitude": -89.284700
    },
    {
      "County": "Vermilion",
      "confirmed_cases": 320,
      "confirmed_rate_per_10k": 41.6634,
      "confirmed_rate_per_100k": 416.634,
      "deaths": 3,
      "deaths_rate_per_10k": 0.390594,
      "deaths_rate_per_100k": 3.90594,
      "total_tested": 18254,
      "test_rate_per_10k": 2376.64,
      "test_rate_per_100k": 23766.4,
      "total_population": 76806,
      "latitude": 40.122500,
      "longitude": -87.697600
    },
    {
      "County": "Wabash",
      "confirmed_cases": 101,
      "confirmed_rate_per_10k": 87.4535,
      "confirmed_rate_per_100k": 874.535,
      "deaths": 1,
      "deaths_rate_per_10k": 0.865876,
      "deaths_rate_per_100k": 8.65876,
      "total_tested": 1783,
      "test_rate_per_10k": 1543.86,
      "test_rate_per_100k": 15438.6,
      "total_population": 11549,
      "latitude": 38.422600,
      "longitude": -87.815700
    },
    {
      "County": "Warren",
      "confirmed_cases": 247,
      "confirmed_rate_per_10k": 145.021,
      "confirmed_rate_per_100k": 1450.21,
      "deaths": 1,
      "deaths_rate_per_10k": 0.58713,
      "deaths_rate_per_100k": 5.8713,
      "total_tested": 2827,
      "test_rate_per_10k": 1659.82,
      "test_rate_per_100k": 16598.2,
      "total_population": 17032,
      "latitude": 40.875900,
      "longitude": -90.677300
    },
    {
      "County": "Washington",
      "confirmed_cases": 109,
      "confirmed_rate_per_10k": 77.885,
      "confirmed_rate_per_100k": 778.85,
      "deaths": 1,
      "deaths_rate_per_10k": 0.714541,
      "deaths_rate_per_100k": 7.14541,
      "total_tested": 2133,
      "test_rate_per_10k": 1524.12,
      "test_rate_per_100k": 15241.2,
      "total_population": 13995,
      "latitude": 38.398900,
      "longitude": -89.322700
    },
    {
      "County": "Wayne",
      "confirmed_cases": 92,
      "confirmed_rate_per_10k": 56.3311,
      "confirmed_rate_per_100k": 563.311,
      "deaths": 2,
      "deaths_rate_per_10k": 1.22459,
      "deaths_rate_per_100k": 12.2459,
      "total_tested": 2398,
      "test_rate_per_10k": 1468.28,
      "test_rate_per_100k": 14682.8,
      "total_population": 16332,
      "latitude": 38.390000,
      "longitude": -88.401600
    },
    {
      "County": "White",
      "confirmed_cases": 114,
      "confirmed_rate_per_10k": 83.4248,
      "confirmed_rate_per_100k": 834.248,
      "deaths": 0,
      "deaths_rate_per_10k": 0,
      "deaths_rate_per_100k": 0,
      "total_tested": 1983,
      "test_rate_per_10k": 1451.15,
      "test_rate_per_100k": 14511.5,
      "total_population": 13665,
      "latitude": 38.050100,
      "longitude": -88.246100
    },
    {
      "County": "Whiteside",
      "confirmed_cases": 490,
      "confirmed_rate_per_10k": 88.0883,
      "confirmed_rate_per_100k": 880.883,
      "deaths": 19,
      "deaths_rate_per_10k": 3.41567,
      "deaths_rate_per_100k": 34.1567,
      "total_tested": 10459,
      "test_rate_per_10k": 1880.24,
      "test_rate_per_100k": 18802.4,
      "total_population": 55626,
      "latitude": 41.760600,
      "longitude": -89.850500
    },
    {
      "County": "Will",
      "confirmed_cases": 11278,
      "confirmed_rate_per_10k": 162.904,
      "confirmed_rate_per_100k": 1629.04,
      "deaths": 358,
      "deaths_rate_per_10k": 5.17109,
      "deaths_rate_per_100k": 51.7109,
      "total_tested": 160499,
      "test_rate_per_10k": 2318.31,
      "test_rate_per_100k": 23183.1,
      "total_population": 692310,
      "latitude": 41.505500,
      "longitude": -88.090100
    },
    {
      "County": "Williamson",
      "confirmed_cases": 812,
      "confirmed_rate_per_10k": 121.093,
      "confirmed_rate_per_100k": 1210.93,
      "deaths": 12,
      "deaths_rate_per_10k": 1.78955,
      "deaths_rate_per_100k": 17.8955,
      "total_tested": 17898,
      "test_rate_per_10k": 2669.11,
      "test_rate_per_100k": 26691.1,
      "total_population": 67056,
      "latitude": 37.718300,
      "longitude": -88.864700
    },
    {
      "County": "Winnebago",
      "confirmed_cases": 4175,
      "confirmed_rate_per_10k": 146.965,
      "confirmed_rate_per_100k": 1469.65,
      "deaths": 146,
      "deaths_rate_per_10k": 5.13938,
      "deaths_rate_per_100k": 51.3938,
      "total_tested": 65470,
      "test_rate_per_10k": 2304.62,
      "test_rate_per_100k": 23046.2,
      "total_population": 284081,
      "latitude": 42.312100,
      "longitude": -89.170600
    },
    {
      "County": "Woodford",
      "confirmed_cases": 263,
      "confirmed_rate_per_10k": 68.3774,
      "confirmed_rate_per_100k": 683.774,
      "deaths": 3,
      "deaths_rate_per_10k": 0.77997,
      "deaths_rate_per_100k": 7.7997,
      "total_tested": 8379,
      "test_rate_per_10k": 2178.46,
      "test_rate_per_100k": 21784.6,
      "total_population": 38463,
      "latitude": 40.712900,
      "longitude": -89.170600
    }
  ]
}
