{
  "LastUpdateDate": {
    "year": 2020,
    "month": 11,
    "day": 10
  },
  "county_rates": [
    {
      "County": "Adams",
      "confirmed_cases": 3023,
      "confirmed_rate_per_10k": 460.185,
      "confirmed_rate_per_100k": 4601.85,
      "deaths": 30,
      "deaths_rate_per_10k": 4.56684,
      "deaths_rate_per_100k": 45.6684,
      "total_tested": 45205,
      "test_rate_per_10k": 6881.46,
      "test_rate_per_100k": 68814.6,
      "total_population": 65691,
      "latitude": 40.057800,
      "longitude": -91.135300
    },
    {
      "County": "Alexander",
      "confirmed_cases": 185,
      "confirmed_rate_per_10k": 305.281,
      "confirmed_rate_per_100k": 3052.81,
      "deaths": 2,
      "deaths_rate_per_10k": 3.30033,
      "deaths_rate_per_100k": 33.0033,
      "total_tested": 2682,
      "test_rate_per_10k": 4425.74,
      "test_rate_per_100k": 44257.4,
      "total_population": 6060,
      "latitude": 37.167000,
      "longitude": -89.360600
    },
    {
      "County": "Bond",
      "confirmed_cases": 718,
      "confirmed_rate_per_10k": 431.75,
      "confirmed_rate_per_100k": 4317.5,
      "deaths": 9,
      "deaths_rate_per_10k": 5.41191,
      "deaths_rate_per_100k": 54.1191,
      "total_tested": 9213,
      "test_rate_per_10k": 5539.99,
      "test_rate_per_100k": 55399.9,
      "total_population": 16630,
      "latitude": 38.903000,
      "longitude": -89.474200
    },
    {
      "County": "Boone",
      "confirmed_cases": 2706,
      "confirmed_rate_per_10k": 505.067,
      "confirmed_rate_per_100k": 5050.67,
      "deaths": 26,
      "deaths_rate_per_10k": 4.85283,
      "deaths_rate_per_100k": 48.5283,
      "total_tested": 26366,
      "test_rate_per_10k": 4921.14,
      "test_rate_per_100k": 49211.4,
      "total_population": 53577,
      "latitude": 42.348500,
      "longitude": -88.826300
    },
    {
      "County": "Brown",
      "confirmed_cases": 196,
      "confirmed_rate_per_10k": 298.963,
      "confirmed_rate_per_100k": 2989.63,
      "deaths": 0,
      "deaths_rate_per_10k": 0,
      "deaths_rate_per_100k": 0,
      "total_tested": 2697,
      "test_rate_per_10k": 4113.79,
      "test_rate_per_100k": 41137.9,
      "total_population": 6556,
      "latitude": 39.938000,
      "longitude": -90.715300
    },
    {
      "County": "Bureau",
      "confirmed_cases": 1356,
      "confirmed_rate_per_10k": 410.996,
      "confirmed_rate_per_100k": 4109.96,
      "deaths": 20,
      "deaths_rate_per_10k": 6.06189,
      "deaths_rate_per_100k": 60.6189,
      "total_tested": 15477,
      "test_rate_per_10k": 4691,
      "test_rate_per_100k": 46910,
      "total_population": 32993,
      "latitude": 41.359900,
      "longitude": -89.474200
    },
    {
      "County": "Calhoun",
      "confirmed_cases": 127,
      "confirmed_rate_per_10k": 264.473,
      "confirmed_rate_per_100k": 2644.73,
      "deaths": 0,
      "deaths_rate_per_10k": 0,
      "deaths_rate_per_100k": 0,
      "total_tested": 2068,
      "test_rate_per_10k": 4306.54,
      "test_rate_per_100k": 43065.4,
      "total_population": 4802,
      "latitude": 39.173300,
      "longitude": -90.658300
    },
    {
      "County": "Carroll",
      "confirmed_cases": 755,
      "confirmed_rate_per_10k": 527.529,
      "confirmed_rate_per_100k": 5275.29,
      "deaths": 18,
      "deaths_rate_per_10k": 12.5769,
      "deaths_rate_per_100k": 125.769,
      "total_tested": 8784,
      "test_rate_per_10k": 6137.51,
      "test_rate_per_100k": 61375.1,
      "total_population": 14312,
      "latitude": 42.038600,
      "longitude": -89.962700
    },
    {
      "County": "Cass",
      "confirmed_cases": 613,
      "confirmed_rate_per_10k": 500,
      "confirmed_rate_per_100k": 5000,
      "deaths": 12,
      "deaths_rate_per_10k": 9.78793,
      "deaths_rate_per_100k": 97.8793,
      "total_tested": 6500,
      "test_rate_per_10k": 5301.79,
      "test_rate_per_100k": 53017.9,
      "total_population": 12260,
      "latitude": 39.939900,
      "longitude": -90.262000
    },
    {
      "County": "Champaign",
      "confirmed_cases": 8180,
      "confirmed_rate_per_10k": 389.555,
      "confirmed_rate_per_100k": 3895.55,
      "deaths": 37,
      "deaths_rate_per_10k": 1.76205,
      "deaths_rate_per_100k": 17.6205,
      "total_tested": 901881,
      "test_rate_per_10k": 42950.2,
      "test_rate_per_100k": 429502,
      "total_population": 209983,
      "latitude": 40.213900,
      "longitude": -88.246100
    },
    {
      "County": "Chicago",
      "confirmed_cases": 122040,
      "confirmed_rate_per_10k": 450.999,
      "confirmed_rate_per_100k": 4509.99,
      "deaths": 3153,
      "deaths_rate_per_10k": 11.6519,
      "deaths_rate_per_100k": 116.519,
      "total_tested": 1703330,
      "test_rate_per_10k": 6294.66,
      "test_rate_per_100k": 62946.6,
      "total_population": 2705994,
      "latitude": 41.789896,
      "longitude": -87.627734
    },
    {
      "County": "Christian",
      "confirmed_cases": 1265,
      "confirmed_rate_per_10k": 387.312,
      "confirmed_rate_per_100k": 3873.12,
      "deaths": 31,
      "deaths_rate_per_10k": 9.49144,
      "deaths_rate_per_100k": 94.9144,
      "total_tested": 16244,
      "test_rate_per_10k": 4973.52,
      "test_rate_per_100k": 49735.2,
      "total_population": 32661,
      "latitude": 39.567200,
      "longitude": -89.322700
    },
    {
      "County": "Clark",
      "confirmed_cases": 510,
      "confirmed_rate_per_10k": 327.007,
      "confirmed_rate_per_100k": 3270.07,
      "deaths": 19,
      "deaths_rate_per_10k": 12.1826,
      "deaths_rate_per_100k": 121.826,
      "total_tested": 6126,
      "test_rate_per_10k": 3927.93,
      "test_rate_per_100k": 39279.3,
      "total_population": 15596,
      "latitude": 39.382400,
      "longitude": -87.776300
    },
    {
      "County": "Clay",
      "confirmed_cases": 462,
      "confirmed_rate_per_10k": 348.6,
      "confirmed_rate_per_100k": 3486,
      "deaths": 16,
      "deaths_rate_per_10k": 12.0727,
      "deaths_rate_per_100k": 120.727,
      "total_tested": 5124,
      "test_rate_per_10k": 3866.29,
      "test_rate_per_100k": 38662.9,
      "total_population": 13253,
      "latitude": 38.727900,
      "longitude": -88.556500
    },
    {
      "County": "Clinton",
      "confirmed_cases": 2294,
      "confirmed_rate_per_10k": 609.474,
      "confirmed_rate_per_100k": 6094.74,
      "deaths": 36,
      "deaths_rate_per_10k": 9.56455,
      "deaths_rate_per_100k": 95.6455,
      "total_tested": 20928,
      "test_rate_per_10k": 5560.19,
      "test_rate_per_100k": 55601.9,
      "total_population": 37639,
      "latitude": 38.568400,
      "longitude": -89.625200
    },
    {
      "County": "Coles",
      "confirmed_cases": 2549,
      "confirmed_rate_per_10k": 500.933,
      "confirmed_rate_per_100k": 5009.33,
      "deaths": 51,
      "deaths_rate_per_10k": 10.0226,
      "deaths_rate_per_100k": 100.226,
      "total_tested": 30014,
      "test_rate_per_10k": 5898.4,
      "test_rate_per_100k": 58984,
      "total_population": 50885,
      "latitude": 39.556000,
      "longitude": -88.246100
    },
    {
      "County": "Cook",
      "confirmed_cases": 105385,
      "confirmed_rate_per_10k": 425.884,
      "confirmed_rate_per_100k": 4258.84,
      "deaths": 2514,
      "deaths_rate_per_10k": 10.1596,
      "deaths_rate_per_100k": 101.596,
      "total_tested": 1492631,
      "test_rate_per_10k": 6032.05,
      "test_rate_per_100k": 60320.5,
      "total_population": 2474499,
      "latitude": 42.050784,
      "longitude": -87.963759
    },
    {
      "County": "Crawford",
      "confirmed_cases": 776,
      "confirmed_rate_per_10k": 412.612,
      "confirmed_rate_per_100k": 4126.12,
      "deaths": 6,
      "deaths_rate_per_10k": 3.1903,
      "deaths_rate_per_100k": 31.903,
      "total_tested": 6862,
      "test_rate_per_10k": 3648.64,
      "test_rate_per_100k": 36486.4,
      "total_population": 18807,
      "latitude": 39.050000,
      "longitude": -87.776300
    },
    {
      "County": "Cumberland",
      "confirmed_cases": 430,
      "confirmed_rate_per_10k": 397.853,
      "confirmed_rate_per_100k": 3978.53,
      "deaths": 6,
      "deaths_rate_per_10k": 5.55144,
      "deaths_rate_per_100k": 55.5144,
      "total_tested": 5077,
      "test_rate_per_10k": 4697.45,
      "test_rate_per_100k": 46974.5,
      "total_population": 10808,
      "latitude": 39.265400,
      "longitude": -88.207200
    },
    {
      "County": "De Witt",
      "confirmed_cases": 453,
      "confirmed_rate_per_10k": 287.272,
      "confirmed_rate_per_100k": 2872.72,
      "deaths": 8,
      "deaths_rate_per_10k": 5.07324,
      "deaths_rate_per_100k": 50.7324,
      "total_tested": 7091,
      "test_rate_per_10k": 4496.8,
      "test_rate_per_100k": 44968,
      "total_population": 15769,
      "latitude": 40.181000,
      "longitude": -88.903100
    },
    {
      "County": "DeKalb",
      "confirmed_cases": 3531,
      "confirmed_rate_per_10k": 339.053,
      "confirmed_rate_per_100k": 3390.53,
      "deaths": 43,
      "deaths_rate_per_10k": 4.12894,
      "deaths_rate_per_100k": 41.2894,
      "total_tested": 54115,
      "test_rate_per_10k": 5196.22,
      "test_rate_per_100k": 51962.2,
      "total_population": 104143,
      "latitude": 41.833000,
      "longitude": -88.710900
    },
    {
      "County": "Douglas",
      "confirmed_cases": 1015,
      "confirmed_rate_per_10k": 521.074,
      "confirmed_rate_per_100k": 5210.74,
      "deaths": 10,
      "deaths_rate_per_10k": 5.13373,
      "deaths_rate_per_100k": 51.3373,
      "total_tested": 12969,
      "test_rate_per_10k": 6657.94,
      "test_rate_per_100k": 66579.4,
      "total_population": 19479,
      "latitude": 39.761800,
      "longitude": -88.207200
    },
    {
      "County": "DuPage",
      "confirmed_cases": 31830,
      "confirmed_rate_per_10k": 342.778,
      "confirmed_rate_per_100k": 3427.78,
      "deaths": 643,
      "deaths_rate_per_10k": 6.92448,
      "deaths_rate_per_100k": 69.2448,
      "total_tested": 490931,
      "test_rate_per_10k": 5286.85,
      "test_rate_per_100k": 52868.5,
      "total_population": 928589,
      "latitude": 41.824400,
      "longitude": -88.090100
    },
    {
      "County": "Edgar",
      "confirmed_cases": 522,
      "confirmed_rate_per_10k": 300.691,
      "confirmed_rate_per_100k": 3006.91,
      "deaths": 12,
      "deaths_rate_per_10k": 6.91244,
      "deaths_rate_per_100k": 69.1244,
      "total_tested": 5524,
      "test_rate_per_10k": 3182.03,
      "test_rate_per_100k": 31820.3,
      "total_population": 17360,
      "latitude": 39.713100,
      "longitude": -87.776300
    },
    {
      "County": "Edwards",
      "confirmed_cases": 135,
      "confirmed_rate_per_10k": 211.202,
      "confirmed_rate_per_100k": 2112.02,
      "deaths": 0,
      "deaths_rate_per_10k": 0,
      "deaths_rate_per_100k": 0,
      "total_tested": 1305,
      "test_rate_per_10k": 2041.61,
      "test_rate_per_100k": 20416.1,
      "total_population": 6392,
      "latitude": 38.426800,
      "longitude": -88.051000
    },
    {
      "County": "Effingham",
      "confirmed_cases": 1771,
      "confirmed_rate_per_10k": 517.715,
      "confirmed_rate_per_100k": 5177.15,
      "deaths": 6,
      "deaths_rate_per_10k": 1.75398,
      "deaths_rate_per_100k": 17.5398,
      "total_tested": 16916,
      "test_rate_per_10k": 4945.04,
      "test_rate_per_100k": 49450.4,
      "total_population": 34208,
      "latitude": 39.062200,
      "longitude": -88.556500
    },
    {
      "County": "Fayette",
      "confirmed_cases": 1008,
      "confirmed_rate_per_10k": 470.676,
      "confirmed_rate_per_100k": 4706.76,
      "deaths": 26,
      "deaths_rate_per_10k": 12.1405,
      "deaths_rate_per_100k": 121.405,
      "total_tested": 9059,
      "test_rate_per_10k": 4230.01,
      "test_rate_per_100k": 42300.1,
      "total_population": 21416,
      "latitude": 39.067000,
      "longitude": -89.017900
    },
    {
      "County": "Ford",
      "confirmed_cases": 421,
      "confirmed_rate_per_10k": 317.4,
      "confirmed_rate_per_100k": 3174,
      "deaths": 17,
      "deaths_rate_per_10k": 12.8166,
      "deaths_rate_per_100k": 128.166,
      "total_tested": 9189,
      "test_rate_per_10k": 6927.77,
      "test_rate_per_100k": 69277.7,
      "total_population": 13264,
      "latitude": 40.498900,
      "longitude": -88.207200
    },
    {
      "County": "Franklin",
      "confirmed_cases": 1363,
      "confirmed_rate_per_10k": 352.187,
      "confirmed_rate_per_100k": 3521.87,
      "deaths": 14,
      "deaths_rate_per_10k": 3.61748,
      "deaths_rate_per_100k": 36.1748,
      "total_tested": 19058,
      "test_rate_per_10k": 4924.42,
      "test_rate_per_100k": 49244.2,
      "total_population": 38701,
      "latitude": 38.015700,
      "longitude": -88.903100
    },
    {
      "County": "Fulton",
      "confirmed_cases": 877,
      "confirmed_rate_per_10k": 251.693,
      "confirmed_rate_per_100k": 2516.93,
      "deaths": 6,
      "deaths_rate_per_10k": 1.72196,
      "deaths_rate_per_100k": 17.2196,
      "total_tested": 19009,
      "test_rate_per_10k": 5455.46,
      "test_rate_per_100k": 54554.6,
      "total_population": 34844,
      "latitude": 40.553200,
      "longitude": -90.224500
    },
    {
      "County": "Gallatin",
      "confirmed_cases": 138,
      "confirmed_rate_per_10k": 272.835,
      "confirmed_rate_per_100k": 2728.35,
      "deaths": 2,
      "deaths_rate_per_10k": 3.95413,
      "deaths_rate_per_100k": 39.5413,
      "total_tested": 1292,
      "test_rate_per_10k": 2554.37,
      "test_rate_per_100k": 25543.7,
      "total_population": 5058,
      "latitude": 37.710800,
      "longitude": -88.246100
    },
    {
      "County": "Greene",
      "confirmed_cases": 529,
      "confirmed_rate_per_10k": 405.55,
      "confirmed_rate_per_100k": 4055.5,
      "deaths": 18,
      "deaths_rate_per_10k": 13.7994,
      "deaths_rate_per_100k": 137.994,
      "total_tested": 5730,
      "test_rate_per_10k": 4392.82,
      "test_rate_per_100k": 43928.2,
      "total_population": 13044,
      "latitude": 39.403000,
      "longitude": -90.374800
    },
    {
      "County": "Grundy",
      "confirmed_cases": 1617,
      "confirmed_rate_per_10k": 317.233,
      "confirmed_rate_per_100k": 3172.33,
      "deaths": 9,
      "deaths_rate_per_10k": 1.76568,
      "deaths_rate_per_100k": 17.6568,
      "total_tested": 17680,
      "test_rate_per_10k": 3468.57,
      "test_rate_per_100k": 34685.7,
      "total_population": 50972,
      "latitude": 41.350100,
      "longitude": -88.401600
    },
    {
      "County": "Hamilton",
      "confirmed_cases": 218,
      "confirmed_rate_per_10k": 267.059,
      "confirmed_rate_per_100k": 2670.59,
      "deaths": 2,
      "deaths_rate_per_10k": 2.45008,
      "deaths_rate_per_100k": 24.5008,
      "total_tested": 2485,
      "test_rate_per_10k": 3044.22,
      "test_rate_per_100k": 30442.2,
      "total_population": 8163,
      "latitude": 38.054300,
      "longitude": -88.556500
    },
    {
      "County": "Hancock",
      "confirmed_cases": 593,
      "confirmed_rate_per_10k": 332.325,
      "confirmed_rate_per_100k": 3323.25,
      "deaths": 5,
      "deaths_rate_per_10k": 2.80206,
      "deaths_rate_per_100k": 28.0206,
      "total_tested": 8100,
      "test_rate_per_10k": 4539.34,
      "test_rate_per_100k": 45393.4,
      "total_population": 17844,
      "latitude": 40.384900,
      "longitude": -91.135300
    },
    {
      "County": "Hardin",
      "confirmed_cases": 74,
      "confirmed_rate_per_10k": 189.258,
      "confirmed_rate_per_100k": 1892.58,
      "deaths": 0,
      "deaths_rate_per_10k": 0,
      "deaths_rate_per_100k": 0,
      "total_tested": 1557,
      "test_rate_per_10k": 3982.1,
      "test_rate_per_100k": 39821,
      "total_population": 3910,
      "latitude": 37.499500,
      "longitude": -88.362800
    },
    {
      "County": "Henderson",
      "confirmed_cases": 182,
      "confirmed_rate_per_10k": 271.277,
      "confirmed_rate_per_100k": 2712.77,
      "deaths": 0,
      "deaths_rate_per_10k": 0,
      "deaths_rate_per_100k": 0,
      "total_tested": 2482,
      "test_rate_per_10k": 3699.51,
      "test_rate_per_100k": 36995.1,
      "total_population": 6709,
      "latitude": 40.833600,
      "longitude": -90.943800
    },
    {
      "County": "Henry",
      "confirmed_cases": 1424,
      "confirmed_rate_per_10k": 290.079,
      "confirmed_rate_per_100k": 2900.79,
      "deaths": 9,
      "deaths_rate_per_10k": 1.83337,
      "deaths_rate_per_100k": 18.3337,
      "total_tested": 25020,
      "test_rate_per_10k": 5096.76,
      "test_rate_per_100k": 50967.6,
      "total_population": 49090,
      "latitude": 41.361100,
      "longitude": -90.074700
    },
    {
      "County": "Iroquois",
      "confirmed_cases": 945,
      "confirmed_rate_per_10k": 342.342,
      "confirmed_rate_per_100k": 3423.42,
      "deaths": 20,
      "deaths_rate_per_10k": 7.24533,
      "deaths_rate_per_100k": 72.4533,
      "total_tested": 16719,
      "test_rate_per_10k": 6056.73,
      "test_rate_per_100k": 60567.3,
      "total_population": 27604,
      "latitude": 40.774000,
      "longitude": -87.697600
    },
    {
      "County": "Jackson",
      "confirmed_cases": 1931,
      "confirmed_rate_per_10k": 336.3,
      "confirmed_rate_per_100k": 3363,
      "deaths": 28,
      "deaths_rate_per_10k": 4.87643,
      "deaths_rate_per_100k": 48.7643,
      "total_tested": 26511,
      "test_rate_per_10k": 4617.11,
      "test_rate_per_100k": 46171.1,
      "total_population": 57419,
      "latitude": 37.721800,
      "longitude": -89.322700
    },
    {
      "County": "Jasper",
      "confirmed_cases": 435,
      "confirmed_rate_per_10k": 452.606,
      "confirmed_rate_per_100k": 4526.06,
      "deaths": 10,
      "deaths_rate_per_10k": 10.4047,
      "deaths_rate_per_100k": 104.047,
      "total_tested": 3978,
      "test_rate_per_10k": 4139.01,
      "test_rate_per_100k": 41390.1,
      "total_population": 9611,
      "latitude": 39.055500,
      "longitude": -88.090100
    },
    {
      "County": "Jefferson",
      "confirmed_cases": 1277,
      "confirmed_rate_per_10k": 337.652,
      "confirmed_rate_per_100k": 3376.52,
      "deaths": 55,
      "deaths_rate_per_10k": 14.5426,
      "deaths_rate_per_100k": 145.426,
      "total_tested": 15832,
      "test_rate_per_10k": 4186.14,
      "test_rate_per_100k": 41861.4,
      "total_population": 37820,
      "latitude": 38.226700,
      "longitude": -88.864700
    },
    {
      "County": "Jersey",
      "confirmed_cases": 787,
      "confirmed_rate_per_10k": 360.233,
      "confirmed_rate_per_100k": 3602.33,
      "deaths": 21,
      "deaths_rate_per_10k": 9.6123,
      "deaths_rate_per_100k": 96.123,
      "total_tested": 9724,
      "test_rate_per_10k": 4450.95,
      "test_rate_per_100k": 44509.5,
      "total_population": 21847,
      "latitude": 39.070500,
      "longitude": -90.374800
    },
    {
      "County": "Jo Daviess",
      "confirmed_cases": 757,
      "confirmed_rate_per_10k": 354.301,
      "confirmed_rate_per_100k": 3543.01,
      "deaths": 11,
      "deaths_rate_per_10k": 5.14837,
      "deaths_rate_per_100k": 51.4837,
      "total_tested": 8926,
      "test_rate_per_10k": 4177.67,
      "test_rate_per_100k": 41776.7,
      "total_population": 21366,
      "latitude": 42.314900,
      "longitude": -90.224500
    },
    {
      "County": "Johnson",
      "confirmed_cases": 504,
      "confirmed_rate_per_10k": 404.624,
      "confirmed_rate_per_100k": 4046.24,
      "deaths": 0,
      "deaths_rate_per_10k": 0,
      "deaths_rate_per_100k": 0,
      "total_tested": 4865,
      "test_rate_per_10k": 3905.75,
      "test_rate_per_100k": 39057.5,
      "total_population": 12456,
      "latitude": 37.420400,
      "longitude": -88.903100
    },
    {
      "County": "Kane",
      "confirmed_cases": 23179,
      "confirmed_rate_per_10k": 433.888,
      "confirmed_rate_per_100k": 4338.88,
      "deaths": 366,
      "deaths_rate_per_10k": 6.85116,
      "deaths_rate_per_100k": 68.5116,
      "total_tested": 263679,
      "test_rate_per_10k": 4935.81,
      "test_rate_per_100k": 49358.1,
      "total_population": 534216,
      "latitude": 41.987900,
      "longitude": -88.401600
    },
    {
      "County": "Kankakee",
      "confirmed_cases": 5282,
      "confirmed_rate_per_10k": 480.077,
      "confirmed_rate_per_100k": 4800.77,
      "deaths": 86,
      "deaths_rate_per_10k": 7.81648,
      "deaths_rate_per_100k": 78.1648,
      "total_tested": 79263,
      "test_rate_per_10k": 7204.16,
      "test_rate_per_100k": 72041.6,
      "total_population": 110024,
      "latitude": 41.179100,
      "longitude": -87.776300
    },
    {
      "County": "Kendall",
      "confirmed_cases": 4144,
      "confirmed_rate_per_10k": 323.965,
      "confirmed_rate_per_100k": 3239.65,
      "deaths": 31,
      "deaths_rate_per_10k": 2.42348,
      "deaths_rate_per_100k": 24.2348,
      "total_tested": 52482,
      "test_rate_per_10k": 4102.88,
      "test_rate_per_100k": 41028.8,
      "total_population": 127915,
      "latitude": 41.550700,
      "longitude": -88.440400
    },
    {
      "County": "Knox",
      "confirmed_cases": 1824,
      "confirmed_rate_per_10k": 363.985,
      "confirmed_rate_per_100k": 3639.85,
      "deaths": 31,
      "deaths_rate_per_10k": 6.18614,
      "deaths_rate_per_100k": 61.8614,
      "total_tested": 28125,
      "test_rate_per_10k": 5612.43,
      "test_rate_per_100k": 56124.3,
      "total_population": 50112,
      "latitude": 40.877600,
      "longitude": -90.224500
    },
    {
      "County": "Lake",
      "confirmed_cases": 27189,
      "confirmed_rate_per_10k": 387.953,
      "confirmed_rate_per_100k": 3879.53,
      "deaths": 534,
      "deaths_rate_per_10k": 7.61952,
      "deaths_rate_per_100k": 76.1952,
      "total_tested": 376055,
      "test_rate_per_10k": 5365.84,
      "test_rate_per_100k": 53658.4,
      "total_population": 700832,
      "latitude": 42.368900,
      "longitude": -87.827200
    },
    {
      "County": "LaSalle",
      "confirmed_cases": 3891,
      "confirmed_rate_per_10k": 355.57,
      "confirmed_rate_per_100k": 3555.7,
      "deaths": 81,
      "deaths_rate_per_10k": 7.40199,
      "deaths_rate_per_100k": 74.0199,
      "total_tested": 47362,
      "test_rate_per_10k": 4328.06,
      "test_rate_per_100k": 43280.6,
      "total_population": 109430,
      "latitude": 41.436400,
      "longitude": -88.941400
    },
    {
      "County": "Lawrence",
      "confirmed_cases": 501,
      "confirmed_rate_per_10k": 317.793,
      "confirmed_rate_per_100k": 3177.93,
      "deaths": 8,
      "deaths_rate_per_10k": 5.07453,
      "deaths_rate_per_100k": 50.7453,
      "total_tested": 8106,
      "test_rate_per_10k": 5141.77,
      "test_rate_per_100k": 51417.7,
      "total_population": 15765,
      "latitude": 38.715800,
      "longitude": -87.776300
    },
    {
      "County": "Lee",
      "confirmed_cases": 1248,
      "confirmed_rate_per_10k": 364.667,
      "confirmed_rate_per_100k": 3646.67,
      "deaths": 4,
      "deaths_rate_per_10k": 1.1688,
      "deaths_rate_per_100k": 11.688,
      "total_tested": 13736,
      "test_rate_per_10k": 4013.68,
      "test_rate_per_100k": 40136.8,
      "total_population": 34223,
      "latitude": 41.679000,
      "longitude": -89.322700
    },
    {
      "County": "Livingston",
      "confirmed_cases": 1264,
      "confirmed_rate_per_10k": 353.458,
      "confirmed_rate_per_100k": 3534.58,
      "deaths": 12,
      "deaths_rate_per_10k": 3.35561,
      "deaths_rate_per_100k": 33.5561,
      "total_tested": 22249,
      "test_rate_per_10k": 6221.58,
      "test_rate_per_100k": 62215.8,
      "total_population": 35761,
      "latitude": 40.868900,
      "longitude": -88.556500
    },
    {
      "County": "Logan",
      "confirmed_cases": 957,
      "confirmed_rate_per_10k": 330.856,
      "confirmed_rate_per_100k": 3308.56,
      "deaths": 5,
      "deaths_rate_per_10k": 1.72861,
      "deaths_rate_per_100k": 17.2861,
      "total_tested": 21643,
      "test_rate_per_10k": 7482.45,
      "test_rate_per_100k": 74824.5,
      "total_population": 28925,
      "latitude": 40.061300,
      "longitude": -89.322700
    },
    {
      "County": "Macon",
      "confirmed_cases": 4699,
      "confirmed_rate_per_10k": 448.755,
      "confirmed_rate_per_100k": 4487.55,
      "deaths": 77,
      "deaths_rate_per_10k": 7.3535,
      "deaths_rate_per_100k": 73.535,
      "total_tested": 63970,
      "test_rate_per_10k": 6109.14,
      "test_rate_per_100k": 61091.4,
      "total_population": 104712,
      "latitude": 39.894900,
      "longitude": -89.017900
    },
    {
      "County": "Macoupin",
      "confirmed_cases": 1205,
      "confirmed_rate_per_10k": 265.928,
      "confirmed_rate_per_100k": 2659.28,
      "deaths": 13,
      "deaths_rate_per_10k": 2.86893,
      "deaths_rate_per_100k": 28.6893,
      "total_tested": 25435,
      "test_rate_per_10k": 5613.18,
      "test_rate_per_100k": 56131.8,
      "total_population": 45313,
      "latitude": 39.237500,
      "longitude": -89.925300
    },
    {
      "County": "Madison",
      "confirmed_cases": 9601,
      "confirmed_rate_per_10k": 363.04,
      "confirmed_rate_per_100k": 3630.4,
      "deaths": 169,
      "deaths_rate_per_10k": 6.39036,
      "deaths_rate_per_100k": 63.9036,
      "total_tested": 114133,
      "test_rate_per_10k": 4315.68,
      "test_rate_per_100k": 43156.8,
      "total_population": 264461,
      "latitude": 38.904100,
      "longitude": -89.925300
    },
    {
      "County": "Marion",
      "confirmed_cases": 1495,
      "confirmed_rate_per_10k": 397.395,
      "confirmed_rate_per_100k": 3973.95,
      "deaths": 29,
      "deaths_rate_per_10k": 7.70867,
      "deaths_rate_per_100k": 77.0867,
      "total_tested": 22805,
      "test_rate_per_10k": 6061.94,
      "test_rate_per_100k": 60619.4,
      "total_population": 37620,
      "latitude": 38.731300,
      "longitude": -88.864700
    },
    {
      "County": "Marshall",
      "confirmed_cases": 223,
      "confirmed_rate_per_10k": 193.341,
      "confirmed_rate_per_100k": 1933.41,
      "deaths": 4,
      "deaths_rate_per_10k": 3.46801,
      "deaths_rate_per_100k": 34.6801,
      "total_tested": 6573,
      "test_rate_per_10k": 5698.8,
      "test_rate_per_100k": 56988,
      "total_population": 11534,
      "latitude": 40.997300,
      "longitude": -89.360600
    },
    {
      "County": "Mason",
      "confirmed_cases": 418,
      "confirmed_rate_per_10k": 308.146,
      "confirmed_rate_per_100k": 3081.46,
      "deaths": 13,
      "deaths_rate_per_10k": 9.58349,
      "deaths_rate_per_100k": 95.8349,
      "total_tested": 7369,
      "test_rate_per_10k": 5432.36,
      "test_rate_per_100k": 54323.6,
      "total_population": 13565,
      "latitude": 40.227100,
      "longitude": -89.925300
    },
    {
      "County": "Massac",
      "confirmed_cases": 238,
      "confirmed_rate_per_10k": 169.034,
      "confirmed_rate_per_100k": 1690.34,
      "deaths": 2,
      "deaths_rate_per_10k": 1.42045,
      "deaths_rate_per_100k": 14.2045,
      "total_tested": 3867,
      "test_rate_per_10k": 2746.45,
      "test_rate_per_100k": 27464.5,
      "total_population": 14080,
      "latitude": 37.247800,
      "longitude": -88.749400
    },
    {
      "County": "McDonough",
      "confirmed_cases": 1120,
      "confirmed_rate_per_10k": 373.894,
      "confirmed_rate_per_100k": 3738.94,
      "deaths": 25,
      "deaths_rate_per_10k": 8.34585,
      "deaths_rate_per_100k": 83.4585,
      "total_tested": 15978,
      "test_rate_per_10k": 5334,
      "test_rate_per_100k": 53340,
      "total_population": 29955,
      "latitude": 40.388500,
      "longitude": -90.677300
    },
    {
      "County": "McHenry",
      "confirmed_cases": 9786,
      "confirmed_rate_per_10k": 317.14,
      "confirmed_rate_per_100k": 3171.4,
      "deaths": 120,
      "deaths_rate_per_10k": 3.88891,
      "deaths_rate_per_100k": 38.8891,
      "total_tested": 120983,
      "test_rate_per_10k": 3920.76,
      "test_rate_per_100k": 39207.6,
      "total_population": 308570,
      "latitude": 42.304000,
      "longitude": -88.401600
    },
    {
      "County": "McLean",
      "confirmed_cases": 5890,
      "confirmed_rate_per_10k": 340.801,
      "confirmed_rate_per_100k": 3408.01,
      "deaths": 40,
      "deaths_rate_per_10k": 2.31444,
      "deaths_rate_per_100k": 23.1444,
      "total_tested": 116199,
      "test_rate_per_10k": 6723.39,
      "test_rate_per_100k": 67233.9,
      "total_population": 172828,
      "latitude": 40.547800,
      "longitude": -88.864700
    },
    {
      "County": "Menard",
      "confirmed_cases": 255,
      "confirmed_rate_per_10k": 207.52,
      "confirmed_rate_per_100k": 2075.2,
      "deaths": 1,
      "deaths_rate_per_10k": 0.813802,
      "deaths_rate_per_100k": 8.13802,
      "total_tested": 7032,
      "test_rate_per_10k": 5722.66,
      "test_rate_per_100k": 57226.6,
      "total_population": 12288,
      "latitude": 40.022100,
      "longitude": -89.813000
    },
    {
      "County": "Mercer",
      "confirmed_cases": 487,
      "confirmed_rate_per_10k": 312.159,
      "confirmed_rate_per_100k": 3121.59,
      "deaths": 7,
      "deaths_rate_per_10k": 4.48689,
      "deaths_rate_per_100k": 44.8689,
      "total_tested": 7702,
      "test_rate_per_10k": 4936.86,
      "test_rate_per_100k": 49368.6,
      "total_population": 15601,
      "latitude": 41.198500,
      "longitude": -90.677300
    },
    {
      "County": "Monroe",
      "confirmed_cases": 1335,
      "confirmed_rate_per_10k": 388.816,
      "confirmed_rate_per_100k": 3888.16,
      "deaths": 39,
      "deaths_rate_per_10k": 11.3587,
      "deaths_rate_per_100k": 113.587,
      "total_tested": 13404,
      "test_rate_per_10k": 3903.89,
      "test_rate_per_100k": 39038.9,
      "total_population": 34335,
      "latitude": 38.274300,
      "longitude": -90.187000
    },
    {
      "County": "Montgomery",
      "confirmed_cases": 817,
      "confirmed_rate_per_10k": 285.654,
      "confirmed_rate_per_100k": 2856.54,
      "deaths": 17,
      "deaths_rate_per_10k": 5.94385,
      "deaths_rate_per_100k": 59.4385,
      "total_tested": 19917,
      "test_rate_per_10k": 6963.74,
      "test_rate_per_100k": 69637.4,
      "total_population": 28601,
      "latitude": 39.236400,
      "longitude": -89.474200
    },
    {
      "County": "Morgan",
      "confirmed_cases": 1361,
      "confirmed_rate_per_10k": 400.577,
      "confirmed_rate_per_100k": 4005.77,
      "deaths": 27,
      "deaths_rate_per_10k": 7.94679,
      "deaths_rate_per_100k": 79.4679,
      "total_tested": 18533,
      "test_rate_per_10k": 5454.73,
      "test_rate_per_100k": 54547.3,
      "total_population": 33976,
      "latitude": 39.734100,
      "longitude": -90.224500
    },
    {
      "County": "Moultrie",
      "confirmed_cases": 622,
      "confirmed_rate_per_10k": 422.64,
      "confirmed_rate_per_100k": 4226.4,
      "deaths": 8,
      "deaths_rate_per_10k": 5.43589,
      "deaths_rate_per_100k": 54.3589,
      "total_tested": 8439,
      "test_rate_per_10k": 5734.18,
      "test_rate_per_100k": 57341.8,
      "total_population": 14717,
      "latitude": 39.602100,
      "longitude": -88.595200
    },
    {
      "County": "Ogle",
      "confirmed_cases": 1931,
      "confirmed_rate_per_10k": 379.2,
      "confirmed_rate_per_100k": 3792,
      "deaths": 9,
      "deaths_rate_per_10k": 1.76737,
      "deaths_rate_per_100k": 17.6737,
      "total_tested": 23946,
      "test_rate_per_10k": 4702.39,
      "test_rate_per_100k": 47023.9,
      "total_population": 50923,
      "latitude": 41.997000,
      "longitude": -89.322700
    },
    {
      "County": "Peoria",
      "confirmed_cases": 6196,
      "confirmed_rate_per_10k": 343.039,
      "confirmed_rate_per_100k": 3430.39,
      "deaths": 93,
      "deaths_rate_per_10k": 5.1489,
      "deaths_rate_per_100k": 51.489,
      "total_tested": 125607,
      "test_rate_per_10k": 6954.17,
      "test_rate_per_100k": 69541.7,
      "total_population": 180621,
      "latitude": 40.715600,
      "longitude": -89.775500
    },
    {
      "County": "Perry",
      "confirmed_cases": 651,
      "confirmed_rate_per_10k": 307.453,
      "confirmed_rate_per_100k": 3074.53,
      "deaths": 16,
      "deaths_rate_per_10k": 7.55644,
      "deaths_rate_per_100k": 75.5644,
      "total_tested": 8700,
      "test_rate_per_10k": 4108.81,
      "test_rate_per_100k": 41088.1,
      "total_population": 21174,
      "latitude": 38.061200,
      "longitude": -89.322700
    },
    {
      "County": "Piatt",
      "confirmed_cases": 474,
      "confirmed_rate_per_10k": 289.095,
      "confirmed_rate_per_100k": 2890.95,
      "deaths": 5,
      "deaths_rate_per_10k": 3.04952,
      "deaths_rate_per_100k": 30.4952,
      "total_tested": 12845,
      "test_rate_per_10k": 7834.23,
      "test_rate_per_100k": 78342.3,
      "total_population": 16396,
      "latitude": 40.054400,
      "longitude": -88.855650
    },
    {
      "County": "Pike",
      "confirmed_cases": 667,
      "confirmed_rate_per_10k": 427.263,
      "confirmed_rate_per_100k": 4272.63,
      "deaths": 12,
      "deaths_rate_per_10k": 7.68689,
      "deaths_rate_per_100k": 76.8689,
      "total_tested": 7025,
      "test_rate_per_10k": 4500.03,
      "test_rate_per_100k": 45000.3,
      "total_population": 15611,
      "latitude": 39.566200,
      "longitude": -90.829400
    },
    {
      "County": "Pope",
      "confirmed_cases": 53,
      "confirmed_rate_per_10k": 125.831,
      "confirmed_rate_per_100k": 1258.31,
      "deaths": 1,
      "deaths_rate_per_10k": 2.37417,
      "deaths_rate_per_100k": 23.7417,
      "total_tested": 955,
      "test_rate_per_10k": 2267.33,
      "test_rate_per_100k": 22673.3,
      "total_population": 4212,
      "latitude": 37.417100,
      "longitude": -88.595200
    },
    {
      "County": "Pulaski",
      "confirmed_cases": 294,
      "confirmed_rate_per_10k": 538.166,
      "confirmed_rate_per_100k": 5381.66,
      "deaths": 1,
      "deaths_rate_per_10k": 1.8305,
      "deaths_rate_per_100k": 18.305,
      "total_tested": 2405,
      "test_rate_per_10k": 4402.34,
      "test_rate_per_100k": 44023.4,
      "total_population": 5463,
      "latitude": 37.251200,
      "longitude": -89.132500
    },
    {
      "County": "Putnam",
      "confirmed_cases": 140,
      "confirmed_rate_per_10k": 243.902,
      "confirmed_rate_per_100k": 2439.02,
      "deaths": 0,
      "deaths_rate_per_10k": 0,
      "deaths_rate_per_100k": 0,
      "total_tested": 1880,
      "test_rate_per_10k": 3275.26,
      "test_rate_per_100k": 32752.6,
      "total_population": 5740,
      "latitude": 41.238500,
      "longitude": -89.284700
    },
    {
      "County": "Randolph",
      "confirmed_cases": 1588,
      "confirmed_rate_per_10k": 494.612,
      "confirmed_rate_per_100k": 4946.12,
      "deaths": 19,
      "deaths_rate_per_10k": 5.9179,
      "deaths_rate_per_100k": 59.179,
      "total_tested": 18119,
      "test_rate_per_10k": 5643.49,
      "test_rate_per_100k": 56434.9,
      "total_population": 32106,
      "latitude": 38.062900,
      "longitude": -89.775500
    },
    {
      "County": "Richland",
      "confirmed_cases": 448,
      "confirmed_rate_per_10k": 284.21,
      "confirmed_rate_per_100k": 2842.1,
      "deaths": 18,
      "deaths_rate_per_10k": 11.4191,
      "deaths_rate_per_100k": 114.191,
      "total_tested": 8832,
      "test_rate_per_10k": 5602.99,
      "test_rate_per_100k": 56029.9,
      "total_population": 15763,
      "latitude": 38.721300,
      "longitude": -88.090100
    },
    {
      "County": "Rock Island",
      "confirmed_cases": 5772,
      "confirmed_rate_per_10k": 402.294,
      "confirmed_rate_per_100k": 4022.94,
      "deaths": 103,
      "deaths_rate_per_10k": 7.17885,
      "deaths_rate_per_100k": 71.7885,
      "total_tested": 83872,
      "test_rate_per_10k": 5845.68,
      "test_rate_per_100k": 58456.8,
      "total_population": 143477,
      "latitude": 41.509500,
      "longitude": -90.578700
    },
    {
      "County": "Saline",
      "confirmed_cases": 786,
      "confirmed_rate_per_10k": 328.788,
      "confirmed_rate_per_100k": 3287.88,
      "deaths": 15,
      "deaths_rate_per_10k": 6.27458,
      "deaths_rate_per_100k": 62.7458,
      "total_tested": 9780,
      "test_rate_per_10k": 4091.02,
      "test_rate_per_100k": 40910.2,
      "total_population": 23906,
      "latitude": 37.715000,
      "longitude": -88.556500
    },
    {
      "County": "Sangamon",
      "confirmed_cases": 6431,
      "confirmed_rate_per_10k": 329.207,
      "confirmed_rate_per_100k": 3292.07,
      "deaths": 67,
      "deaths_rate_per_10k": 3.42978,
      "deaths_rate_per_100k": 34.2978,
      "total_tested": 154402,
      "test_rate_per_10k": 7903.95,
      "test_rate_per_100k": 79039.5,
      "total_population": 195348,
      "latitude": 39.733700,
      "longitude": -89.625200
    },
    {
      "County": "Schuyler",
      "confirmed_cases": 133,
      "confirmed_rate_per_10k": 192.558,
      "confirmed_rate_per_100k": 1925.58,
      "deaths": 1,
      "deaths_rate_per_10k": 1.44781,
      "deaths_rate_per_100k": 14.4781,
      "total_tested": 2564,
      "test_rate_per_10k": 3712.18,
      "test_rate_per_100k": 37121.8,
      "total_population": 6907,
      "latitude": 40.184500,
      "longitude": -90.639400
    },
    {
      "County": "Scott",
      "confirmed_cases": 157,
      "confirmed_rate_per_10k": 318.717,
      "confirmed_rate_per_100k": 3187.17,
      "deaths": 0,
      "deaths_rate_per_10k": 0,
      "deaths_rate_per_100k": 0,
      "total_tested": 3213,
      "test_rate_per_10k": 6522.53,
      "test_rate_per_100k": 65225.3,
      "total_population": 4926,
      "latitude": 39.609500,
      "longitude": -90.488000
    },
    {
      "County": "Shelby",
      "confirmed_cases": 946,
      "confirmed_rate_per_10k": 435.123,
      "confirmed_rate_per_100k": 4351.23,
      "deaths": 19,
      "deaths_rate_per_10k": 8.73925,
      "deaths_rate_per_100k": 87.3925,
      "total_tested": 9884,
      "test_rate_per_10k": 4546.25,
      "test_rate_per_100k": 45462.5,
      "total_population": 21741,
      "latitude": 39.398100,
      "longitude": -88.864700
    },
    {
      "County": "St. Clair",
      "confirmed_cases": 9596,
      "confirmed_rate_per_10k": 367.58,
      "confirmed_rate_per_100k": 3675.8,
      "deaths": 231,
      "deaths_rate_per_10k": 8.84857,
      "deaths_rate_per_100k": 88.4857,
      "total_tested": 121090,
      "test_rate_per_10k": 4638.42,
      "test_rate_per_100k": 46384.2,
      "total_population": 261059,
      "latitude": 38.400800,
      "longitude": -89.925300
    },
    {
      "County": "Stark",
      "confirmed_cases": 141,
      "confirmed_rate_per_10k": 259.812,
      "confirmed_rate_per_100k": 2598.12,
      "deaths": 3,
      "deaths_rate_per_10k": 5.52792,
      "deaths_rate_per_100k": 55.2792,
      "total_tested": 3355,
      "test_rate_per_10k": 6182.05,
      "test_rate_per_100k": 61820.5,
      "total_population": 5427,
      "latitude": 41.079600,
      "longitude": -89.813000
    },
    {
      "County": "Stephenson",
      "confirmed_cases": 1719,
      "confirmed_rate_per_10k": 384.108,
      "confirmed_rate_per_100k": 3841.08,
      "deaths": 16,
      "deaths_rate_per_10k": 3.57518,
      "deaths_rate_per_100k": 35.7518,
      "total_tested": 20596,
      "test_rate_per_10k": 4602.15,
      "test_rate_per_100k": 46021.5,
      "total_population": 44753,
      "latitude": 42.314500,
      "longitude": -89.625200
    },
    {
      "County": "Tazewell",
      "confirmed_cases": 3971,
      "confirmed_rate_per_10k": 300.088,
      "confirmed_rate_per_100k": 3000.88,
      "deaths": 64,
      "deaths_rate_per_10k": 4.83647,
      "deaths_rate_per_100k": 48.3647,
      "total_tested": 85721,
      "test_rate_per_10k": 6477.92,
      "test_rate_per_100k": 64779.2,
      "total_population": 132328,
      "latitude": 40.552200,
      "longitude": -89.474200
    },
    {
      "County": "Union",
      "confirmed_cases": 891,
      "confirmed_rate_per_10k": 529.066,
      "confirmed_rate_per_100k": 5290.66,
      "deaths": 25,
      "deaths_rate_per_10k": 14.8447,
      "deaths_rate_per_100k": 148.447,
      "total_tested": 10413,
      "test_rate_per_10k": 6183.12,
      "test_rate_per_100k": 61831.2,
      "total_population": 16841,
      "latitude": 37.508700,
      "longitude": -89.284700
    },
    {
      "County": "Vermilion",
      "confirmed_cases": 2466,
      "confirmed_rate_per_10k": 321.069,
      "confirmed_rate_per_100k": 3210.69,
      "deaths": 21,
      "deaths_rate_per_10k": 2.73416,
      "deaths_rate_per_100k": 27.3416,
      "total_tested": 42885,
      "test_rate_per_10k": 5583.55,
      "test_rate_per_100k": 55835.5,
      "total_population": 76806,
      "latitude": 40.122500,
      "longitude": -87.697600
    },
    {
      "County": "Wabash",
      "confirmed_cases": 344,
      "confirmed_rate_per_10k": 297.861,
      "confirmed_rate_per_100k": 2978.61,
      "deaths": 6,
      "deaths_rate_per_10k": 5.19526,
      "deaths_rate_per_100k": 51.9526,
      "total_tested": 3389,
      "test_rate_per_10k": 2934.45,
      "test_rate_per_100k": 29344.5,
      "total_population": 11549,
      "latitude": 38.422600,
      "longitude": -87.815700
    },
    {
      "County": "Warren",
      "confirmed_cases": 719,
      "confirmed_rate_per_10k": 422.147,
      "confirmed_rate_per_100k": 4221.47,
      "deaths": 11,
      "deaths_rate_per_10k": 6.45843,
      "deaths_rate_per_100k": 64.5843,
      "total_tested": 6729,
      "test_rate_per_10k": 3950.8,
      "test_rate_per_100k": 39508,
      "total_population": 17032,
      "latitude": 40.875900,
      "longitude": -90.677300
    },
    {
      "County": "Washington",
      "confirmed_cases": 436,
      "confirmed_rate_per_10k": 311.54,
      "confirmed_rate_per_100k": 3115.4,
      "deaths": 2,
      "deaths_rate_per_10k": 1.42908,
      "deaths_rate_per_100k": 14.2908,
      "total_tested": 4821,
      "test_rate_per_10k": 3444.8,
      "test_rate_per_100k": 34448,
      "total_population": 13995,
      "latitude": 38.398900,
      "longitude": -89.322700
    },
    {
      "County": "Wayne",
      "confirmed_cases": 652,
      "confirmed_rate_per_10k": 399.216,
      "confirmed_rate_per_100k": 3992.16,
      "deaths": 21,
      "deaths_rate_per_10k": 12.8582,
      "deaths_rate_per_100k": 128.582,
      "total_tested": 6354,
      "test_rate_per_10k": 3890.52,
      "test_rate_per_100k": 38905.2,
      "total_population": 16332,
      "latitude": 38.390000,
      "longitude": -88.401600
    },
    {
      "County": "White",
      "confirmed_cases": 373,
      "confirmed_rate_per_10k": 272.96,
      "confirmed_rate_per_100k": 2729.6,
      "deaths": 5,
      "deaths_rate_per_10k": 3.65898,
      "deaths_rate_per_100k": 36.5898,
      "total_tested": 8708,
      "test_rate_per_10k": 6372.48,
      "test_rate_per_100k": 63724.8,
      "total_population": 13665,
      "latitude": 38.050100,
      "longitude": -88.246100
    },
    {
      "County": "Whiteside",
      "confirmed_cases": 2515,
      "confirmed_rate_per_10k": 452.127,
      "confirmed_rate_per_100k": 4521.27,
      "deaths": 49,
      "deaths_rate_per_10k": 8.80883,
      "deaths_rate_per_100k": 88.0883,
      "total_tested": 26081,
      "test_rate_per_10k": 4688.63,
      "test_rate_per_100k": 46886.3,
      "total_population": 55626,
      "latitude": 41.760600,
      "longitude": -89.850500
    },
    {
      "County": "Will",
      "confirmed_cases": 25892,
      "confirmed_rate_per_10k": 373.994,
      "confirmed_rate_per_100k": 3739.94,
      "deaths": 461,
      "deaths_rate_per_10k": 6.65887,
      "deaths_rate_per_100k": 66.5887,
      "total_tested": 324687,
      "test_rate_per_10k": 4689.91,
      "test_rate_per_100k": 46899.1,
      "total_population": 692310,
      "latitude": 41.505500,
      "longitude": -88.090100
    },
    {
      "County": "Williamson",
      "confirmed_cases": 2545,
      "confirmed_rate_per_10k": 379.534,
      "confirmed_rate_per_100k": 3795.34,
      "deaths": 66,
      "deaths_rate_per_10k": 9.84252,
      "deaths_rate_per_100k": 98.4252,
      "total_tested": 36466,
      "test_rate_per_10k": 5438.14,
      "test_rate_per_100k": 54381.4,
      "total_population": 67056,
      "latitude": 37.718300,
      "longitude": -88.864700
    },
    {
      "County": "Winnebago",
      "confirmed_cases": 14174,
      "confirmed_rate_per_10k": 498.942,
      "confirmed_rate_per_100k": 4989.42,
      "deaths": 201,
      "deaths_rate_per_10k": 7.07545,
      "deaths_rate_per_100k": 70.7545,
      "total_tested": 160747,
      "test_rate_per_10k": 5658.49,
      "test_rate_per_100k": 56584.9,
      "total_population": 284081,
      "latitude": 42.312100,
      "longitude": -89.170600
    },
    {
      "County": "Woodford",
      "confirmed_cases": 1061,
      "confirmed_rate_per_10k": 275.85,
      "confirmed_rate_per_100k": 2758.5,
      "deaths": 18,
      "deaths_rate_per_10k": 4.67982,
      "deaths_rate_per_100k": 46.7982,
      "total_tested": 20986,
      "test_rate_per_10k": 5456.15,
      "test_rate_per_100k": 54561.5,
      "total_population": 38463,
      "latitude": 40.712900,
      "longitude": -89.170600
    }
  ]
}
