{
  "LastUpdateDate": {
    "year": 2020,
    "month": 12,
    "day": 30
  },
  "county_rates": [
    {
      "County": "Adams",
      "confirmed_cases": 6372,
      "confirmed_rate_per_10k": 969.996,
      "confirmed_rate_per_100k": 9699.96,
      "deaths": 71,
      "deaths_rate_per_10k": 10.8082,
      "deaths_rate_per_100k": 108.082,
      "total_tested": 89473,
      "test_rate_per_10k": 13620.3,
      "test_rate_per_100k": 136203,
      "total_population": 65691,
      "latitude": 40.057800,
      "longitude": -91.135300
    },
    {
      "County": "Alexander",
      "confirmed_cases": 339,
      "confirmed_rate_per_10k": 559.406,
      "confirmed_rate_per_100k": 5594.06,
      "deaths": 7,
      "deaths_rate_per_10k": 11.5512,
      "deaths_rate_per_100k": 115.512,
      "total_tested": 3798,
      "test_rate_per_10k": 6267.33,
      "test_rate_per_100k": 62673.3,
      "total_population": 6060,
      "latitude": 37.167000,
      "longitude": -89.360600
    },
    {
      "County": "Bond",
      "confirmed_cases": 1541,
      "confirmed_rate_per_10k": 926.639,
      "confirmed_rate_per_100k": 9266.39,
      "deaths": 15,
      "deaths_rate_per_10k": 9.01984,
      "deaths_rate_per_100k": 90.1984,
      "total_tested": 15873,
      "test_rate_per_10k": 9544.8,
      "test_rate_per_100k": 95448,
      "total_population": 16630,
      "latitude": 38.903000,
      "longitude": -89.474200
    },
    {
      "County": "Boone",
      "confirmed_cases": 5027,
      "confirmed_rate_per_10k": 938.276,
      "confirmed_rate_per_100k": 9382.76,
      "deaths": 60,
      "deaths_rate_per_10k": 11.1988,
      "deaths_rate_per_100k": 111.988,
      "total_tested": 40338,
      "test_rate_per_10k": 7528.98,
      "test_rate_per_100k": 75289.8,
      "total_population": 53577,
      "latitude": 42.348500,
      "longitude": -88.826300
    },
    {
      "County": "Brown",
      "confirmed_cases": 450,
      "confirmed_rate_per_10k": 686.394,
      "confirmed_rate_per_100k": 6863.94,
      "deaths": 5,
      "deaths_rate_per_10k": 7.6266,
      "deaths_rate_per_100k": 76.266,
      "total_tested": 4404,
      "test_rate_per_10k": 6717.51,
      "test_rate_per_100k": 67175.1,
      "total_population": 6556,
      "latitude": 39.938000,
      "longitude": -90.715300
    },
    {
      "County": "Bureau",
      "confirmed_cases": 2789,
      "confirmed_rate_per_10k": 845.331,
      "confirmed_rate_per_100k": 8453.31,
      "deaths": 66,
      "deaths_rate_per_10k": 20.0042,
      "deaths_rate_per_100k": 200.042,
      "total_tested": 26585,
      "test_rate_per_10k": 8057.77,
      "test_rate_per_100k": 80577.7,
      "total_population": 32993,
      "latitude": 41.359900,
      "longitude": -89.474200
    },
    {
      "County": "Calhoun",
      "confirmed_cases": 378,
      "confirmed_rate_per_10k": 787.172,
      "confirmed_rate_per_100k": 7871.72,
      "deaths": 1,
      "deaths_rate_per_10k": 2.08247,
      "deaths_rate_per_100k": 20.8247,
      "total_tested": 3774,
      "test_rate_per_10k": 7859.23,
      "test_rate_per_100k": 78592.3,
      "total_population": 4802,
      "latitude": 39.173300,
      "longitude": -90.658300
    },
    {
      "County": "Carroll",
      "confirmed_cases": 1326,
      "confirmed_rate_per_10k": 926.495,
      "confirmed_rate_per_100k": 9264.95,
      "deaths": 31,
      "deaths_rate_per_10k": 21.6601,
      "deaths_rate_per_100k": 216.601,
      "total_tested": 13551,
      "test_rate_per_10k": 9468.28,
      "test_rate_per_100k": 94682.8,
      "total_population": 14312,
      "latitude": 42.038600,
      "longitude": -89.962700
    },
    {
      "County": "Cass",
      "confirmed_cases": 1566,
      "confirmed_rate_per_10k": 1277.32,
      "confirmed_rate_per_100k": 12773.2,
      "deaths": 19,
      "deaths_rate_per_10k": 15.4976,
      "deaths_rate_per_100k": 154.976,
      "total_tested": 12062,
      "test_rate_per_10k": 9838.5,
      "test_rate_per_100k": 98385,
      "total_population": 12260,
      "latitude": 39.939900,
      "longitude": -90.262000
    },
    {
      "County": "Champaign",
      "confirmed_cases": 13706,
      "confirmed_rate_per_10k": 652.72,
      "confirmed_rate_per_100k": 6527.2,
      "deaths": 83,
      "deaths_rate_per_10k": 3.9527,
      "deaths_rate_per_100k": 39.527,
      "total_tested": 1256170,
      "test_rate_per_10k": 59822.5,
      "test_rate_per_100k": 598225,
      "total_population": 209983,
      "latitude": 40.213900,
      "longitude": -88.246100
    },
    {
      "County": "Chicago",
      "confirmed_cases": 203523,
      "confirmed_rate_per_10k": 752.119,
      "confirmed_rate_per_100k": 7521.19,
      "deaths": 4138,
      "deaths_rate_per_10k": 15.292,
      "deaths_rate_per_100k": 152.92,
      "total_tested": 2541380,
      "test_rate_per_10k": 9391.67,
      "test_rate_per_100k": 93916.7,
      "total_population": 2705994,
      "latitude": 41.789896,
      "longitude": -87.627734
    },
    {
      "County": "Christian",
      "confirmed_cases": 2567,
      "confirmed_rate_per_10k": 785.953,
      "confirmed_rate_per_100k": 7859.53,
      "deaths": 47,
      "deaths_rate_per_10k": 14.3903,
      "deaths_rate_per_100k": 143.903,
      "total_tested": 26605,
      "test_rate_per_10k": 8145.8,
      "test_rate_per_100k": 81458,
      "total_population": 32661,
      "latitude": 39.567200,
      "longitude": -89.322700
    },
    {
      "County": "Clark",
      "confirmed_cases": 1201,
      "confirmed_rate_per_10k": 770.069,
      "confirmed_rate_per_100k": 7700.69,
      "deaths": 24,
      "deaths_rate_per_10k": 15.3886,
      "deaths_rate_per_100k": 153.886,
      "total_tested": 9412,
      "test_rate_per_10k": 6034.88,
      "test_rate_per_100k": 60348.8,
      "total_population": 15596,
      "latitude": 39.382400,
      "longitude": -87.776300
    },
    {
      "County": "Clay",
      "confirmed_cases": 1191,
      "confirmed_rate_per_10k": 898.664,
      "confirmed_rate_per_100k": 8986.64,
      "deaths": 31,
      "deaths_rate_per_10k": 23.3909,
      "deaths_rate_per_100k": 233.909,
      "total_tested": 9893,
      "test_rate_per_10k": 7464.72,
      "test_rate_per_100k": 74647.2,
      "total_population": 13253,
      "latitude": 38.727900,
      "longitude": -88.556500
    },
    {
      "County": "Clinton",
      "confirmed_cases": 4420,
      "confirmed_rate_per_10k": 1174.31,
      "confirmed_rate_per_100k": 11743.1,
      "deaths": 75,
      "deaths_rate_per_10k": 19.9261,
      "deaths_rate_per_100k": 199.261,
      "total_tested": 37028,
      "test_rate_per_10k": 9837.67,
      "test_rate_per_100k": 98376.7,
      "total_population": 37639,
      "latitude": 38.568400,
      "longitude": -89.625200
    },
    {
      "County": "Coles",
      "confirmed_cases": 4272,
      "confirmed_rate_per_10k": 839.54,
      "confirmed_rate_per_100k": 8395.4,
      "deaths": 70,
      "deaths_rate_per_10k": 13.7565,
      "deaths_rate_per_100k": 137.565,
      "total_tested": 46579,
      "test_rate_per_10k": 9153.78,
      "test_rate_per_100k": 91537.8,
      "total_population": 50885,
      "latitude": 39.556000,
      "longitude": -88.246100
    },
    {
      "County": "Cook",
      "confirmed_cases": 187404,
      "confirmed_rate_per_10k": 757.341,
      "confirmed_rate_per_100k": 7573.41,
      "deaths": 3688,
      "deaths_rate_per_10k": 14.904,
      "deaths_rate_per_100k": 149.04,
      "total_tested": 2278798,
      "test_rate_per_10k": 9209.13,
      "test_rate_per_100k": 92091.3,
      "total_population": 2474499,
      "latitude": 42.050784,
      "longitude": -87.963759
    },
    {
      "County": "Crawford",
      "confirmed_cases": 1562,
      "confirmed_rate_per_10k": 830.542,
      "confirmed_rate_per_100k": 8305.42,
      "deaths": 19,
      "deaths_rate_per_10k": 10.1026,
      "deaths_rate_per_100k": 101.026,
      "total_tested": 19067,
      "test_rate_per_10k": 10138.2,
      "test_rate_per_100k": 101382,
      "total_population": 18807,
      "latitude": 39.050000,
      "longitude": -87.776300
    },
    {
      "County": "Cumberland",
      "confirmed_cases": 924,
      "confirmed_rate_per_10k": 854.922,
      "confirmed_rate_per_100k": 8549.22,
      "deaths": 13,
      "deaths_rate_per_10k": 12.0281,
      "deaths_rate_per_100k": 120.281,
      "total_tested": 7717,
      "test_rate_per_10k": 7140.08,
      "test_rate_per_100k": 71400.8,
      "total_population": 10808,
      "latitude": 39.265400,
      "longitude": -88.207200
    },
    {
      "County": "De Witt",
      "confirmed_cases": 900,
      "confirmed_rate_per_10k": 570.74,
      "confirmed_rate_per_100k": 5707.4,
      "deaths": 18,
      "deaths_rate_per_10k": 11.4148,
      "deaths_rate_per_100k": 114.148,
      "total_tested": 11924,
      "test_rate_per_10k": 7561.67,
      "test_rate_per_100k": 75616.7,
      "total_population": 15769,
      "latitude": 40.181000,
      "longitude": -88.903100
    },
    {
      "County": "DeKalb",
      "confirmed_cases": 6577,
      "confirmed_rate_per_10k": 631.535,
      "confirmed_rate_per_100k": 6315.35,
      "deaths": 74,
      "deaths_rate_per_10k": 7.10561,
      "deaths_rate_per_100k": 71.0561,
      "total_tested": 81094,
      "test_rate_per_10k": 7786.79,
      "test_rate_per_100k": 77867.9,
      "total_population": 104143,
      "latitude": 41.833000,
      "longitude": -88.710900
    },
    {
      "County": "Douglas",
      "confirmed_cases": 1836,
      "confirmed_rate_per_10k": 942.554,
      "confirmed_rate_per_100k": 9425.54,
      "deaths": 22,
      "deaths_rate_per_10k": 11.2942,
      "deaths_rate_per_100k": 112.942,
      "total_tested": 19744,
      "test_rate_per_10k": 10136,
      "test_rate_per_100k": 101360,
      "total_population": 19479,
      "latitude": 39.761800,
      "longitude": -88.207200
    },
    {
      "County": "DuPage",
      "confirmed_cases": 61271,
      "confirmed_rate_per_10k": 659.829,
      "confirmed_rate_per_100k": 6598.29,
      "deaths": 953,
      "deaths_rate_per_10k": 10.2629,
      "deaths_rate_per_100k": 102.629,
      "total_tested": 775614,
      "test_rate_per_10k": 8352.61,
      "test_rate_per_100k": 83526.1,
      "total_population": 928589,
      "latitude": 41.824400,
      "longitude": -88.090100
    },
    {
      "County": "Edgar",
      "confirmed_cases": 1337,
      "confirmed_rate_per_10k": 770.161,
      "confirmed_rate_per_100k": 7701.61,
      "deaths": 26,
      "deaths_rate_per_10k": 14.977,
      "deaths_rate_per_100k": 149.77,
      "total_tested": 9318,
      "test_rate_per_10k": 5367.51,
      "test_rate_per_100k": 53675.1,
      "total_population": 17360,
      "latitude": 39.713100,
      "longitude": -87.776300
    },
    {
      "County": "Edwards",
      "confirmed_cases": 382,
      "confirmed_rate_per_10k": 597.622,
      "confirmed_rate_per_100k": 5976.22,
      "deaths": 5,
      "deaths_rate_per_10k": 7.82228,
      "deaths_rate_per_100k": 78.2228,
      "total_tested": 2562,
      "test_rate_per_10k": 4008.14,
      "test_rate_per_100k": 40081.4,
      "total_population": 6392,
      "latitude": 38.426800,
      "longitude": -88.051000
    },
    {
      "County": "Effingham",
      "confirmed_cases": 3824,
      "confirmed_rate_per_10k": 1117.87,
      "confirmed_rate_per_100k": 11178.7,
      "deaths": 51,
      "deaths_rate_per_10k": 14.9088,
      "deaths_rate_per_100k": 149.088,
      "total_tested": 27754,
      "test_rate_per_10k": 8113.31,
      "test_rate_per_100k": 81133.1,
      "total_population": 34208,
      "latitude": 39.062200,
      "longitude": -88.556500
    },
    {
      "County": "Fayette",
      "confirmed_cases": 2645,
      "confirmed_rate_per_10k": 1235.06,
      "confirmed_rate_per_100k": 12350.6,
      "deaths": 46,
      "deaths_rate_per_10k": 21.4793,
      "deaths_rate_per_100k": 214.793,
      "total_tested": 17743,
      "test_rate_per_10k": 8284.93,
      "test_rate_per_100k": 82849.3,
      "total_population": 21416,
      "latitude": 39.067000,
      "longitude": -89.017900
    },
    {
      "County": "Ford",
      "confirmed_cases": 1221,
      "confirmed_rate_per_10k": 920.537,
      "confirmed_rate_per_100k": 9205.37,
      "deaths": 37,
      "deaths_rate_per_10k": 27.8951,
      "deaths_rate_per_100k": 278.951,
      "total_tested": 17695,
      "test_rate_per_10k": 13340.6,
      "test_rate_per_100k": 133406,
      "total_population": 13264,
      "latitude": 40.498900,
      "longitude": -88.207200
    },
    {
      "County": "Franklin",
      "confirmed_cases": 3307,
      "confirmed_rate_per_10k": 854.5,
      "confirmed_rate_per_100k": 8545,
      "deaths": 48,
      "deaths_rate_per_10k": 12.4028,
      "deaths_rate_per_100k": 124.028,
      "total_tested": 31210,
      "test_rate_per_10k": 8064.39,
      "test_rate_per_100k": 80643.9,
      "total_population": 38701,
      "latitude": 38.015700,
      "longitude": -88.903100
    },
    {
      "County": "Fulton",
      "confirmed_cases": 2322,
      "confirmed_rate_per_10k": 666.399,
      "confirmed_rate_per_100k": 6663.99,
      "deaths": 27,
      "deaths_rate_per_10k": 7.74882,
      "deaths_rate_per_100k": 77.4882,
      "total_tested": 38273,
      "test_rate_per_10k": 10984.1,
      "test_rate_per_100k": 109841,
      "total_population": 34844,
      "latitude": 40.553200,
      "longitude": -90.224500
    },
    {
      "County": "Gallatin",
      "confirmed_cases": 321,
      "confirmed_rate_per_10k": 634.638,
      "confirmed_rate_per_100k": 6346.38,
      "deaths": 3,
      "deaths_rate_per_10k": 5.9312,
      "deaths_rate_per_100k": 59.312,
      "total_tested": 2482,
      "test_rate_per_10k": 4907.08,
      "test_rate_per_100k": 49070.8,
      "total_population": 5058,
      "latitude": 37.710800,
      "longitude": -88.246100
    },
    {
      "County": "Greene",
      "confirmed_cases": 1109,
      "confirmed_rate_per_10k": 850.199,
      "confirmed_rate_per_100k": 8501.99,
      "deaths": 30,
      "deaths_rate_per_10k": 22.9991,
      "deaths_rate_per_100k": 229.991,
      "total_tested": 9247,
      "test_rate_per_10k": 7089.08,
      "test_rate_per_100k": 70890.8,
      "total_population": 13044,
      "latitude": 39.403000,
      "longitude": -90.374800
    },
    {
      "County": "Grundy",
      "confirmed_cases": 3821,
      "confirmed_rate_per_10k": 749.627,
      "confirmed_rate_per_100k": 7496.27,
      "deaths": 41,
      "deaths_rate_per_10k": 8.04363,
      "deaths_rate_per_100k": 80.4363,
      "total_tested": 30889,
      "test_rate_per_10k": 6059.99,
      "test_rate_per_100k": 60599.9,
      "total_population": 50972,
      "latitude": 41.350100,
      "longitude": -88.401600
    },
    {
      "County": "Hamilton",
      "confirmed_cases": 589,
      "confirmed_rate_per_10k": 721.548,
      "confirmed_rate_per_100k": 7215.48,
      "deaths": 10,
      "deaths_rate_per_10k": 12.2504,
      "deaths_rate_per_100k": 122.504,
      "total_tested": 4344,
      "test_rate_per_10k": 5321.57,
      "test_rate_per_100k": 53215.7,
      "total_population": 8163,
      "latitude": 38.054300,
      "longitude": -88.556500
    },
    {
      "County": "Hancock",
      "confirmed_cases": 1303,
      "confirmed_rate_per_10k": 730.217,
      "confirmed_rate_per_100k": 7302.17,
      "deaths": 20,
      "deaths_rate_per_10k": 11.2082,
      "deaths_rate_per_100k": 112.082,
      "total_tested": 12253,
      "test_rate_per_10k": 6866.73,
      "test_rate_per_100k": 68667.3,
      "total_population": 17844,
      "latitude": 40.384900,
      "longitude": -91.135300
    },
    {
      "County": "Hardin",
      "confirmed_cases": 211,
      "confirmed_rate_per_10k": 539.642,
      "confirmed_rate_per_100k": 5396.42,
      "deaths": 7,
      "deaths_rate_per_10k": 17.9028,
      "deaths_rate_per_100k": 179.028,
      "total_tested": 2943,
      "test_rate_per_10k": 7526.85,
      "test_rate_per_100k": 75268.5,
      "total_population": 3910,
      "latitude": 37.499500,
      "longitude": -88.362800
    },
    {
      "County": "Henderson",
      "confirmed_cases": 394,
      "confirmed_rate_per_10k": 587.271,
      "confirmed_rate_per_100k": 5872.71,
      "deaths": 3,
      "deaths_rate_per_10k": 4.47161,
      "deaths_rate_per_100k": 44.7161,
      "total_tested": 4361,
      "test_rate_per_10k": 6500.22,
      "test_rate_per_100k": 65002.2,
      "total_population": 6709,
      "latitude": 40.833600,
      "longitude": -90.943800
    },
    {
      "County": "Henry",
      "confirmed_cases": 3674,
      "confirmed_rate_per_10k": 748.421,
      "confirmed_rate_per_100k": 7484.21,
      "deaths": 39,
      "deaths_rate_per_10k": 7.94459,
      "deaths_rate_per_100k": 79.4459,
      "total_tested": 43369,
      "test_rate_per_10k": 8834.59,
      "test_rate_per_100k": 88345.9,
      "total_population": 49090,
      "latitude": 41.361100,
      "longitude": -90.074700
    },
    {
      "County": "Iroquois",
      "confirmed_cases": 2293,
      "confirmed_rate_per_10k": 830.677,
      "confirmed_rate_per_100k": 8306.77,
      "deaths": 47,
      "deaths_rate_per_10k": 17.0265,
      "deaths_rate_per_100k": 170.265,
      "total_tested": 29512,
      "test_rate_per_10k": 10691.2,
      "test_rate_per_100k": 106912,
      "total_population": 27604,
      "latitude": 40.774000,
      "longitude": -87.697600
    },
    {
      "County": "Jackson",
      "confirmed_cases": 3610,
      "confirmed_rate_per_10k": 628.712,
      "confirmed_rate_per_100k": 6287.12,
      "deaths": 51,
      "deaths_rate_per_10k": 8.88208,
      "deaths_rate_per_100k": 88.8208,
      "total_tested": 43977,
      "test_rate_per_10k": 7658.96,
      "test_rate_per_100k": 76589.6,
      "total_population": 57419,
      "latitude": 37.721800,
      "longitude": -89.322700
    },
    {
      "County": "Jasper",
      "confirmed_cases": 887,
      "confirmed_rate_per_10k": 922.901,
      "confirmed_rate_per_100k": 9229.01,
      "deaths": 13,
      "deaths_rate_per_10k": 13.5262,
      "deaths_rate_per_100k": 135.262,
      "total_tested": 7320,
      "test_rate_per_10k": 7616.27,
      "test_rate_per_100k": 76162.7,
      "total_population": 9611,
      "latitude": 39.055500,
      "longitude": -88.090100
    },
    {
      "County": "Jefferson",
      "confirmed_cases": 2899,
      "confirmed_rate_per_10k": 766.526,
      "confirmed_rate_per_100k": 7665.26,
      "deaths": 79,
      "deaths_rate_per_10k": 20.8884,
      "deaths_rate_per_100k": 208.884,
      "total_tested": 24231,
      "test_rate_per_10k": 6406.93,
      "test_rate_per_100k": 64069.3,
      "total_population": 37820,
      "latitude": 38.226700,
      "longitude": -88.864700
    },
    {
      "County": "Jersey",
      "confirmed_cases": 1965,
      "confirmed_rate_per_10k": 899.437,
      "confirmed_rate_per_100k": 8994.37,
      "deaths": 29,
      "deaths_rate_per_10k": 13.2741,
      "deaths_rate_per_100k": 132.741,
      "total_tested": 18554,
      "test_rate_per_10k": 8492.7,
      "test_rate_per_100k": 84927,
      "total_population": 21847,
      "latitude": 39.070500,
      "longitude": -90.374800
    },
    {
      "County": "Jo Daviess",
      "confirmed_cases": 1382,
      "confirmed_rate_per_10k": 646.822,
      "confirmed_rate_per_100k": 6468.22,
      "deaths": 21,
      "deaths_rate_per_10k": 9.8287,
      "deaths_rate_per_100k": 98.287,
      "total_tested": 14956,
      "test_rate_per_10k": 6999.91,
      "test_rate_per_100k": 69999.1,
      "total_population": 21366,
      "latitude": 42.314900,
      "longitude": -90.224500
    },
    {
      "County": "Johnson",
      "confirmed_cases": 968,
      "confirmed_rate_per_10k": 777.136,
      "confirmed_rate_per_100k": 7771.36,
      "deaths": 9,
      "deaths_rate_per_10k": 7.22543,
      "deaths_rate_per_100k": 72.2543,
      "total_tested": 8724,
      "test_rate_per_10k": 7003.85,
      "test_rate_per_100k": 70038.5,
      "total_population": 12456,
      "latitude": 37.420400,
      "longitude": -88.903100
    },
    {
      "County": "Kane",
      "confirmed_cases": 41232,
      "confirmed_rate_per_10k": 771.823,
      "confirmed_rate_per_100k": 7718.23,
      "deaths": 561,
      "deaths_rate_per_10k": 10.5014,
      "deaths_rate_per_100k": 105.014,
      "total_tested": 403593,
      "test_rate_per_10k": 7554.87,
      "test_rate_per_100k": 75548.7,
      "total_population": 534216,
      "latitude": 41.987900,
      "longitude": -88.401600
    },
    {
      "County": "Kankakee",
      "confirmed_cases": 10623,
      "confirmed_rate_per_10k": 965.517,
      "confirmed_rate_per_100k": 9655.17,
      "deaths": 149,
      "deaths_rate_per_10k": 13.5425,
      "deaths_rate_per_100k": 135.425,
      "total_tested": 135837,
      "test_rate_per_10k": 12346.1,
      "test_rate_per_100k": 123461,
      "total_population": 110024,
      "latitude": 41.179100,
      "longitude": -87.776300
    },
    {
      "County": "Kendall",
      "confirmed_cases": 8376,
      "confirmed_rate_per_10k": 654.81,
      "confirmed_rate_per_100k": 6548.1,
      "deaths": 68,
      "deaths_rate_per_10k": 5.31603,
      "deaths_rate_per_100k": 53.1603,
      "total_tested": 80653,
      "test_rate_per_10k": 6305.2,
      "test_rate_per_100k": 63052,
      "total_population": 127915,
      "latitude": 41.550700,
      "longitude": -88.440400
    },
    {
      "County": "Knox",
      "confirmed_cases": 4014,
      "confirmed_rate_per_10k": 801.006,
      "confirmed_rate_per_100k": 8010.06,
      "deaths": 99,
      "deaths_rate_per_10k": 19.7557,
      "deaths_rate_per_100k": 197.557,
      "total_tested": 46181,
      "test_rate_per_10k": 9215.56,
      "test_rate_per_100k": 92155.6,
      "total_population": 50112,
      "latitude": 40.877600,
      "longitude": -90.224500
    },
    {
      "County": "Lake",
      "confirmed_cases": 47939,
      "confirmed_rate_per_10k": 684.03,
      "confirmed_rate_per_100k": 6840.3,
      "deaths": 758,
      "deaths_rate_per_10k": 10.8157,
      "deaths_rate_per_100k": 108.157,
      "total_tested": 582455,
      "test_rate_per_10k": 8310.91,
      "test_rate_per_100k": 83109.1,
      "total_population": 700832,
      "latitude": 42.368900,
      "longitude": -87.827200
    },
    {
      "County": "LaSalle",
      "confirmed_cases": 8292,
      "confirmed_rate_per_10k": 757.745,
      "confirmed_rate_per_100k": 7577.45,
      "deaths": 186,
      "deaths_rate_per_10k": 16.9972,
      "deaths_rate_per_100k": 169.972,
      "total_tested": 91137,
      "test_rate_per_10k": 8328.34,
      "test_rate_per_100k": 83283.4,
      "total_population": 109430,
      "latitude": 41.436400,
      "longitude": -88.941400
    },
    {
      "County": "Lawrence",
      "confirmed_cases": 1935,
      "confirmed_rate_per_10k": 1227.4,
      "confirmed_rate_per_100k": 12274,
      "deaths": 20,
      "deaths_rate_per_10k": 12.6863,
      "deaths_rate_per_100k": 126.863,
      "total_tested": 17334,
      "test_rate_per_10k": 10995.2,
      "test_rate_per_100k": 109952,
      "total_population": 15765,
      "latitude": 38.715800,
      "longitude": -87.776300
    },
    {
      "County": "Lee",
      "confirmed_cases": 2694,
      "confirmed_rate_per_10k": 787.19,
      "confirmed_rate_per_100k": 7871.9,
      "deaths": 30,
      "deaths_rate_per_10k": 8.76603,
      "deaths_rate_per_100k": 87.6603,
      "total_tested": 30423,
      "test_rate_per_10k": 8889.64,
      "test_rate_per_100k": 88896.4,
      "total_population": 34223,
      "latitude": 41.679000,
      "longitude": -89.322700
    },
    {
      "County": "Livingston",
      "confirmed_cases": 3118,
      "confirmed_rate_per_10k": 871.9,
      "confirmed_rate_per_100k": 8719,
      "deaths": 51,
      "deaths_rate_per_10k": 14.2613,
      "deaths_rate_per_100k": 142.613,
      "total_tested": 45134,
      "test_rate_per_10k": 12621,
      "test_rate_per_100k": 126210,
      "total_population": 35761,
      "latitude": 40.868900,
      "longitude": -88.556500
    },
    {
      "County": "Logan",
      "confirmed_cases": 2679,
      "confirmed_rate_per_10k": 926.188,
      "confirmed_rate_per_100k": 9261.88,
      "deaths": 37,
      "deaths_rate_per_10k": 12.7917,
      "deaths_rate_per_100k": 127.917,
      "total_tested": 42818,
      "test_rate_per_10k": 14803.1,
      "test_rate_per_100k": 148031,
      "total_population": 28925,
      "latitude": 40.061300,
      "longitude": -89.322700
    },
    {
      "County": "Macon",
      "confirmed_cases": 7912,
      "confirmed_rate_per_10k": 755.596,
      "confirmed_rate_per_100k": 7555.96,
      "deaths": 162,
      "deaths_rate_per_10k": 15.471,
      "deaths_rate_per_100k": 154.71,
      "total_tested": 99720,
      "test_rate_per_10k": 9523.26,
      "test_rate_per_100k": 95232.6,
      "total_population": 104712,
      "latitude": 39.894900,
      "longitude": -89.017900
    },
    {
      "County": "Macoupin",
      "confirmed_cases": 3236,
      "confirmed_rate_per_10k": 714.144,
      "confirmed_rate_per_100k": 7141.44,
      "deaths": 60,
      "deaths_rate_per_10k": 13.2412,
      "deaths_rate_per_100k": 132.412,
      "total_tested": 44427,
      "test_rate_per_10k": 9804.47,
      "test_rate_per_100k": 98044.7,
      "total_population": 45313,
      "latitude": 39.237500,
      "longitude": -89.925300
    },
    {
      "County": "Madison",
      "confirmed_cases": 20827,
      "confirmed_rate_per_10k": 787.526,
      "confirmed_rate_per_100k": 7875.26,
      "deaths": 337,
      "deaths_rate_per_10k": 12.7429,
      "deaths_rate_per_100k": 127.429,
      "total_tested": 190526,
      "test_rate_per_10k": 7204.31,
      "test_rate_per_100k": 72043.1,
      "total_population": 264461,
      "latitude": 38.904100,
      "longitude": -89.925300
    },
    {
      "County": "Marion",
      "confirmed_cases": 3525,
      "confirmed_rate_per_10k": 937.002,
      "confirmed_rate_per_100k": 9370.02,
      "deaths": 97,
      "deaths_rate_per_10k": 25.7842,
      "deaths_rate_per_100k": 257.842,
      "total_tested": 38380,
      "test_rate_per_10k": 10202,
      "test_rate_per_100k": 102020,
      "total_population": 37620,
      "latitude": 38.731300,
      "longitude": -88.864700
    },
    {
      "County": "Marshall",
      "confirmed_cases": 571,
      "confirmed_rate_per_10k": 495.058,
      "confirmed_rate_per_100k": 4950.58,
      "deaths": 8,
      "deaths_rate_per_10k": 6.93602,
      "deaths_rate_per_100k": 69.3602,
      "total_tested": 11392,
      "test_rate_per_10k": 9876.89,
      "test_rate_per_100k": 98768.9,
      "total_population": 11534,
      "latitude": 40.997300,
      "longitude": -89.360600
    },
    {
      "County": "Mason",
      "confirmed_cases": 1010,
      "confirmed_rate_per_10k": 744.563,
      "confirmed_rate_per_100k": 7445.63,
      "deaths": 36,
      "deaths_rate_per_10k": 26.5389,
      "deaths_rate_per_100k": 265.389,
      "total_tested": 12973,
      "test_rate_per_10k": 9563.58,
      "test_rate_per_100k": 95635.8,
      "total_population": 13565,
      "latitude": 40.227100,
      "longitude": -89.925300
    },
    {
      "County": "Massac",
      "confirmed_cases": 884,
      "confirmed_rate_per_10k": 627.841,
      "confirmed_rate_per_100k": 6278.41,
      "deaths": 26,
      "deaths_rate_per_10k": 18.4659,
      "deaths_rate_per_100k": 184.659,
      "total_tested": 7128,
      "test_rate_per_10k": 5062.5,
      "test_rate_per_100k": 50625,
      "total_population": 14080,
      "latitude": 37.247800,
      "longitude": -88.749400
    },
    {
      "County": "McDonough",
      "confirmed_cases": 1971,
      "confirmed_rate_per_10k": 657.987,
      "confirmed_rate_per_100k": 6579.87,
      "deaths": 35,
      "deaths_rate_per_10k": 11.6842,
      "deaths_rate_per_100k": 116.842,
      "total_tested": 26387,
      "test_rate_per_10k": 8808.88,
      "test_rate_per_100k": 88088.8,
      "total_population": 29955,
      "latitude": 40.388500,
      "longitude": -90.677300
    },
    {
      "County": "McHenry",
      "confirmed_cases": 18949,
      "confirmed_rate_per_10k": 614.091,
      "confirmed_rate_per_100k": 6140.91,
      "deaths": 204,
      "deaths_rate_per_10k": 6.61114,
      "deaths_rate_per_100k": 66.1114,
      "total_tested": 193859,
      "test_rate_per_10k": 6282.5,
      "test_rate_per_100k": 62825,
      "total_population": 308570,
      "latitude": 42.304000,
      "longitude": -88.401600
    },
    {
      "County": "McLean",
      "confirmed_cases": 11500,
      "confirmed_rate_per_10k": 665.401,
      "confirmed_rate_per_100k": 6654.01,
      "deaths": 93,
      "deaths_rate_per_10k": 5.38107,
      "deaths_rate_per_100k": 53.8107,
      "total_tested": 184827,
      "test_rate_per_10k": 10694.3,
      "test_rate_per_100k": 106943,
      "total_population": 172828,
      "latitude": 40.547800,
      "longitude": -88.864700
    },
    {
      "County": "Menard",
      "confirmed_cases": 721,
      "confirmed_rate_per_10k": 586.751,
      "confirmed_rate_per_100k": 5867.51,
      "deaths": 6,
      "deaths_rate_per_10k": 4.88281,
      "deaths_rate_per_100k": 48.8281,
      "total_tested": 11827,
      "test_rate_per_10k": 9624.84,
      "test_rate_per_100k": 96248.4,
      "total_population": 12288,
      "latitude": 40.022100,
      "longitude": -89.813000
    },
    {
      "County": "Mercer",
      "confirmed_cases": 1057,
      "confirmed_rate_per_10k": 677.521,
      "confirmed_rate_per_100k": 6775.21,
      "deaths": 23,
      "deaths_rate_per_10k": 14.7426,
      "deaths_rate_per_100k": 147.426,
      "total_tested": 11688,
      "test_rate_per_10k": 7491.83,
      "test_rate_per_100k": 74918.3,
      "total_population": 15601,
      "latitude": 41.198500,
      "longitude": -90.677300
    },
    {
      "County": "Monroe",
      "confirmed_cases": 3094,
      "confirmed_rate_per_10k": 901.121,
      "confirmed_rate_per_100k": 9011.21,
      "deaths": 59,
      "deaths_rate_per_10k": 17.1836,
      "deaths_rate_per_100k": 171.836,
      "total_tested": 24920,
      "test_rate_per_10k": 7257.9,
      "test_rate_per_100k": 72579,
      "total_population": 34335,
      "latitude": 38.274300,
      "longitude": -90.187000
    },
    {
      "County": "Montgomery",
      "confirmed_cases": 2115,
      "confirmed_rate_per_10k": 739.485,
      "confirmed_rate_per_100k": 7394.85,
      "deaths": 21,
      "deaths_rate_per_10k": 7.3424,
      "deaths_rate_per_100k": 73.424,
      "total_tested": 32888,
      "test_rate_per_10k": 11498.9,
      "test_rate_per_100k": 114989,
      "total_population": 28601,
      "latitude": 39.236400,
      "longitude": -89.474200
    },
    {
      "County": "Morgan",
      "confirmed_cases": 2994,
      "confirmed_rate_per_10k": 881.21,
      "confirmed_rate_per_100k": 8812.1,
      "deaths": 65,
      "deaths_rate_per_10k": 19.1312,
      "deaths_rate_per_100k": 191.312,
      "total_tested": 33177,
      "test_rate_per_10k": 9764.83,
      "test_rate_per_100k": 97648.3,
      "total_population": 33976,
      "latitude": 39.734100,
      "longitude": -90.224500
    },
    {
      "County": "Moultrie",
      "confirmed_cases": 1250,
      "confirmed_rate_per_10k": 849.358,
      "confirmed_rate_per_100k": 8493.58,
      "deaths": 19,
      "deaths_rate_per_10k": 12.9102,
      "deaths_rate_per_100k": 129.102,
      "total_tested": 14491,
      "test_rate_per_10k": 9846.44,
      "test_rate_per_100k": 98464.4,
      "total_population": 14717,
      "latitude": 39.602100,
      "longitude": -88.595200
    },
    {
      "County": "Ogle",
      "confirmed_cases": 4061,
      "confirmed_rate_per_10k": 797.479,
      "confirmed_rate_per_100k": 7974.79,
      "deaths": 59,
      "deaths_rate_per_10k": 11.5861,
      "deaths_rate_per_100k": 115.861,
      "total_tested": 37893,
      "test_rate_per_10k": 7441.23,
      "test_rate_per_100k": 74412.3,
      "total_population": 50923,
      "latitude": 41.997000,
      "longitude": -89.322700
    },
    {
      "County": "Peoria",
      "confirmed_cases": 12999,
      "confirmed_rate_per_10k": 719.684,
      "confirmed_rate_per_100k": 7196.84,
      "deaths": 193,
      "deaths_rate_per_10k": 10.6854,
      "deaths_rate_per_100k": 106.854,
      "total_tested": 192203,
      "test_rate_per_10k": 10641.2,
      "test_rate_per_100k": 106412,
      "total_population": 180621,
      "latitude": 40.715600,
      "longitude": -89.775500
    },
    {
      "County": "Perry",
      "confirmed_cases": 2121,
      "confirmed_rate_per_10k": 1001.7,
      "confirmed_rate_per_100k": 10017,
      "deaths": 44,
      "deaths_rate_per_10k": 20.7802,
      "deaths_rate_per_100k": 207.802,
      "total_tested": 17477,
      "test_rate_per_10k": 8253.99,
      "test_rate_per_100k": 82539.9,
      "total_population": 21174,
      "latitude": 38.061200,
      "longitude": -89.322700
    },
    {
      "County": "Piatt",
      "confirmed_cases": 1030,
      "confirmed_rate_per_10k": 628.202,
      "confirmed_rate_per_100k": 6282.02,
      "deaths": 7,
      "deaths_rate_per_10k": 4.26933,
      "deaths_rate_per_100k": 42.6933,
      "total_tested": 19982,
      "test_rate_per_10k": 12187.1,
      "test_rate_per_100k": 121871,
      "total_population": 16396,
      "latitude": 40.054400,
      "longitude": -88.855650
    },
    {
      "County": "Pike",
      "confirmed_cases": 1362,
      "confirmed_rate_per_10k": 872.462,
      "confirmed_rate_per_100k": 8724.62,
      "deaths": 36,
      "deaths_rate_per_10k": 23.0607,
      "deaths_rate_per_100k": 230.607,
      "total_tested": 11427,
      "test_rate_per_10k": 7319.84,
      "test_rate_per_100k": 73198.4,
      "total_population": 15611,
      "latitude": 39.566200,
      "longitude": -90.829400
    },
    {
      "County": "Pope",
      "confirmed_cases": 188,
      "confirmed_rate_per_10k": 446.344,
      "confirmed_rate_per_100k": 4463.44,
      "deaths": 1,
      "deaths_rate_per_10k": 2.37417,
      "deaths_rate_per_100k": 23.7417,
      "total_tested": 1705,
      "test_rate_per_10k": 4047.96,
      "test_rate_per_100k": 40479.6,
      "total_population": 4212,
      "latitude": 37.417100,
      "longitude": -88.595200
    },
    {
      "County": "Pulaski",
      "confirmed_cases": 550,
      "confirmed_rate_per_10k": 1006.77,
      "confirmed_rate_per_100k": 10067.7,
      "deaths": 3,
      "deaths_rate_per_10k": 5.49149,
      "deaths_rate_per_100k": 54.9149,
      "total_tested": 3796,
      "test_rate_per_10k": 6948.56,
      "test_rate_per_100k": 69485.6,
      "total_population": 5463,
      "latitude": 37.251200,
      "longitude": -89.132500
    },
    {
      "County": "Putnam",
      "confirmed_cases": 319,
      "confirmed_rate_per_10k": 555.749,
      "confirmed_rate_per_100k": 5557.49,
      "deaths": 0,
      "deaths_rate_per_10k": 0,
      "deaths_rate_per_100k": 0,
      "total_tested": 3441,
      "test_rate_per_10k": 5994.77,
      "test_rate_per_100k": 59947.7,
      "total_population": 5740,
      "latitude": 41.238500,
      "longitude": -89.284700
    },
    {
      "County": "Randolph",
      "confirmed_cases": 3291,
      "confirmed_rate_per_10k": 1025.04,
      "confirmed_rate_per_100k": 10250.4,
      "deaths": 40,
      "deaths_rate_per_10k": 12.4587,
      "deaths_rate_per_100k": 124.587,
      "total_tested": 31202,
      "test_rate_per_10k": 9718.43,
      "test_rate_per_100k": 97184.3,
      "total_population": 32106,
      "latitude": 38.062900,
      "longitude": -89.775500
    },
    {
      "County": "Richland",
      "confirmed_cases": 1289,
      "confirmed_rate_per_10k": 817.738,
      "confirmed_rate_per_100k": 8177.38,
      "deaths": 28,
      "deaths_rate_per_10k": 17.7631,
      "deaths_rate_per_100k": 177.631,
      "total_tested": 15540,
      "test_rate_per_10k": 9858.53,
      "test_rate_per_100k": 98585.3,
      "total_population": 15763,
      "latitude": 38.721300,
      "longitude": -88.090100
    },
    {
      "County": "Rock Island",
      "confirmed_cases": 10938,
      "confirmed_rate_per_10k": 762.352,
      "confirmed_rate_per_100k": 7623.52,
      "deaths": 217,
      "deaths_rate_per_10k": 15.1244,
      "deaths_rate_per_100k": 151.244,
      "total_tested": 118853,
      "test_rate_per_10k": 8283.77,
      "test_rate_per_100k": 82837.7,
      "total_population": 143477,
      "latitude": 41.509500,
      "longitude": -90.578700
    },
    {
      "County": "Saline",
      "confirmed_cases": 1748,
      "confirmed_rate_per_10k": 731.197,
      "confirmed_rate_per_100k": 7311.97,
      "deaths": 31,
      "deaths_rate_per_10k": 12.9675,
      "deaths_rate_per_100k": 129.675,
      "total_tested": 18766,
      "test_rate_per_10k": 7849.91,
      "test_rate_per_100k": 78499.1,
      "total_population": 23906,
      "latitude": 37.715000,
      "longitude": -88.556500
    },
    {
      "County": "Sangamon",
      "confirmed_cases": 13160,
      "confirmed_rate_per_10k": 673.67,
      "confirmed_rate_per_100k": 6736.7,
      "deaths": 174,
      "deaths_rate_per_10k": 8.90718,
      "deaths_rate_per_100k": 89.0718,
      "total_tested": 234403,
      "test_rate_per_10k": 11999.3,
      "test_rate_per_100k": 119993,
      "total_population": 195348,
      "latitude": 39.733700,
      "longitude": -89.625200
    },
    {
      "County": "Schuyler",
      "confirmed_cases": 542,
      "confirmed_rate_per_10k": 784.711,
      "confirmed_rate_per_100k": 7847.11,
      "deaths": 3,
      "deaths_rate_per_10k": 4.34342,
      "deaths_rate_per_100k": 43.4342,
      "total_tested": 7006,
      "test_rate_per_10k": 10143.3,
      "test_rate_per_100k": 101433,
      "total_population": 6907,
      "latitude": 40.184500,
      "longitude": -90.639400
    },
    {
      "County": "Scott",
      "confirmed_cases": 325,
      "confirmed_rate_per_10k": 659.765,
      "confirmed_rate_per_100k": 6597.65,
      "deaths": 1,
      "deaths_rate_per_10k": 2.03004,
      "deaths_rate_per_100k": 20.3004,
      "total_tested": 5346,
      "test_rate_per_10k": 10852.6,
      "test_rate_per_100k": 108526,
      "total_population": 4926,
      "latitude": 39.609500,
      "longitude": -90.488000
    },
    {
      "County": "Shelby",
      "confirmed_cases": 1781,
      "confirmed_rate_per_10k": 819.19,
      "confirmed_rate_per_100k": 8191.9,
      "deaths": 30,
      "deaths_rate_per_10k": 13.7988,
      "deaths_rate_per_100k": 137.988,
      "total_tested": 15527,
      "test_rate_per_10k": 7141.81,
      "test_rate_per_100k": 71418.1,
      "total_population": 21741,
      "latitude": 39.398100,
      "longitude": -88.864700
    },
    {
      "County": "St. Clair",
      "confirmed_cases": 18859,
      "confirmed_rate_per_10k": 722.404,
      "confirmed_rate_per_100k": 7224.04,
      "deaths": 324,
      "deaths_rate_per_10k": 12.411,
      "deaths_rate_per_100k": 124.11,
      "total_tested": 195428,
      "test_rate_per_10k": 7485.97,
      "test_rate_per_100k": 74859.7,
      "total_population": 261059,
      "latitude": 38.400800,
      "longitude": -89.925300
    },
    {
      "County": "Stark",
      "confirmed_cases": 441,
      "confirmed_rate_per_10k": 812.604,
      "confirmed_rate_per_100k": 8126.04,
      "deaths": 19,
      "deaths_rate_per_10k": 35.0101,
      "deaths_rate_per_100k": 350.101,
      "total_tested": 5766,
      "test_rate_per_10k": 10624.7,
      "test_rate_per_100k": 106247,
      "total_population": 5427,
      "latitude": 41.079600,
      "longitude": -89.813000
    },
    {
      "County": "Stephenson",
      "confirmed_cases": 3215,
      "confirmed_rate_per_10k": 718.388,
      "confirmed_rate_per_100k": 7183.88,
      "deaths": 46,
      "deaths_rate_per_10k": 10.2786,
      "deaths_rate_per_100k": 102.786,
      "total_tested": 33767,
      "test_rate_per_10k": 7545.19,
      "test_rate_per_100k": 75451.9,
      "total_population": 44753,
      "latitude": 42.314500,
      "longitude": -89.625200
    },
    {
      "County": "Tazewell",
      "confirmed_cases": 10269,
      "confirmed_rate_per_10k": 776.026,
      "confirmed_rate_per_100k": 7760.26,
      "deaths": 169,
      "deaths_rate_per_10k": 12.7713,
      "deaths_rate_per_100k": 127.713,
      "total_tested": 136028,
      "test_rate_per_10k": 10279.6,
      "test_rate_per_100k": 102796,
      "total_population": 132328,
      "latitude": 40.552200,
      "longitude": -89.474200
    },
    {
      "County": "Union",
      "confirmed_cases": 1663,
      "confirmed_rate_per_10k": 987.471,
      "confirmed_rate_per_100k": 9874.71,
      "deaths": 29,
      "deaths_rate_per_10k": 17.2199,
      "deaths_rate_per_100k": 172.199,
      "total_tested": 19373,
      "test_rate_per_10k": 11503.5,
      "test_rate_per_100k": 115035,
      "total_population": 16841,
      "latitude": 37.508700,
      "longitude": -89.284700
    },
    {
      "County": "Vermilion",
      "confirmed_cases": 6352,
      "confirmed_rate_per_10k": 827.019,
      "confirmed_rate_per_100k": 8270.19,
      "deaths": 73,
      "deaths_rate_per_10k": 9.50447,
      "deaths_rate_per_100k": 95.0447,
      "total_tested": 75004,
      "test_rate_per_10k": 9765.38,
      "test_rate_per_100k": 97653.8,
      "total_population": 76806,
      "latitude": 40.122500,
      "longitude": -87.697600
    },
    {
      "County": "Wabash",
      "confirmed_cases": 1037,
      "confirmed_rate_per_10k": 897.913,
      "confirmed_rate_per_100k": 8979.13,
      "deaths": 11,
      "deaths_rate_per_10k": 9.52463,
      "deaths_rate_per_100k": 95.2463,
      "total_tested": 8525,
      "test_rate_per_10k": 7381.59,
      "test_rate_per_100k": 73815.9,
      "total_population": 11549,
      "latitude": 38.422600,
      "longitude": -87.815700
    },
    {
      "County": "Warren",
      "confirmed_cases": 1480,
      "confirmed_rate_per_10k": 868.953,
      "confirmed_rate_per_100k": 8689.53,
      "deaths": 34,
      "deaths_rate_per_10k": 19.9624,
      "deaths_rate_per_100k": 199.624,
      "total_tested": 10713,
      "test_rate_per_10k": 6289.92,
      "test_rate_per_100k": 62899.2,
      "total_population": 17032,
      "latitude": 40.875900,
      "longitude": -90.677300
    },
    {
      "County": "Washington",
      "confirmed_cases": 1203,
      "confirmed_rate_per_10k": 859.593,
      "confirmed_rate_per_100k": 8595.93,
      "deaths": 18,
      "deaths_rate_per_10k": 12.8617,
      "deaths_rate_per_100k": 128.617,
      "total_tested": 8119,
      "test_rate_per_10k": 5801.36,
      "test_rate_per_100k": 58013.6,
      "total_population": 13995,
      "latitude": 38.398900,
      "longitude": -89.322700
    },
    {
      "County": "Wayne",
      "confirmed_cases": 1319,
      "confirmed_rate_per_10k": 807.617,
      "confirmed_rate_per_100k": 8076.17,
      "deaths": 40,
      "deaths_rate_per_10k": 24.4918,
      "deaths_rate_per_100k": 244.918,
      "total_tested": 10405,
      "test_rate_per_10k": 6370.93,
      "test_rate_per_100k": 63709.3,
      "total_population": 16332,
      "latitude": 38.390000,
      "longitude": -88.401600
    },
    {
      "County": "White",
      "confirmed_cases": 1108,
      "confirmed_rate_per_10k": 810.831,
      "confirmed_rate_per_100k": 8108.31,
      "deaths": 19,
      "deaths_rate_per_10k": 13.9041,
      "deaths_rate_per_100k": 139.041,
      "total_tested": 14716,
      "test_rate_per_10k": 10769.1,
      "test_rate_per_100k": 107691,
      "total_population": 13665,
      "latitude": 38.050100,
      "longitude": -88.246100
    },
    {
      "County": "Whiteside",
      "confirmed_cases": 4790,
      "confirmed_rate_per_10k": 861.108,
      "confirmed_rate_per_100k": 8611.08,
      "deaths": 123,
      "deaths_rate_per_10k": 22.112,
      "deaths_rate_per_100k": 221.12,
      "total_tested": 40901,
      "test_rate_per_10k": 7352.86,
      "test_rate_per_100k": 73528.6,
      "total_population": 55626,
      "latitude": 41.760600,
      "longitude": -89.850500
    },
    {
      "County": "Will",
      "confirmed_cases": 51794,
      "confirmed_rate_per_10k": 748.133,
      "confirmed_rate_per_100k": 7481.33,
      "deaths": 718,
      "deaths_rate_per_10k": 10.3711,
      "deaths_rate_per_100k": 103.711,
      "total_tested": 511376,
      "test_rate_per_10k": 7386.52,
      "test_rate_per_100k": 73865.2,
      "total_population": 692310,
      "latitude": 41.505500,
      "longitude": -88.090100
    },
    {
      "County": "Williamson",
      "confirmed_cases": 5234,
      "confirmed_rate_per_10k": 780.542,
      "confirmed_rate_per_100k": 7805.42,
      "deaths": 98,
      "deaths_rate_per_10k": 14.6147,
      "deaths_rate_per_100k": 146.147,
      "total_tested": 61463,
      "test_rate_per_10k": 9165.92,
      "test_rate_per_100k": 91659.2,
      "total_population": 67056,
      "latitude": 37.718300,
      "longitude": -88.864700
    },
    {
      "County": "Winnebago",
      "confirmed_cases": 23840,
      "confirmed_rate_per_10k": 839.197,
      "confirmed_rate_per_100k": 8391.97,
      "deaths": 341,
      "deaths_rate_per_10k": 12.0036,
      "deaths_rate_per_100k": 120.036,
      "total_tested": 241989,
      "test_rate_per_10k": 8518.31,
      "test_rate_per_100k": 85183.1,
      "total_population": 284081,
      "latitude": 42.312100,
      "longitude": -89.170600
    },
    {
      "County": "Woodford",
      "confirmed_cases": 2759,
      "confirmed_rate_per_10k": 717.313,
      "confirmed_rate_per_100k": 7173.13,
      "deaths": 46,
      "deaths_rate_per_10k": 11.9595,
      "deaths_rate_per_100k": 119.595,
      "total_tested": 38579,
      "test_rate_per_10k": 10030.2,
      "test_rate_per_100k": 100302,
      "total_population": 38463,
      "latitude": 40.712900,
      "longitude": -89.170600
    }
  ]
}
